timestamp_s,flight_id,altitude_m,airspeed_ms,pitch_deg,roll_deg,yaw_deg,motor1_temp_c,motor2_temp_c,motor3_temp_c,motor4_temp_c,battery_v,battery_pct,vibration_g,altitude_ms_rate,airspeed_ms_rate,motor_max_temp,motor_temp_spread,motor_temp_zscore,vibration_zscore,phase,fault_flag,fault_reason
0.0,FLT_003,0.0,0.0,8.0,0.814,0.045,54.74,56.0,55.3,54.61,52.065,100.0,0.4137,,,56.0,1.3900000000000006,,,landing,False,
0.1,FLT_003,0.54,0.04,8.0,0.673,359.939,54.14,53.35,53.97,54.14,52.146,99.6,0.352,5.4,0.4,54.14,0.7899999999999991,,,landing,False,
0.2,FLT_003,0.0,0.08,8.0,-1.975,359.976,53.91,55.74,56.02,55.25,52.013,99.9,0.2705,-5.4,0.4,56.02,2.1100000000000065,,,landing,False,
0.3,FLT_003,0.0,0.12,8.0,1.048,0.165,55.45,55.25,55.76,54.84,52.016,99.9,0.3096,0.0,0.3999999999999999,55.76,0.9199999999999946,,,landing,False,
0.4,FLT_003,0.83,0.16,8.0,2.681,0.202,55.71,55.35,55.4,55.33,52.02,100.0,0.3,8.299999999999999,0.4000000000000001,55.71,0.38000000000000256,0.23375912669782986,-0.5249366101709187,landing,False,
0.5,FLT_003,0.71,0.2,8.0,2.57,0.177,55.14,54.27,54.89,55.42,51.848,100.0,0.2932,-1.2,0.4000000000000001,55.42,1.1499999999999986,-0.12523088721528755,-0.5784102678162053,landing,False,
0.6,FLT_003,1.28,0.24,8.0,2.924,0.21,54.27,55.04,54.74,56.11,52.018,99.8,0.3506,5.700000000000001,0.3999999999999998,56.11,1.8399999999999963,0.755200925322134,0.48565150665751594,landing,False,
0.7,FLT_003,1.17,0.28,8.0,3.541,0.027,54.44,54.52,56.17,55.89,51.768,99.6,0.2999,-1.100000000000001,0.40000000000000036,56.17,1.730000000000004,0.7584477345381584,-0.5188640027750879,landing,False,
0.8,FLT_003,1.07,0.32,8.0,3.354,0.088,54.25,54.58,55.3,55.64,51.94,99.7,0.2671,-0.9999999999999987,0.3999999999999998,55.64,1.3900000000000006,-0.03755262031946963,-1.0736499872276855,landing,False,
0.9,FLT_003,2.05,0.36,8.0,-2.556,0.045,55.02,54.47,54.11,54.97,52.048,100.0,0.3807,9.799999999999997,0.3999999999999998,55.02,0.9100000000000037,-0.9336684246826464,1.1747750300615407,landing,False,
1.0,FLT_003,2.43,0.4,8.0,-0.963,0.153,54.55,56.33,53.68,56.68,51.943,99.8,0.2835,3.8000000000000034,0.40000000000000036,56.68,3.0,1.4611641003418714,-0.7686883123545135,landing,False,
1.1,FLT_003,1.85,0.44,8.0,0.341,0.165,55.06,53.84,54.56,53.91,51.815,100.0,0.2938,-5.800000000000001,0.3999999999999998,55.06,1.2199999999999989,-0.8756396819625676,-0.5236232968525706,landing,False,
1.2,FLT_003,3.29,0.48,8.0,0.387,0.018,55.25,57.56,54.91,55.9,51.985,100.0,0.3059,14.399999999999999,0.3999999999999998,57.56,2.6500000000000057,2.128490535382209,-0.2504830089747861,landing,False,
1.3,FLT_003,3.39,0.52,8.0,-1.933,359.992,57.14,56.42,55.27,55.22,52.056,99.8,0.31,1.0000000000000009,0.40000000000000036,57.14,1.9200000000000017,1.429646920137255,-0.15221125253043052,landing,False,
1.4,FLT_003,4.04,0.56,8.0,-0.818,359.829,55.57,53.9,53.99,54.18,51.876,100.0,0.267,6.499999999999999,0.40000000000000036,55.57,1.6700000000000017,-0.34985838708230005,-1.0768745198341496,landing,False,
1.5,FLT_003,2.88,0.6,8.0,1.458,359.898,55.25,54.77,56.11,57.11,51.99,100.0,0.2918,-11.600000000000001,0.39999999999999925,57.11,2.3399999999999963,1.330322842823356,-0.4796710968509694,landing,False,
1.6,FLT_003,3.15,0.64,8.0,1.943,359.82,54.69,57.07,55.7,53.63,51.909,99.8,0.3556,2.7,0.40000000000000036,57.07,3.4399999999999977,1.1887230027228473,0.9853958172997382,landing,False,
1.7,FLT_003,3.2,0.68,8.0,-1.056,359.898,56.51,55.45,53.67,54.8,52.072,100.0,0.3431,0.5000000000000027,0.40000000000000036,56.51,2.8399999999999963,0.5405394711310875,0.6591018046425572,landing,False,
1.8,FLT_003,3.83,0.72,8.0,-0.496,359.774,54.81,54.1,55.59,57.17,52.233,99.5,0.2026,6.299999999999999,0.39999999999999925,57.17,3.0700000000000003,1.2088872546877527,-2.2531269371543554,landing,False,
1.9,FLT_003,3.22,0.76,8.0,1.366,359.806,54.77,55.85,54.04,55.7,51.896,99.9,0.2203,-6.099999999999999,0.40000000000000036,55.85,1.8100000000000023,-0.2722614896532262,-1.6859785625733295,landing,False,
2.0,FLT_003,3.87,0.8,8.0,-0.319,359.825,56.29,54.6,53.33,56.33,51.788,100.0,0.2521,6.499999999999999,0.40000000000000036,56.33,3.0,0.2756481671027669,-1.005091034971028,landing,False,
2.1,FLT_003,4.61,0.84,8.0,-3.698,359.919,52.65,55.62,56.63,54.06,51.976,99.0,0.2079,7.400000000000002,0.39999999999999925,56.63,3.980000000000004,0.6111990554227105,-1.6993391671045919,landing,False,
2.2,FLT_003,4.0,0.88,8.0,-0.331,359.835,54.25,55.56,55.25,54.75,51.91,100.0,0.2352,-6.100000000000003,0.40000000000000036,55.56,1.3100000000000023,-0.6536744134954248,-1.127670043468428,landing,False,
2.3,FLT_003,4.47,0.92,8.0,-1.215,359.886,55.9,53.5,55.74,55.7,52.07,99.4,0.3162,4.6999999999999975,0.40000000000000036,55.9,2.3999999999999986,-0.2346490370789874,0.36797947755305915,landing,False,
2.4,FLT_003,5.06,0.96,8.0,-0.335,359.815,54.32,56.3,55.12,55.55,51.854,99.7,0.2421,5.899999999999999,0.39999999999999925,56.3,1.9799999999999969,0.257168189642719,-0.9928642545974843,landing,False,
2.5,FLT_003,4.91,1.0,8.0,3.112,359.907,52.83,52.62,54.83,54.66,51.97,99.7,0.3202,-1.4999999999999947,0.40000000000000036,54.83,2.210000000000001,-1.5012343424072632,0.4735563133891029,landing,False,
2.6,FLT_003,4.91,1.04,8.0,1.159,0.036,54.31,55.67,55.33,53.37,51.992,99.2,0.3114,0.0,0.40000000000000036,55.67,2.3000000000000043,-0.4560092113240484,0.2984168748482904,landing,False,
2.7,FLT_003,5.74,1.08,8.0,-1.164,359.976,56.29,54.8,54.17,55.5,51.979,99.5,0.2328,8.3,0.40000000000000036,56.29,2.1199999999999974,0.313622083627067,-1.1846838058024716,landing,False,
2.8,FLT_003,5.59,1.12,8.0,-0.123,359.908,56.75,52.98,53.98,55.29,51.98,99.4,0.3305,-1.5000000000000036,0.40000000000000036,56.75,3.770000000000003,0.8714720638672842,0.6919739916734768,landing,False,
2.9,FLT_003,5.9,1.16,8.0,-2.025,359.773,55.14,56.15,55.39,53.64,52.072,99.5,0.2468,3.100000000000005,0.39999999999999813,56.15,2.509999999999998,0.10313793754341352,-0.9169467999488514,landing,False,
3.0,FLT_003,5.66,1.2,8.0,2.073,359.564,53.81,54.18,55.98,54.7,52.079,99.8,0.3439,-2.400000000000002,0.40000000000000036,55.98,2.1699999999999946,-0.11599276840466693,0.957105333480592,landing,False,
3.1,FLT_003,5.9,1.24,8.0,-0.855,359.645,54.96,55.38,56.78,54.21,51.959,99.7,0.3104,2.400000000000002,0.40000000000000036,56.78,2.5700000000000003,0.9142469601306841,0.2942650340819229,landing,False,
3.2,FLT_003,6.76,1.28,8.0,2.402,359.758,53.93,54.88,54.24,54.21,52.031,99.7,0.3228,8.599999999999994,0.40000000000000036,54.88,0.9500000000000028,-1.5196270004146581,0.5310021967357499,landing,False,
3.3,FLT_003,7.33,1.32,8.0,2.619,359.741,54.71,55.85,54.83,55.55,52.135,99.6,0.2945,5.700000000000003,0.40000000000000036,55.85,1.1400000000000006,-0.25928947438171734,-0.03895717524673269,landing,False,
3.4,FLT_003,6.55,1.36,8.0,2.533,359.651,53.87,56.92,55.2,54.78,51.817,100.0,0.3267,-7.8000000000000025,0.40000000000000036,56.92,3.0500000000000043,1.1092493930051301,0.6081496526374663,landing,False,
3.5,FLT_003,7.36,1.4,8.0,1.138,359.603,53.11,55.05,55.26,54.8,52.199,99.5,0.2635,8.100000000000005,0.39999999999999813,55.26,2.1499999999999986,-1.0319168006380526,-0.6835485901081648,landing,False,
3.6,FLT_003,7.48,1.44,8.0,1.357,359.62,55.5,55.27,54.08,56.09,51.945,99.5,0.3203,1.200000000000001,0.40000000000000036,56.09,2.010000000000005,0.051932245613386774,0.4907595026890881,landing,False,
3.7,FLT_003,7.79,1.48,8.0,1.411,359.699,54.87,55.24,56.39,53.97,51.968,99.4,0.3704,3.099999999999996,0.40000000000000036,56.39,2.4200000000000017,0.4424836314563251,1.4781401406689452,landing,False,
3.8,FLT_003,7.56,1.52,8.0,0.702,359.589,54.98,54.8,53.21,55.28,52.006,99.5,0.2907,-2.3000000000000043,0.40000000000000036,55.28,2.0700000000000003,-1.0170498061782811,-0.16756741568667313,landing,False,
3.9,FLT_003,8.28,1.56,8.0,-1.983,359.595,57.21,55.71,54.94,53.52,52.123,99.1,0.3002,7.1999999999999975,0.40000000000000036,57.21,3.6899999999999977,1.5008621528496608,0.03103347050297519,landing,False,
4.0,FLT_003,8.27,1.6,8.0,-3.764,359.592,55.24,53.31,55.85,54.35,52.059,98.7,0.2707,-0.09999999999999787,0.40000000000000036,55.85,2.539999999999999,-0.28433006411967915,-0.5852388946958814,landing,False,
4.1,FLT_003,7.99,1.64,8.0,2.331,359.509,54.93,55.21,54.53,55.71,52.104,99.8,0.371,-2.7999999999999936,0.39999999999999813,55.71,1.1799999999999997,-0.46388732748911143,1.4985738407204687,landing,False,
4.2,FLT_003,8.21,1.68,8.0,0.211,359.589,56.11,54.11,56.41,56.47,52.092,99.4,0.2195,2.2000000000000064,0.40000000000000036,56.47,2.3599999999999994,0.5489153905700929,-1.6163245384530078,landing,False,
4.3,FLT_003,9.8,1.72,8.0,-2.13,359.68,56.57,53.94,54.38,55.12,51.838,99.7,0.2726,15.899999999999999,0.40000000000000036,56.57,2.6300000000000026,0.6731137632215183,-0.5144657490308401,landing,False,
4.4,FLT_003,9.21,1.76,8.0,0.099,359.662,54.39,56.45,53.62,55.43,52.008,99.4,0.3849,-5.899999999999999,0.40000000000000036,56.45,2.8300000000000054,0.5024406788385163,1.7360019959436213,landing,False,
4.5,FLT_003,9.13,1.8,8.0,0.394,359.669,55.82,55.64,55.07,56.19,51.868,99.7,0.3594,-0.8000000000000007,0.40000000000000036,56.19,1.1199999999999974,0.14328298595392375,1.1864318309752382,landing,False,
4.6,FLT_003,9.06,1.84,8.0,-2.028,359.567,56.28,54.72,54.15,54.15,51.904,99.6,0.3015,-0.7000000000000028,0.40000000000000036,56.28,2.1300000000000026,0.26541278602738305,0.017969622416850805,landing,False,
4.7,FLT_003,9.23,1.88,8.0,-1.985,359.615,53.9,54.23,56.22,53.36,51.757,99.4,0.2377,1.6999999999999993,0.39999999999999813,56.22,2.8599999999999994,0.17920764724380464,-1.2487077592779705,landing,False,
4.8,FLT_003,9.72,1.92,8.0,0.492,359.81,55.95,54.0,56.59,55.84,51.909,99.9,0.357,4.900000000000002,0.40000000000000036,56.59,2.5900000000000034,0.6937585288113145,1.141430095963836,landing,False,
4.9,FLT_003,9.32,1.96,8.0,-0.547,359.916,55.79,54.94,56.37,53.76,51.96,99.5,0.2912,-4.0000000000000036,0.40000000000000036,56.37,2.6099999999999994,0.37549928825700934,-0.1856324574684709,landing,False,
5.0,FLT_003,9.25,2.0,8.0,-0.15,359.886,55.78,55.06,55.3,54.99,51.807,99.8,0.329,-0.7000000000000028,0.40000000000000036,55.78,0.7899999999999991,-0.4667046925267567,0.6548007767111551,landing,False,
5.1,FLT_003,10.53,2.04,8.0,-0.722,359.723,55.76,54.54,56.38,54.06,51.963,99.4,0.3743,12.799999999999994,0.40000000000000036,56.38,2.3200000000000003,0.3620162861104282,1.5995374483240212,landing,False,
5.2,FLT_003,11.17,2.08,8.0,-2.889,359.755,55.28,55.45,55.13,54.03,51.965,98.9,0.3761,6.400000000000006,0.40000000000000036,55.45,1.4200000000000017,-1.0688561202658318,1.558104638443222,landing,False,
5.3,FLT_003,11.38,2.12,8.0,-0.906,359.743,54.23,54.72,53.94,56.58,51.944,99.7,0.3188,2.1000000000000085,0.40000000000000036,56.58,2.6400000000000006,0.6600680668370935,0.36248954093891644,landing,False,
5.4,FLT_003,11.13,2.16,8.0,-2.994,359.701,54.95,55.72,55.52,56.87,51.91,98.9,0.2899,-2.5,0.40000000000000036,56.87,1.9199999999999946,1.0665465657372253,-0.2334561381653991,landing,False,
5.5,FLT_003,10.8,2.2,8.0,1.682,359.752,53.24,55.31,54.69,55.36,51.75,99.2,0.346,-3.3000000000000007,0.40000000000000036,55.36,2.1199999999999974,-1.2553534422010089,0.9017291078187603,landing,False,
5.6,FLT_003,11.91,2.24,8.0,-2.676,359.756,55.55,55.18,55.95,56.49,51.865,100.0,0.2548,11.099999999999994,0.40000000000000036,56.49,1.3100000000000023,0.4690771174008248,-0.9376143250805336,landing,False,
5.7,FLT_003,12.19,2.28,8.0,-1.746,359.677,54.58,53.01,55.23,56.63,51.91,99.8,0.2207,2.7999999999999936,0.3999999999999959,56.63,3.6200000000000045,0.6666130675223956,-1.5662659733750386,landing,False,
5.8,FLT_003,11.75,2.32,8.0,-2.661,359.732,55.45,55.64,54.76,53.48,51.911,99.8,0.3607,-4.399999999999995,0.40000000000000036,55.64,2.1600000000000037,-0.8449465679498332,1.194271693443334,landing,False,
5.9,FLT_003,12.43,2.36,8.0,0.749,359.709,54.01,53.83,54.93,55.76,51.897,99.4,0.3232,6.799999999999997,0.40000000000000036,55.76,1.9299999999999997,-0.7047366026813071,0.4840441663330794,landing,False,
6.0,FLT_003,11.01,2.4,8.0,2.077,359.626,55.26,53.48,54.97,56.77,51.928,99.3,0.2349,-14.2,0.40000000000000036,56.77,3.2900000000000063,0.8784720412366324,-1.2731928588763797,landing,False,
6.1,FLT_003,12.4,2.44,8.0,2.272,359.541,55.89,53.61,55.63,56.71,51.82,99.0,0.265,13.900000000000006,0.40000000000000036,56.71,3.1000000000000014,0.754237361330348,-0.6557374666719167,landing,False,
6.2,FLT_003,12.6,2.48,8.0,-0.712,359.475,54.49,53.69,55.32,55.17,51.917,98.8,0.2543,1.999999999999993,0.40000000000000036,55.32,1.6300000000000026,-1.4569836244425323,-0.8425029046677145,landing,False,
6.3,FLT_003,12.34,2.52,8.0,0.359,359.446,54.22,55.24,54.4,56.0,51.884,99.5,0.3486,-2.599999999999998,0.40000000000000036,56.0,1.7800000000000011,-0.2984134510922221,0.9997842398664295,landing,False,
6.4,FLT_003,12.63,2.56,8.0,0.76,359.275,55.0,53.28,53.68,54.96,51.915,99.4,0.3148,2.9000000000000092,0.40000000000000036,55.0,1.7199999999999989,-1.9238685645598639,0.3190895543456653,landing,False,
6.5,FLT_003,13.53,2.6,8.0,-1.137,359.293,54.34,54.16,54.9,54.38,52.014,99.2,0.3895,8.999999999999986,0.40000000000000036,54.9,0.740000000000002,-1.9829260901016617,1.6965570955424785,landing,False,
6.6,FLT_003,13.39,2.64,8.0,-1.128,359.46,53.68,54.02,54.75,55.55,51.835,99.1,0.3955,-1.399999999999988,0.40000000000000036,55.55,1.8699999999999974,-0.8920051292199662,1.7573413762215906,landing,False,
6.7,FLT_003,13.73,2.68,8.0,-1.651,359.312,53.81,53.24,56.24,53.74,52.021,99.0,0.3988,3.3999999999999986,0.40000000000000036,56.24,3.0,0.25910511361880023,1.750901723815359,landing,False,
6.8,FLT_003,14.14,2.72,8.0,-0.278,359.141,54.39,56.29,56.53,55.1,52.068,99.0,0.3629,4.100000000000001,0.40000000000000036,56.53,2.1400000000000006,0.7841715594574105,1.0651260045229303,landing,False,
6.9,FLT_003,14.06,2.76,8.0,1.572,359.217,54.71,54.3,55.79,56.28,51.862,98.9,0.3431,-0.8000000000000007,0.3999999999999959,56.28,1.980000000000004,0.34226988156531635,0.6657982557353568,landing,False,
7.0,FLT_003,14.19,2.8,8.0,-1.877,359.262,53.38,53.43,55.01,55.45,51.897,100.0,0.3409,1.29999999999999,0.40000000000000036,55.45,2.0700000000000003,-1.0368367075755673,0.5950570251464716,landing,False,
7.1,FLT_003,14.47,2.84,8.0,0.357,359.176,56.6,55.85,53.33,53.73,51.942,98.8,0.3189,2.8000000000000114,0.40000000000000036,56.6,3.270000000000003,0.9127342356412556,0.13600974735761023,landing,False,
7.2,FLT_003,13.69,2.88,8.0,-1.969,358.998,54.44,53.67,53.61,54.25,51.907,98.6,0.3587,-7.800000000000011,0.40000000000000036,54.44,0.8299999999999983,-2.5413853605307604,0.89714964122089,landing,False,
7.3,FLT_003,15.09,2.92,8.0,-2.508,359.173,55.99,55.1,55.36,53.51,51.919,99.0,0.3355,14.000000000000004,0.40000000000000036,55.99,2.480000000000004,-0.08108295768963876,0.41694481754517343,landing,False,
7.4,FLT_003,15.03,2.96,8.0,-0.417,359.226,55.77,55.42,55.36,54.68,51.703,99.0,0.3187,-0.600000000000005,0.40000000000000036,55.77,1.0900000000000034,-0.41399211987219653,0.046023861504980175,landing,False,
7.5,FLT_003,15.35,3.0,8.0,-2.062,359.183,54.49,54.77,54.44,55.55,51.875,99.1,0.2946,3.200000000000003,0.40000000000000036,55.55,1.1099999999999994,-0.812646315154669,-0.4429922754213037,landing,False,
7.6,FLT_003,15.19,3.04,8.0,1.57,359.13,54.65,54.14,54.21,55.53,51.78,99.3,0.2465,-1.6000000000000014,0.40000000000000036,55.53,1.3900000000000006,-0.8380362636582513,-1.3847188618145636,landing,False,
7.7,FLT_003,15.52,3.08,8.0,-0.315,359.072,52.78,54.91,53.55,54.93,51.829,99.7,0.3356,3.3000000000000007,0.40000000000000036,54.93,2.1499999999999986,-1.722799267099284,0.3941772498409088,landing,False,
7.8,FLT_003,16.14,3.12,8.0,-1.246,359.12,54.67,54.77,55.86,53.56,51.987,99.4,0.2595,6.20000000000001,0.40000000000000036,55.86,2.299999999999997,-0.22061715927670306,-1.1506282718121943,landing,False,
7.9,FLT_003,15.01,3.16,8.0,-1.295,358.987,55.22,55.11,55.26,56.64,51.915,99.9,0.2651,-11.300000000000008,0.40000000000000036,56.64,1.5300000000000011,1.009431819194785,-1.0527176596175651,landing,False,
8.0,FLT_003,14.82,3.2,8.0,-0.312,358.961,53.1,55.4,56.8,54.74,51.936,99.0,0.2312,-1.899999999999995,0.40000000000000036,56.8,3.6999999999999957,1.219065650756605,-1.6671499298669321,landing,False,
8.1,FLT_003,16.74,3.24,8.0,0.771,359.059,54.71,56.56,56.04,56.02,51.86,99.4,0.2917,19.19999999999998,0.40000000000000036,56.56,1.8500000000000014,0.8554899800628345,-0.43203118362882553,landing,False,
8.2,FLT_003,16.37,3.28,8.0,-6.172,358.998,54.85,55.83,54.29,53.78,51.841,98.7,0.2883,-3.6999999999999744,0.3999999999999959,55.83,2.049999999999997,-0.3397437503898547,-0.4858737601096825,landing,False,
8.3,FLT_003,15.61,3.32,8.0,-2.227,359.025,53.68,54.66,55.32,54.85,51.981,99.6,0.2937,-7.600000000000016,0.40000000000000036,55.32,1.6400000000000006,-1.1415646721783805,-0.3764468382349815,landing,False,
8.4,FLT_003,16.5,3.36,8.0,-0.267,359.044,53.96,56.08,53.88,53.99,51.845,99.5,0.2221,8.900000000000006,0.40000000000000036,56.08,2.1999999999999957,0.1148441861305046,-1.72549845417566,landing,False,
8.5,FLT_003,17.21,3.4,8.0,-1.755,359.325,54.35,54.92,54.87,54.25,51.951,98.7,0.3619,7.1000000000000085,0.40000000000000036,54.92,0.6700000000000017,-1.757811852711496,0.9714086737169837,landing,False,
8.6,FLT_003,17.19,3.44,8.0,1.045,359.307,54.89,54.42,54.7,56.07,51.98,99.1,0.2573,-0.19999999999999574,0.40000000000000036,56.07,1.6499999999999986,0.10837162595568131,-1.037591614482601,landing,False,
8.7,FLT_003,17.41,3.48,8.0,-4.381,359.457,54.3,53.8,54.37,55.07,51.947,98.5,0.1975,2.1999999999999886,0.40000000000000036,55.07,1.2700000000000031,-1.4447367320473414,-2.059499945024168,landing,False,
8.8,FLT_003,17.82,3.52,8.0,-0.385,359.498,57.25,53.59,55.52,56.05,51.926,98.6,0.2837,4.100000000000001,0.40000000000000036,57.25,3.6599999999999966,1.913975684193655,-0.44253162193394974,landing,False,
8.9,FLT_003,17.42,3.56,8.0,-2.011,359.52,56.14,54.57,54.72,54.55,51.782,99.2,0.3182,-3.999999999999986,0.40000000000000036,56.14,1.5900000000000034,0.23361561382607848,0.19597389465225445,landing,False,
9.0,FLT_003,17.31,3.6,8.0,-0.806,359.476,55.87,55.13,56.09,54.78,51.732,99.0,0.3169,-1.1000000000000298,0.40000000000000036,56.09,1.3100000000000023,0.14549682173169975,0.15512286204127712,landing,False,
9.1,FLT_003,18.61,3.64,8.0,-1.518,359.519,54.44,53.46,57.14,53.61,51.894,98.6,0.3074,13.000000000000007,0.40000000000000036,57.14,3.6799999999999997,1.7362707138136222,0.0005337796302452196,landing,False,
9.2,FLT_003,19.09,3.68,8.0,3.41,359.627,53.54,52.83,55.31,54.4,51.957,98.9,0.2933,4.800000000000004,0.40000000000000036,55.31,2.480000000000004,-1.0775170485542602,-0.3051634404965564,landing,False,
9.3,FLT_003,18.64,3.72,8.0,0.422,359.736,56.81,54.06,54.91,53.75,51.848,98.6,0.2663,-4.499999999999993,0.40000000000000036,56.81,3.0600000000000023,1.2307659872474455,-0.8310069072868143,landing,False,
9.4,FLT_003,17.66,3.76,8.0,-0.251,359.737,55.79,53.0,54.24,53.28,51.79,98.7,0.3373,-9.800000000000004,0.3999999999999959,55.79,2.789999999999999,-0.3189551579930852,0.590210377312856,landing,False,
9.5,FLT_003,18.9,3.8,8.0,1.564,359.775,54.99,53.71,54.55,54.62,51.86,99.1,0.4189,12.399999999999984,0.40000000000000036,54.99,1.2800000000000011,-1.4831897880679017,2.115993086943538,landing,False,
9.6,FLT_003,18.62,3.84,8.0,3.386,359.952,54.68,53.75,54.53,53.39,51.914,99.0,0.3056,-2.799999999999976,0.40000000000000036,54.68,1.2899999999999991,-1.8387361912451918,-0.0662586784634121,landing,False,
9.7,FLT_003,19.2,3.88,8.0,0.678,359.912,54.34,54.42,54.95,54.58,52.069,98.5,0.2608,5.799999999999983,0.40000000000000036,54.95,0.6099999999999994,-1.3819711961279513,-0.9475430154411401,landing,False,
9.8,FLT_003,19.54,3.92,8.0,-0.222,359.946,54.65,55.49,54.73,53.77,51.932,98.8,0.3614,3.3999999999999986,0.40000000000000036,55.49,1.7199999999999989,-0.5809430024337344,1.0062350668966629,landing,False,
9.9,FLT_003,20.58,3.96,8.0,2.964,0.074,54.74,55.73,55.9,54.75,51.788,99.4,0.2496,10.399999999999991,0.40000000000000036,55.9,1.1599999999999966,0.023456881070448247,-1.135019520616112,landing,False,
10.0,FLT_003,20.35,4.0,8.0,-0.153,0.146,57.19,54.15,54.99,53.35,51.843,99.2,0.1967,-2.2999999999999687,0.40000000000000036,57.19,3.8399999999999963,1.7882321117182367,-2.0119108656728066,landing,False,
10.1,FLT_003,18.99,4.04,8.0,-0.022,0.181,53.78,56.73,55.22,55.84,51.972,99.0,0.3946,-13.60000000000003,0.40000000000000036,56.73,2.9499999999999957,1.1247711775850724,1.6021792028625557,landing,False,
10.2,FLT_003,19.72,4.08,8.0,-0.728,0.138,54.91,55.13,56.69,56.04,51.798,98.8,0.3147,7.300000000000004,0.40000000000000036,56.69,1.7800000000000011,1.027988388016443,0.17400498229927314,landing,False,
10.3,FLT_003,21.16,4.12,8.0,2.966,0.173,52.5,56.83,55.0,55.36,51.785,98.8,0.3791,14.400000000000013,0.40000000000000036,56.83,4.329999999999998,1.205147266881686,1.3191088258708075,landing,False,
10.4,FLT_003,20.44,4.16,8.0,-0.874,0.183,56.15,52.95,55.14,55.94,51.849,98.9,0.2894,-7.199999999999989,0.40000000000000036,56.15,3.1999999999999957,0.29957595688336586,-0.3104549850346213,landing,False,
10.5,FLT_003,21.19,4.2,8.0,0.643,0.293,54.55,54.43,55.3,55.66,51.751,99.2,0.2992,7.5,0.40000000000000036,55.66,1.2299999999999969,-0.3915989254611269,-0.11601120075300995,landing,False,
10.6,FLT_003,20.89,4.24,8.0,3.718,0.327,54.95,53.92,56.34,56.27,51.815,98.8,0.3378,-3.000000000000007,0.40000000000000036,56.34,2.4200000000000017,0.5638652305174047,0.5618607779276594,landing,False,
10.7,FLT_003,21.84,4.28,8.0,2.65,0.344,55.35,54.23,57.2,56.46,51.669,98.6,0.3223,9.499999999999993,0.40000000000000036,57.2,2.970000000000006,1.7147641170351027,0.24623182719013345,landing,False,
10.8,FLT_003,21.78,4.32,8.0,0.811,0.407,54.41,53.05,54.98,54.47,51.742,98.9,0.2491,-0.5999999999999872,0.40000000000000036,54.98,1.9299999999999997,-1.2891885832202612,-1.0893561091236408,landing,False,
10.9,FLT_003,22.22,4.36,8.0,1.212,0.474,53.72,55.41,55.52,55.42,51.833,99.3,0.2554,4.399999999999977,0.40000000000000036,55.52,1.8000000000000043,-0.5527625018346615,-0.9375558109711979,landing,False,
11.0,FLT_003,21.08,4.4,8.0,0.788,0.532,55.09,53.2,56.18,54.58,51.833,98.7,0.317,-11.400000000000006,0.40000000000000036,56.18,2.979999999999997,0.3554843271849114,0.18430731739776948,landing,False,
11.1,FLT_003,22.45,4.44,8.0,-3.04,0.546,55.81,53.71,56.14,55.04,51.802,98.4,0.3386,13.70000000000001,0.40000000000000036,56.14,2.4299999999999997,0.3200850401452885,0.5686003587966938,landing,False,
11.2,FLT_003,21.71,4.48,8.0,-0.401,0.431,53.9,54.07,54.17,53.4,51.881,98.6,0.245,-7.399999999999984,0.40000000000000036,54.17,0.7700000000000031,-2.2490737753039403,-1.2070939110648464,landing,False,
11.3,FLT_003,23.03,4.52,8.0,2.492,0.305,53.36,54.36,55.56,55.06,51.84,98.9,0.2855,13.200000000000003,0.3999999999999915,55.56,2.200000000000003,-0.41360111752048356,-0.4160343364319991,landing,False,
11.4,FLT_003,23.85,4.56,8.0,0.475,0.241,55.28,55.91,54.81,55.97,51.806,98.3,0.2627,8.200000000000003,0.40000000000000036,55.97,1.1599999999999966,0.09932512061138501,-0.8251122902460244,landing,False,
11.5,FLT_003,22.2,4.6,8.0,4.054,0.465,56.06,56.2,54.92,53.59,51.839,98.8,0.2369,-16.50000000000002,0.40000000000000036,56.2,2.6099999999999994,0.3765757530277183,-1.2678177723919881,landing,False,
11.6,FLT_003,23.5,4.64,8.0,0.071,0.345,53.94,54.82,54.87,54.25,51.669,98.7,0.3026,13.000000000000007,0.40000000000000036,54.87,0.9299999999999997,-1.3771435535497225,0.024311158508611166,landing,False,
11.7,FLT_003,22.71,4.68,8.0,1.739,0.459,55.41,54.41,55.78,53.86,51.59,98.2,0.262,-7.8999999999999915,0.40000000000000036,55.78,1.9200000000000017,-0.1574239442296157,-0.7493477061266222,landing,False,
11.8,FLT_003,23.3,4.72,8.0,-1.272,0.472,54.69,55.74,55.85,54.72,51.866,98.3,0.337,5.899999999999999,0.40000000000000036,55.85,1.1600000000000037,-0.04661236717951621,0.8046019975296449,landing,False,
11.9,FLT_003,23.58,4.76,8.0,-1.024,0.607,55.47,55.37,52.69,55.15,51.821,98.4,0.3548,2.799999999999976,0.40000000000000036,55.47,2.780000000000001,-0.5338722093394965,1.1620739728743539,landing,False,
12.0,FLT_003,24.31,4.8,8.0,-0.984,0.695,53.87,55.8,56.85,55.82,51.752,98.6,0.346,7.300000000000004,0.40000000000000036,56.85,2.980000000000004,1.2598042642289695,0.9768791253429574,landing,False,
12.1,FLT_003,24.7,4.84,8.0,1.991,0.776,57.35,54.68,54.63,55.53,51.648,98.9,0.3342,3.9000000000000057,0.40000000000000036,57.35,2.719999999999999,1.8485056557361352,0.7254927306228955,landing,False,
12.2,FLT_003,24.89,4.88,8.0,-1.398,0.833,56.38,56.76,56.67,55.77,51.783,98.3,0.2184,1.9000000000000128,0.40000000000000036,56.76,0.9899999999999949,1.0587502429612856,-1.570969460802055,landing,False,
12.3,FLT_003,24.15,4.92,8.0,-1.459,0.607,56.42,55.25,56.82,53.43,51.832,98.3,0.3424,-7.40000000000002,0.40000000000000036,56.82,3.3900000000000006,1.1018656553627897,0.9357823740030579,landing,False,
12.4,FLT_003,25.1,4.96,8.0,-0.104,0.738,56.12,55.77,53.81,54.82,51.791,98.9,0.359,9.500000000000028,0.40000000000000036,56.12,2.309999999999995,0.18045835402728538,1.2374515086810751,landing,False,
12.5,FLT_003,24.61,5.0,8.0,-0.773,0.707,55.54,52.78,53.37,53.61,51.635,98.3,0.3646,-4.90000000000002,0.40000000000000036,55.54,2.759999999999998,-0.5754498303912817,1.2977906061743745,landing,False,
12.6,FLT_003,25.15,5.04,8.0,-0.016,0.898,53.76,56.36,54.24,56.81,51.875,98.6,0.2464,5.3999999999999915,0.40000000000000036,56.81,3.0500000000000043,1.0387884602501731,-1.0156976325882687,landing,False,
12.7,FLT_003,25.01,5.08,8.0,-1.564,0.972,55.58,54.27,55.13,53.41,51.735,98.9,0.3043,-1.3999999999999702,0.40000000000000036,55.58,2.1700000000000017,-0.5790325397835032,0.13050863062080018,landing,False,
12.8,FLT_003,25.88,5.12,8.0,-0.488,0.769,54.1,55.34,56.19,53.56,51.577,98.9,0.3068,8.699999999999974,0.40000000000000036,56.19,2.6299999999999955,0.2150273661342067,0.16199960599332383,landing,False,
12.9,FLT_003,25.45,5.16,8.0,-2.972,0.708,53.98,54.71,57.07,55.59,51.816,97.8,0.3777,-4.299999999999997,0.40000000000000036,57.07,3.0900000000000034,1.3450117716682104,1.4917310565821307,landing,False,
13.0,FLT_003,25.98,5.2,8.0,-0.07,0.538,55.0,54.38,54.8,54.98,51.82,98.7,0.3746,5.300000000000011,0.40000000000000036,55.0,0.6199999999999974,-1.2893950590694299,1.3749526496598332,landing,False,
13.1,FLT_003,26.48,5.24,8.0,-0.639,0.409,57.15,53.37,53.56,54.47,51.676,98.0,0.2466,5.0,0.40000000000000036,57.15,3.780000000000001,1.4453727765283897,-1.0783429253525976,landing,False,
13.2,FLT_003,25.55,5.28,8.0,2.87,0.458,56.4,55.2,56.09,54.81,51.682,98.6,0.2976,-9.299999999999997,0.40000000000000036,56.4,1.5899999999999963,0.4782884536822633,-0.10397165207640507,landing,False,
13.3,FLT_003,27.11,5.32,8.0,0.748,0.592,55.25,55.76,54.65,55.04,51.865,98.3,0.2446,15.599999999999987,0.40000000000000036,55.76,1.1099999999999994,-0.34595133036665693,-1.0888696540436302,landing,False,
13.4,FLT_003,27.72,5.36,8.0,0.694,0.671,55.61,57.49,54.47,54.5,51.794,98.0,0.2745,6.099999999999994,0.40000000000000036,57.49,3.020000000000003,1.7648157669091251,-0.55356185687186,landing,False,
13.5,FLT_003,26.4,5.4,8.0,-0.106,0.568,55.69,53.94,56.21,55.0,51.842,98.2,0.2442,-13.200000000000003,0.40000000000000036,56.21,2.270000000000003,0.15718351798138644,-1.0958971684707814,landing,False,
13.6,FLT_003,26.25,5.44,8.0,-1.465,0.698,54.62,55.1,57.48,54.2,51.752,98.4,0.3105,-1.4999999999999858,0.40000000000000036,57.48,3.279999999999994,1.670458244858414,0.16998406840773891,landing,False,
13.7,FLT_003,27.59,5.48,8.0,1.217,0.786,53.34,56.18,54.74,54.2,51.813,98.3,0.2561,13.399999999999999,0.40000000000000036,56.18,2.8399999999999963,0.05521366066663747,-0.9483163509855824,landing,False,
13.8,FLT_003,27.92,5.52,8.0,-1.412,1.011,53.64,56.63,56.78,54.22,51.87,98.2,0.3541,3.3000000000000185,0.3999999999999915,56.78,3.1400000000000006,0.8239100272999647,0.9972919990608362,landing,False,
13.9,FLT_003,27.1,5.56,8.0,0.327,1.048,55.14,56.45,54.53,55.26,51.786,98.3,0.2122,-8.200000000000003,0.40000000000000036,56.45,1.9200000000000017,0.3995706310660186,-1.749024881278389,landing,False,
14.0,FLT_003,27.73,5.6,8.0,-4.948,0.934,55.99,54.53,56.05,53.61,51.746,98.2,0.3233,6.29999999999999,0.40000000000000036,56.05,2.4399999999999977,-0.10265224134749319,0.4059130195196874,landing,False,
14.1,FLT_003,28.32,5.64,8.0,0.451,0.973,54.5,55.26,54.94,54.9,51.739,98.5,0.3305,5.899999999999999,0.40000000000000036,55.26,0.759999999999998,-1.0547657442270715,0.5351139879432717,landing,False,
14.2,FLT_003,28.28,5.68,8.0,-0.408,0.97,54.59,54.93,53.23,55.43,51.871,98.0,0.2365,-0.3999999999999915,0.40000000000000036,55.43,2.200000000000003,-0.8452052133881707,-1.2417242078192052,landing,False,
14.3,FLT_003,29.03,5.72,8.0,-2.897,1.257,55.83,56.55,56.43,55.85,51.759,97.8,0.2853,7.5,0.40000000000000036,56.55,0.7199999999999989,0.5848366042359372,-0.32086533694034497,landing,False,
14.4,FLT_003,29.03,5.76,8.0,-0.626,1.26,54.05,55.69,54.89,54.82,51.757,98.3,0.1752,0.0,0.40000000000000036,55.69,1.6400000000000006,-0.5082740186957159,-2.246235607403916,landing,False,
14.5,FLT_003,28.56,5.8,8.0,0.625,1.186,54.73,55.39,54.15,55.48,51.781,97.8,0.3738,-4.700000000000024,0.40000000000000036,55.48,1.3299999999999983,-0.7993413893873784,1.4209809644757003,landing,False,
14.6,FLT_003,29.63,5.84,8.0,-3.046,1.237,54.42,53.88,56.14,55.08,51.785,98.1,0.262,10.700000000000003,0.40000000000000036,56.14,2.259999999999998,0.015800226792341557,-0.6541959881761504,landing,False,
14.7,FLT_003,29.33,5.88,8.0,2.021,1.106,55.64,54.22,54.32,56.82,51.639,98.0,0.3474,-3.000000000000007,0.40000000000000036,56.82,2.6000000000000014,0.892380691723269,0.9030430358782608,landing,False,
14.8,FLT_003,29.09,5.92,8.0,0.389,1.161,54.4,56.29,54.79,55.12,51.739,98.2,0.3181,-2.3999999999999844,0.40000000000000036,56.29,1.8900000000000006,0.14911045684968616,0.3794859898478982,landing,False,
14.9,FLT_003,29.56,5.96,8.0,0.328,1.117,56.84,54.87,55.16,52.82,51.806,98.0,0.3701,4.699999999999989,0.40000000000000036,56.84,4.020000000000003,0.8741453338479139,1.3007834514168777,landing,False,
15.0,FLT_003,30.3,6.0,8.0,1.76,1.152,55.93,55.28,54.28,57.6,51.835,97.9,0.3147,7.40000000000002,0.40000000000000036,57.6,3.3200000000000003,1.8672099369503057,0.2327466027467372,climb,False,
15.1,FLT_003,29.52,6.04,8.0,0.44,0.986,54.37,54.17,54.9,53.73,51.726,98.2,0.2818,-7.800000000000011,0.40000000000000036,54.9,1.1700000000000017,-1.6654581222989562,-0.37408125594533015,landing,False,
15.2,FLT_003,29.83,6.08,8.0,-1.933,1.028,55.04,53.02,56.05,54.99,51.894,97.7,0.1848,3.099999999999987,0.40000000000000036,56.05,3.029999999999994,-0.1436369122234833,-2.156622417262172,landing,False,
15.3,FLT_003,31.46,6.12,8.0,-2.688,1.094,54.8,55.24,53.93,53.88,51.804,98.3,0.3122,16.300000000000026,0.40000000000000036,55.24,1.3599999999999994,-1.1602142126245982,0.3066639316039995,climb,False,
15.4,FLT_003,30.32,6.16,8.0,-0.357,1.142,55.84,55.52,54.05,55.75,51.828,98.5,0.2729,-11.400000000000006,0.40000000000000036,55.84,1.7900000000000063,-0.3671365683667774,-0.4544148590497229,descent,False,
15.5,FLT_003,31.64,6.2,8.0,-1.21,1.096,58.09,54.54,56.39,55.13,51.782,98.3,0.2692,13.200000000000003,0.40000000000000036,58.09,3.5500000000000043,2.365396277399329,-0.5135125830855555,climb,False,
15.6,FLT_003,30.49,6.24,8.0,-1.042,1.054,54.75,54.27,55.95,55.49,51.844,98.0,0.3604,-11.500000000000021,0.40000000000000036,55.95,1.6799999999999997,-0.2610860729530872,1.24108455051098,descent,False,
15.7,FLT_003,31.55,6.28,8.0,1.367,0.998,56.09,55.87,56.16,56.26,51.792,98.4,0.3326,10.600000000000023,0.40000000000000036,56.26,0.39000000000000057,0.14632284914685262,0.6993389825625976,climb,False,
15.8,FLT_003,32.1,6.32,8.0,1.421,1.051,54.66,55.38,55.18,54.37,51.63,98.4,0.2527,5.500000000000007,0.40000000000000036,55.38,1.0100000000000051,-0.978330601089599,-0.8400283036585904,climb,False,
15.9,FLT_003,31.24,6.36,8.0,2.672,1.201,53.96,56.55,55.75,56.79,51.724,98.1,0.2983,-8.60000000000003,0.40000000000000036,56.79,2.8299999999999983,0.7784373560786451,0.021827842162386892,descent,False,
16.0,FLT_003,31.59,6.4,8.0,-0.164,1.187,55.53,54.82,54.7,54.58,51.732,98.4,0.3009,3.500000000000014,0.40000000000000036,55.53,0.9500000000000028,-0.7987134958683529,0.07858759260358944,climb,False,
16.1,FLT_003,32.78,6.44,8.0,-2.22,1.321,54.84,54.88,55.68,53.76,51.84,98.0,0.3489,11.900000000000013,0.40000000000000036,55.68,1.9200000000000017,-0.5958175103662968,1.0027462385818402,climb,False,
16.2,FLT_003,33.38,6.48,8.0,-0.683,1.264,54.39,53.49,55.43,55.74,51.714,98.1,0.3627,6.000000000000014,0.40000000000000036,55.74,2.25,-0.5978128989020016,1.2180080267312237,climb,False,
16.3,FLT_003,32.97,6.52,8.0,-0.79,1.384,55.72,54.14,54.1,54.27,51.767,97.8,0.2842,-4.100000000000037,0.3999999999999915,55.72,1.6199999999999974,-0.6309551616019107,-0.2922201046552557,descent,False,
16.4,FLT_003,32.75,6.56,8.0,1.488,1.459,53.88,55.57,54.23,55.33,51.636,98.4,0.2717,-2.1999999999999886,0.40000000000000036,55.57,1.6899999999999977,-0.8169965088498484,-0.5373989056857169,descent,False,
16.5,FLT_003,33.01,6.6,8.0,-1.106,1.347,56.1,54.78,54.86,54.22,51.77,97.6,0.3078,2.59999999999998,0.40000000000000036,56.1,1.8800000000000026,-0.10562301154206633,0.13346835780981745,climb,False,
16.6,FLT_003,32.65,6.64,8.0,0.846,1.408,55.68,54.65,54.99,56.08,51.793,97.7,0.25,-3.5999999999999943,0.40000000000000036,56.08,1.4299999999999997,-0.17018584051817978,-0.9681697303226997,descent,False,
16.7,FLT_003,32.39,6.68,8.0,0.705,1.397,54.97,53.96,54.93,54.96,51.705,97.9,0.3319,-2.59999999999998,0.40000000000000036,54.97,1.009999999999998,-1.6392661047420616,0.5939188057323137,descent,False,
16.8,FLT_003,33.97,6.72,8.0,1.578,1.503,55.43,56.43,53.82,54.99,51.814,98.6,0.2727,15.799999999999983,0.40000000000000036,56.43,2.6099999999999994,0.312043580040564,-0.5323424015173414,climb,False,
16.9,FLT_003,32.89,6.76,8.0,-2.058,1.574,54.53,55.53,55.43,54.74,51.887,98.1,0.2943,-10.799999999999983,0.40000000000000036,55.53,1.0,-0.9046367963632487,-0.08932541270970236,descent,False,
17.0,FLT_003,33.74,6.8,8.0,-2.181,1.568,54.29,56.55,54.91,54.27,51.597,97.6,0.2436,8.500000000000014,0.40000000000000036,56.55,2.279999999999994,0.48381297342796337,-1.0452810399083048,climb,False,
17.1,FLT_003,34.15,6.84,8.0,1.482,1.51,52.44,55.19,54.97,55.72,51.607,98.2,0.238,4.099999999999966,0.40000000000000036,55.72,3.280000000000001,-0.6128622452905896,-1.109376001642137,climb,False,
17.2,FLT_003,33.99,6.88,8.0,-0.444,1.494,55.33,55.5,53.9,54.09,51.694,97.9,0.3145,-1.599999999999966,0.40000000000000036,55.5,1.6000000000000014,-0.8826409037709617,0.3534765596603483,descent,False,
17.3,FLT_003,34.96,6.92,8.0,-0.931,1.514,55.7,54.45,55.05,53.35,51.587,98.1,0.3625,9.699999999999989,0.40000000000000036,55.7,2.3500000000000014,-0.5774412895375127,1.291524740902356,climb,False,
17.4,FLT_003,34.8,6.96,8.0,2.119,1.573,53.23,54.23,55.01,55.46,51.718,98.0,0.2482,-1.600000000000037,0.40000000000000036,55.46,2.230000000000004,-0.8867350872192723,-0.9310470691983453,descent,False,
17.5,FLT_003,34.78,7.0,8.0,-0.517,1.621,55.71,54.61,54.81,55.2,51.527,98.3,0.3962,-0.1999999999999602,0.40000000000000036,55.71,1.1000000000000014,-0.5470171446684446,1.960407469544376,cruise,False,
17.6,FLT_003,35.48,7.04,8.0,-0.403,1.589,55.02,55.05,56.23,56.61,51.743,98.1,0.3339,6.999999999999957,0.40000000000000036,56.61,1.5899999999999963,0.7121245531332286,0.7153063904538407,climb,False,
17.7,FLT_003,35.57,7.08,8.0,1.113,1.469,52.94,55.26,54.69,54.52,51.763,97.9,0.3138,0.9000000000000341,0.40000000000000036,55.26,2.3200000000000003,-1.1533530844693252,0.3179228129129311,climb,False,
17.8,FLT_003,36.02,7.12,8.0,1.818,1.512,54.59,56.53,55.44,56.63,51.54,97.9,0.2978,4.500000000000028,0.40000000000000036,56.63,2.039999999999999,0.7265387769453752,0.008567943905915375,climb,False,
17.9,FLT_003,35.59,7.16,8.0,2.198,1.573,56.01,56.47,55.08,54.26,51.672,97.8,0.268,-4.299999999999997,0.40000000000000036,56.47,2.210000000000001,0.5311809329089582,-0.5439808851869792,descent,False,
18.0,FLT_003,36.42,7.2,8.0,2.049,1.584,55.07,54.63,55.26,52.72,51.711,98.0,0.3433,8.299999999999983,0.40000000000000036,55.26,2.539999999999999,-1.1802276302312893,0.9927052382423388,climb,False,
18.1,FLT_003,36.36,7.24,8.0,-0.262,1.358,54.38,55.04,54.9,54.05,51.635,98.1,0.3044,-0.6000000000000227,0.40000000000000036,55.04,0.990000000000002,-1.433971494901522,0.17889595237276962,descent,False,
18.2,FLT_003,36.76,7.28,8.0,0.372,1.333,56.37,54.47,55.75,52.75,51.736,98.1,0.2688,3.999999999999986,0.40000000000000036,56.37,3.6199999999999974,0.4493960056793564,-0.5394945349920413,climb,False,
18.3,FLT_003,37.08,7.32,8.0,0.26,1.176,53.59,53.15,53.9,54.49,51.519,97.9,0.2378,3.200000000000003,0.40000000000000036,54.49,1.3400000000000034,-2.079845902231104,-1.16841905673342,climb,False,
18.4,FLT_003,37.18,7.36,8.0,-1.934,1.216,54.68,54.12,53.38,55.1,51.634,97.6,0.4352,1.0000000000000142,0.40000000000000036,55.1,1.7199999999999989,-1.2220926521528401,2.5994994410338466,climb,False,
18.5,FLT_003,37.01,7.4,8.0,0.102,1.07,54.92,55.83,54.83,54.74,51.785,98.0,0.3892,-1.700000000000017,0.40000000000000036,55.83,1.0899999999999963,-0.19718909345102967,1.642086024253035,descent,False,
18.6,FLT_003,37.36,7.44,8.0,-1.015,1.086,56.32,54.13,53.54,56.19,51.625,98.0,0.3018,3.500000000000014,0.40000000000000036,56.32,2.780000000000001,0.5402401891822114,0.016295552413725344,climb,False,
18.7,FLT_003,37.88,7.48,8.0,-1.85,1.1,55.9,56.97,55.67,53.45,51.78,98.0,0.2868,5.200000000000031,0.40000000000000036,56.97,3.519999999999996,1.4328315887125396,-0.27662458665598477,climb,False,
18.8,FLT_003,37.11,7.52,8.0,0.617,1.201,54.31,54.39,53.98,56.62,51.757,97.8,0.2918,-7.700000000000031,0.3999999999999915,56.62,2.6400000000000006,0.9433141448333967,-0.16100276415501474,descent,False,
18.9,FLT_003,37.92,7.56,8.0,-0.504,1.196,52.61,55.35,55.03,54.31,51.703,97.5,0.3979,8.100000000000023,0.40000000000000036,55.35,2.740000000000002,-0.8417136441751195,1.7727277803996422,climb,False,
19.0,FLT_003,36.97,7.6,8.0,-1.752,1.227,54.17,53.08,56.46,54.87,51.663,98.0,0.3031,-9.500000000000028,0.40000000000000036,56.46,3.3800000000000026,0.7284182993451768,-0.009528935251828288,descent,False,
19.1,FLT_003,38.11,7.64,8.0,0.048,1.246,53.42,54.41,56.22,54.57,51.811,97.7,0.2357,11.400000000000006,0.40000000000000036,56.22,2.799999999999997,0.36321991416735344,-1.2314442088155506,climb,False,
19.2,FLT_003,37.22,7.68,8.0,-4.19,1.246,55.63,55.64,55.17,52.96,51.563,98.1,0.2221,-8.900000000000006,0.40000000000000036,55.64,2.6799999999999997,-0.47598518904020515,-1.4689745741572384,descent,False,
19.3,FLT_003,38.24,7.72,8.0,1.925,1.351,54.73,55.91,52.23,55.09,51.663,98.2,0.2641,10.200000000000031,0.40000000000000036,55.91,3.6799999999999997,-0.06956824780429967,-0.6806270606046457,climb,False,
19.4,FLT_003,37.91,7.76,8.0,-1.541,1.464,55.11,54.89,56.24,55.03,51.675,97.7,0.3079,-3.300000000000054,0.40000000000000036,56.24,1.3500000000000014,0.39275684201169075,0.0831986942452441,descent,False,
19.5,FLT_003,39.54,7.8,8.0,0.777,1.419,53.34,54.95,54.97,54.43,51.6,97.5,0.2852,16.300000000000026,0.40000000000000036,54.97,1.6299999999999955,-1.4104524451914604,-0.3327135153124072,climb,False,
19.6,FLT_003,38.89,7.84,8.0,2.317,1.349,52.6,55.86,53.79,54.48,51.733,97.7,0.3205,-6.499999999999986,0.40000000000000036,55.86,3.259999999999998,-0.1330111945017121,0.3500240637579546,descent,False,
19.7,FLT_003,38.9,7.88,8.0,-0.02,1.402,54.53,55.68,55.52,55.2,51.647,97.1,0.2071,0.0999999999999801,0.40000000000000036,55.68,1.1499999999999986,-0.36269680809894567,-1.8177157564386401,cruise,False,
19.8,FLT_003,39.72,7.92,8.0,-1.572,1.406,54.74,56.28,55.18,55.62,51.817,97.6,0.2274,8.200000000000003,0.40000000000000036,56.28,1.5399999999999991,0.5067516628275225,-1.3608782523372613,climb,False,
19.9,FLT_003,39.43,7.96,8.0,2.219,1.393,55.58,54.1,55.64,55.31,51.677,97.8,0.3295,-2.8999999999999915,0.40000000000000036,55.64,1.5399999999999991,-0.39218225190706213,0.6207437993155428,descent,False,
20.0,FLT_003,39.36,8.0,8.0,0.181,1.249,54.49,56.12,56.43,55.04,51.529,98.0,0.3646,-0.7000000000000028,0.40000000000000036,56.43,1.9399999999999977,0.8575015360785793,1.2645551932655485,descent,False,
20.1,FLT_003,40.07,8.04,8.0,1.58,1.36,56.44,54.99,55.2,54.05,51.746,97.4,0.2047,7.1000000000000085,0.3999999999999915,56.44,2.3900000000000006,0.8398304832514516,-1.71688017152882,climb,False,
20.2,FLT_003,39.63,8.08,8.0,0.582,1.22,55.21,54.89,54.49,55.85,51.491,97.6,0.2675,-4.399999999999977,0.40000000000000924,55.85,1.3599999999999994,-0.09512514762504672,-0.6063030077742809,descent,False,
20.3,FLT_003,41.58,8.12,8.0,2.515,1.194,55.07,55.53,53.61,55.79,51.406,97.6,0.3307,19.499999999999957,0.3999999999999915,55.79,2.1799999999999997,-0.21087175053776339,0.6116832033852443,climb,False,
20.4,FLT_003,40.87,8.16,8.0,0.735,1.122,55.04,54.91,54.94,54.0,51.534,97.5,0.2885,-7.1000000000000085,0.40000000000000924,55.04,1.0399999999999991,-1.3687540209875675,-0.2115887971944955,descent,False,
20.5,FLT_003,41.33,8.2,8.0,0.966,0.993,56.35,54.87,54.33,54.55,51.788,97.8,0.2838,4.6000000000000085,0.3999999999999915,56.35,2.020000000000003,0.8704332503401869,-0.3092217886306255,climb,False,
20.6,FLT_003,41.84,8.24,8.0,0.831,1.249,55.65,56.77,53.41,56.6,51.624,97.5,0.2897,5.100000000000051,0.40000000000000924,56.77,3.3600000000000065,1.5611763445152163,-0.16940611094537344,climb,False,
20.7,FLT_003,42.07,8.28,8.0,1.067,1.213,56.03,54.11,55.83,55.47,51.727,97.6,0.3067,2.2999999999999687,0.3999999999999915,56.03,1.9200000000000017,0.26314738484027383,0.17702227422316807,climb,False,
20.8,FLT_003,41.95,8.32,8.0,1.127,1.211,55.37,56.37,54.48,55.72,51.71,98.2,0.3369,-1.1999999999999744,0.40000000000000924,56.37,1.8900000000000006,0.8318081236460035,0.744093575884374,descent,False,
20.9,FLT_003,41.63,8.36,8.0,-0.419,1.38,53.41,56.06,54.0,56.03,51.611,97.6,0.2819,-3.200000000000003,0.3999999999999915,56.06,2.6500000000000057,0.3154069659763231,-0.34182693492419575,descent,False,
21.0,FLT_003,42.13,8.4,8.0,-0.833,1.419,54.5,54.68,55.38,55.17,51.624,97.3,0.3305,5.0,0.40000000000000924,55.38,0.8800000000000026,-0.9134665735060161,0.6085854413611297,climb,False,
21.1,FLT_003,42.24,8.44,8.0,0.331,1.407,56.74,55.34,54.49,54.61,51.71,97.1,0.313,1.0999999999999943,0.3999999999999915,56.74,2.25,1.481104670445765,0.279351815789262,climb,False,
21.2,FLT_003,42.45,8.48,8.0,0.029,1.38,55.47,54.58,54.89,56.36,51.787,98.0,0.3257,2.1000000000000085,0.40000000000000924,56.36,1.7800000000000011,0.7807717369495951,0.5551480924325949,climb,False,
21.3,FLT_003,42.86,8.52,8.0,-5.357,1.356,54.52,53.34,54.94,54.98,51.634,97.1,0.3269,4.099999999999966,0.3999999999999915,54.98,1.6399999999999935,-1.5863064608209327,0.5607763469165227,climb,False,
21.4,FLT_003,42.9,8.56,8.0,3.056,1.48,53.57,54.9,57.26,53.27,51.542,97.4,0.297,0.3999999999999915,0.40000000000000924,57.26,3.989999999999995,2.168842340664874,-0.05300021221887257,cruise,False,
21.5,FLT_003,42.8,8.6,8.0,-0.958,1.559,55.58,55.15,54.81,55.25,51.592,97.6,0.2936,-1.0000000000000142,0.3999999999999915,55.58,0.769999999999996,-0.565485760209091,-0.11609908606297695,descent,False,
21.6,FLT_003,44.53,8.64,8.0,-0.7,1.498,55.72,54.42,52.41,55.38,51.775,97.0,0.2417,17.30000000000004,0.40000000000000924,55.72,3.3100000000000023,-0.3247664271204733,-1.1592914057252952,climb,False,
21.7,FLT_003,42.74,8.68,8.0,-1.994,1.431,54.22,55.22,54.72,55.03,51.559,97.4,0.339,-17.89999999999999,0.3999999999999915,55.22,1.0,-1.162909932826805,0.7989549430621233,descent,False,
21.8,FLT_003,43.77,8.72,8.0,-2.425,1.562,54.55,55.16,55.15,54.71,51.722,97.5,0.2805,10.300000000000011,0.40000000000000924,55.16,0.6099999999999994,-1.2101788337722046,-0.38234574100292673,climb,False,
21.9,FLT_003,44.13,8.76,8.0,0.347,1.523,54.15,55.65,55.11,54.85,51.491,97.7,0.2483,3.5999999999999943,0.3999999999999915,55.65,1.5,-0.411880926329118,-1.0023953571269715,climb,False,
22.0,FLT_003,44.63,8.8,8.0,-4.107,1.678,54.32,55.62,54.03,54.29,51.752,97.0,0.2938,5.0,0.40000000000000924,55.62,1.5899999999999963,-0.4349323648328616,-0.11615746279700068,climb,False,
22.1,FLT_003,44.14,8.84,8.0,3.109,1.504,57.06,55.68,53.99,55.07,51.629,97.3,0.3198,-4.90000000000002,0.3999999999999915,57.06,3.0700000000000003,1.841961571774984,0.38165028292060243,descent,False,
22.2,FLT_003,44.75,8.88,8.0,0.172,1.637,56.47,54.87,55.81,53.32,51.757,97.2,0.229,6.099999999999994,0.40000000000000924,56.47,3.1499999999999986,0.8638314496643268,-1.415622933855648,climb,False,
22.3,FLT_003,44.45,8.92,8.0,2.009,1.652,54.02,55.51,57.13,56.38,51.479,96.7,0.3004,-2.9999999999999716,0.3999999999999915,57.13,3.1099999999999994,1.8085502289172382,0.04425137352315679,descent,False,
22.4,FLT_003,45.31,8.96,8.0,1.058,1.672,55.43,57.06,56.06,54.88,51.544,97.7,0.316,8.599999999999994,0.40000000000000924,57.06,2.1799999999999997,1.6156834188801723,0.33855962383031296,climb,False,
22.5,FLT_003,45.16,9.0,8.0,3.386,1.749,55.02,53.41,54.0,55.18,51.624,97.2,0.2509,-1.5000000000000568,0.3999999999999915,55.18,1.7700000000000031,-1.1887852063309934,-0.9764228080702968,descent,False,
22.6,FLT_003,45.61,9.04,8.0,0.707,1.702,55.3,55.74,54.5,55.6,51.525,97.4,0.2761,4.500000000000028,0.3999999999999915,55.74,1.240000000000002,-0.3317519245161143,-0.41632703809298055,climb,False,
22.7,FLT_003,45.58,9.08,8.0,0.207,1.783,55.42,56.44,55.3,56.01,51.581,96.7,0.2802,-0.30000000000001137,0.40000000000000924,56.44,1.1400000000000006,0.6882207295796811,-0.314245723372476,cruise,False,
22.8,FLT_003,45.47,9.12,8.0,3.65,1.89,56.04,55.41,52.89,55.77,51.801,96.8,0.3281,-1.0999999999999943,0.3999999999999915,56.04,3.1499999999999986,0.1025655476819477,0.6962928036707818,descent,False,
22.9,FLT_003,45.15,9.16,8.0,0.17,1.798,54.53,56.16,55.41,56.49,51.499,97.4,0.2597,-3.200000000000003,0.40000000000000924,56.49,1.9600000000000009,0.7883979337013897,-0.757559010661855,descent,False,
23.0,FLT_003,45.43,9.2,8.0,-3.136,1.841,53.46,56.51,53.58,56.24,51.651,96.9,0.2759,2.8000000000000114,0.3999999999999915,56.51,3.049999999999997,0.7854803368066601,-0.3877352831282881,climb,False,
23.1,FLT_003,45.89,9.24,8.0,1.327,1.861,54.05,55.2,55.04,54.83,51.81,97.3,0.2943,4.6000000000000085,0.40000000000000924,55.2,1.1500000000000057,-1.238349385657833,0.011908127969542858,climb,False,
23.2,FLT_003,46.32,9.28,8.0,-2.186,1.751,55.7,55.18,54.92,54.56,51.653,97.4,0.2993,4.299999999999997,0.3999999999999915,55.7,1.1400000000000006,-0.44561368239203697,0.1065773528234034,climb,False,
23.3,FLT_003,46.92,9.32,8.0,-2.441,1.688,53.41,54.38,55.49,55.62,51.597,97.4,0.3506,6.000000000000014,0.40000000000000924,55.62,2.210000000000001,-0.6385713939714894,1.1654162624817972,climb,False,
23.4,FLT_003,46.81,9.36,8.0,0.316,1.675,55.17,56.19,56.8,55.86,51.603,97.2,0.318,-1.0999999999999943,0.3999999999999915,56.8,1.6299999999999955,1.243947164940874,0.5660494934864676,descent,False,
23.5,FLT_003,47.32,9.4,8.0,1.122,1.663,54.36,56.28,54.29,54.91,51.661,97.0,0.3126,5.09999999999998,0.40000000000000924,56.28,1.990000000000002,0.3727670990196373,0.5000021876304493,climb,False,
23.6,FLT_003,47.87,9.44,8.0,-1.849,1.572,55.0,54.94,53.11,54.41,51.808,97.3,0.2192,5.499999999999972,0.3999999999999915,55.0,1.8900000000000006,-1.6461691543613919,-1.7516022147445962,climb,False,
23.7,FLT_003,47.15,9.48,8.0,-1.376,1.644,53.99,55.27,55.68,54.44,51.55,97.2,0.3271,-7.199999999999989,0.40000000000000924,55.68,1.6899999999999977,-0.5262425606260445,0.8515581694220985,descent,False,
23.8,FLT_003,48.35,9.52,8.0,1.65,1.803,54.27,55.43,56.82,55.76,51.644,97.5,0.1286,12.000000000000028,0.3999999999999915,56.82,2.549999999999997,1.323443694262145,-3.3789561570551085,climb,False,
23.9,FLT_003,46.42,9.56,8.0,0.737,1.864,54.97,55.83,53.88,56.36,51.762,96.9,0.2838,-19.299999999999997,0.40000000000000924,56.36,2.479999999999997,0.548091642713662,-0.056965411841179085,descent,False,
24.0,FLT_003,48.17,9.6,8.0,-2.158,1.927,53.5,55.88,57.35,54.52,51.688,97.6,0.2253,17.5,0.3999999999999915,57.35,3.8500000000000014,2.0560068293865377,-1.3099629952538603,climb,False,
24.1,FLT_003,48.44,9.64,8.0,-0.53,2.121,55.25,55.35,55.02,56.13,51.788,97.5,0.3174,2.69999999999996,0.40000000000000924,56.13,1.1099999999999994,0.1391861513695636,0.6872046786526466,climb,False,
24.2,FLT_003,48.69,9.68,8.0,1.166,2.137,53.02,55.45,57.15,54.69,51.446,97.0,0.2663,2.5,0.3999999999999915,57.15,4.1299999999999955,1.6553862788907279,-0.4750738622360942,climb,False,
24.3,FLT_003,49.21,9.72,8.0,-2.937,2.134,56.46,52.61,55.11,56.74,51.552,97.3,0.2858,5.200000000000031,0.40000000000000924,56.74,4.130000000000003,0.9907757102035947,-0.044000735420510716,climb,False,
24.4,FLT_003,49.23,9.76,8.0,-1.74,2.375,55.32,54.97,55.28,53.62,51.491,97.0,0.3215,0.1999999999999602,0.3999999999999915,55.32,1.7000000000000028,-1.1258665972570552,0.7566419748106008,cruise,False,
24.5,FLT_003,49.44,9.8,8.0,0.427,2.507,54.69,57.68,55.23,54.86,51.615,97.7,0.3431,2.1000000000000085,0.40000000000000924,57.68,2.990000000000002,2.2718604986413253,1.200153218766755,climb,False,
24.6,FLT_003,48.15,9.84,8.0,-1.45,2.561,55.62,54.11,53.88,53.5,51.648,97.1,0.1866,-12.899999999999991,0.3999999999999915,55.62,2.1199999999999974,-0.7263593376978705,-2.126518189712407,descent,False,
24.7,FLT_003,49.07,9.88,8.0,3.025,2.539,53.85,53.53,56.26,55.56,51.527,97.3,0.3025,9.200000000000017,0.40000000000000924,56.26,2.729999999999997,0.1883592985809061,0.309201924754424,climb,False,
24.8,FLT_003,49.46,9.92,8.0,-2.928,2.61,55.1,54.89,53.3,53.55,51.472,97.0,0.3255,3.9000000000000057,0.3999999999999915,55.1,1.8000000000000043,-1.4395736971227244,0.7803248307215779,climb,False,
24.9,FLT_003,50.18,9.96,8.0,-1.036,2.502,55.89,54.57,54.28,54.71,51.434,97.0,0.276,7.199999999999989,0.40000000000000924,55.89,1.6099999999999994,-0.31895759927403583,-0.2972569852186513,climb,False,
25.0,FLT_003,50.45,10.0,8.0,0.013,2.489,55.42,56.19,53.65,56.1,51.481,96.8,0.3046,2.7000000000000313,0.3999999999999915,56.19,2.539999999999999,0.11841376434795477,0.3800170445699197,climb,False,
25.1,FLT_003,49.77,10.04,8.0,1.313,2.464,55.04,54.69,55.41,55.28,51.725,97.1,0.1788,-6.799999999999997,0.3999999999999915,55.41,0.7199999999999989,-0.9656936203260971,-2.439208202214696,descent,False,
25.2,FLT_003,50.62,10.08,8.0,0.275,2.45,53.18,54.37,55.32,53.04,51.477,96.9,0.3132,8.499999999999943,0.40000000000000924,55.32,2.280000000000001,-1.0673476970261837,0.5535537946924728,climb,False,
25.3,FLT_003,50.11,10.12,8.0,-2.145,2.533,55.38,53.11,54.86,55.08,51.753,96.8,0.25,-5.09999999999998,0.3999999999999915,55.38,2.270000000000003,-0.9633218738386988,-0.8278129493468925,descent,False,
25.4,FLT_003,51.12,10.16,8.0,-2.276,2.392,57.14,54.87,55.06,55.08,51.676,96.7,0.3008,10.09999999999998,0.40000000000000924,57.14,2.270000000000003,1.4413865589083992,0.3068159800179251,climb,False,
25.5,FLT_003,51.47,10.2,8.0,-4.3,2.512,56.37,55.68,54.24,54.78,51.342,97.1,0.2893,3.500000000000014,0.3999999999999915,56.37,2.1299999999999955,0.3630035644327102,0.046427740659914805,climb,False,
25.6,FLT_003,51.82,10.24,8.0,1.684,2.466,55.85,56.89,54.62,55.4,51.49,97.0,0.2905,3.500000000000014,0.40000000000000924,56.89,2.270000000000003,1.0836054570802323,0.07298179563768259,climb,False,
25.7,FLT_003,50.79,10.28,8.0,0.98,2.477,54.78,56.31,55.9,54.56,51.365,97.0,0.309,-10.300000000000011,0.3999999999999915,56.31,1.75,0.26676610655797567,0.48663782327127103,descent,False,
25.8,FLT_003,51.21,10.32,8.0,0.398,2.514,55.65,52.63,56.0,53.47,51.482,96.9,0.3124,4.200000000000017,0.40000000000000924,56.0,3.3699999999999974,-0.1551459811726252,0.5793418364736119,climb,False,
25.9,FLT_003,50.46,10.36,8.0,0.509,2.493,54.96,55.01,55.39,54.07,51.525,97.2,0.2342,-7.5,0.3999999999999915,55.39,1.3200000000000003,-0.9776946386989578,-1.1527733620599845,descent,False,
26.0,FLT_003,52.43,10.4,8.0,2.252,2.457,55.17,55.16,55.84,54.4,51.668,97.4,0.2864,19.69999999999999,0.40000000000000924,55.84,1.4400000000000048,-0.37210763070907704,0.03234249992675289,climb,False,
26.1,FLT_003,52.88,10.44,8.0,1.381,2.419,55.75,53.41,55.92,54.2,51.634,96.9,0.3078,4.500000000000028,0.3999999999999915,55.92,2.510000000000005,-0.23956577730054884,0.5180579298606902,climb,False,
26.2,FLT_003,51.91,10.48,8.0,1.192,2.56,53.81,55.99,53.68,55.32,51.664,97.1,0.2707,-9.70000000000006,0.40000000000000924,55.99,2.3100000000000023,-0.13104852207760903,-0.2973812654265098,descent,False,
26.3,FLT_003,52.2,10.52,8.0,2.068,2.556,55.02,56.19,55.07,55.0,51.536,96.7,0.3031,2.9000000000000625,0.3999999999999915,56.19,1.1899999999999977,0.11915033421919409,0.454721266900033,climb,False,
26.4,FLT_003,53.32,10.56,8.0,0.747,2.594,54.01,55.46,54.96,54.56,51.659,96.8,0.228,11.199999999999974,0.40000000000000924,55.46,1.4500000000000028,-0.9007716460508556,-1.2190790102740052,climb,False,
26.5,FLT_003,52.87,10.6,8.0,0.275,2.563,54.11,56.2,54.81,54.35,51.72,96.9,0.1944,-4.500000000000028,0.3999999999999915,56.2,2.0900000000000034,0.17208565089721606,-1.8641340689131982,descent,False,
26.6,FLT_003,53.8,10.64,8.0,-1.462,2.568,57.46,53.67,54.06,54.83,51.472,96.6,0.2814,9.299999999999997,0.40000000000000924,57.46,3.789999999999999,1.9149753238576797,0.015018138603853084,climb,False,
26.7,FLT_003,53.39,10.68,8.0,-3.82,2.476,54.85,54.04,54.8,54.45,51.668,96.8,0.2986,-4.099999999999966,0.3999999999999915,54.85,0.8100000000000023,-1.771286215126281,0.41683431427959927,descent,False,
26.8,FLT_003,53.89,10.72,8.0,-1.784,2.387,54.72,54.81,55.9,54.49,51.64,96.8,0.2761,5.0,0.40000000000000924,55.9,1.4099999999999966,-0.32312056089275587,-0.08295074691700483,climb,False,
26.9,FLT_003,53.47,10.76,8.0,1.311,2.337,54.21,56.14,54.52,54.19,51.511,97.1,0.3088,-4.200000000000017,0.3999999999999915,56.14,1.9500000000000028,0.006034063042915228,0.6199458359191354,descent,False,
27.0,FLT_003,54.02,10.8,8.0,-0.987,2.425,54.09,56.32,55.55,55.02,51.541,97.1,0.2088,5.500000000000043,0.40000000000000924,56.32,2.229999999999997,0.24577873788020804,-1.5366335108030043,climb,False,
27.1,FLT_003,52.89,10.84,8.0,-0.619,2.353,52.98,55.43,54.05,56.33,51.448,96.9,0.2635,-11.300000000000026,0.3999999999999915,56.33,3.3500000000000014,0.2862589520808559,-0.3226302409861091,descent,False,
27.2,FLT_003,55.36,10.88,8.0,1.419,2.256,56.49,54.7,53.26,54.38,51.393,96.9,0.3653,24.69999999999999,0.40000000000000924,56.49,3.230000000000004,0.5206333317184737,1.8091087030772315,climb,False,
27.3,FLT_003,54.89,10.92,8.0,-3.587,2.367,52.98,56.33,55.02,53.92,51.458,96.8,0.3316,-4.699999999999989,0.3999999999999915,56.33,3.3500000000000014,0.3158664106952454,1.062358234221125,descent,False,
27.4,FLT_003,54.67,10.96,8.0,1.514,2.232,53.75,54.34,55.65,54.24,51.548,96.7,0.3281,-2.1999999999999886,0.40000000000000924,55.65,1.8999999999999986,-0.6736489746593824,0.9785379083603167,descent,False,
27.5,FLT_003,54.78,11.0,8.0,1.613,2.061,56.29,55.18,55.61,54.52,51.54,96.8,0.2516,1.0999999999999943,0.3999999999999915,56.29,1.769999999999996,0.2745925198547753,-0.638549464555191,climb,False,
27.6,FLT_003,54.45,11.04,8.0,-0.144,1.946,56.88,55.76,54.6,55.29,51.457,96.2,0.2734,-3.299999999999983,0.3999999999999915,56.88,2.280000000000001,1.145635975577414,-0.17659039135554874,descent,False,
27.7,FLT_003,54.87,11.08,8.0,-0.091,1.869,53.14,54.51,54.66,55.9,51.421,96.6,0.3238,4.199999999999946,0.40000000000000924,55.9,2.759999999999998,-0.3479283913180691,0.863333370691576,climb,False,
27.8,FLT_003,55.8,11.12,8.0,-0.367,1.794,57.04,55.73,53.8,55.86,51.551,97.0,0.212,9.299999999999997,0.3999999999999915,57.04,3.240000000000002,1.3530707797769528,-1.4155660567785116,climb,False,
27.9,FLT_003,55.81,11.16,8.0,1.324,1.867,54.8,54.99,53.36,55.08,51.484,96.5,0.3253,0.10000000000005116,0.40000000000000924,55.08,1.7199999999999989,-1.5347728931787328,0.8993143912848427,cruise,False,
28.0,FLT_003,56.38,11.2,8.0,-1.544,1.893,54.24,54.22,57.75,53.3,51.277,96.3,0.313,5.700000000000003,0.3999999999999915,57.75,4.450000000000003,2.256898415986627,0.628301258330298,climb,False,
28.1,FLT_003,55.67,11.24,8.0,-0.655,1.884,57.79,54.74,55.37,55.61,51.508,97.1,0.3012,-7.1000000000000085,0.40000000000000924,57.79,3.049999999999997,2.167744665867352,0.3831541927928524,descent,False,
28.2,FLT_003,57.07,11.28,8.0,2.37,1.914,55.51,52.85,53.41,55.11,51.597,97.3,0.3129,13.999999999999986,0.3999999999999915,55.51,2.6599999999999966,-0.9200163967691414,0.6156028678907037,climb,False,
28.3,FLT_003,56.26,11.32,8.0,-0.897,1.946,54.97,56.1,52.14,54.93,51.567,96.6,0.3141,-8.100000000000023,0.40000000000000924,56.1,3.960000000000001,-0.13580400290583045,0.6654524798651047,descent,False,
28.4,FLT_003,56.29,11.36,8.0,0.8,1.992,54.1,55.02,55.25,55.49,51.526,96.9,0.2543,0.30000000000001137,0.3999999999999915,55.49,1.3900000000000006,-0.9283022628410803,-0.5508071922473596,cruise,False,
28.5,FLT_003,56.75,11.4,8.0,0.145,2.099,56.02,55.58,54.57,55.96,51.539,96.8,0.3216,4.6000000000000085,0.40000000000000924,56.02,1.4500000000000028,-0.2014800430675117,0.8436569776037326,climb,False,
28.6,FLT_003,57.97,11.44,8.0,-0.548,2.227,55.74,54.64,56.48,57.45,51.549,96.4,0.3863,12.199999999999989,0.3999999999999915,57.45,2.8100000000000023,1.6685499897053921,2.0570175084657056,climb,False,
28.7,FLT_003,57.81,11.48,8.0,1.299,2.24,54.65,55.16,55.83,54.68,51.505,96.5,0.372,-1.599999999999966,0.40000000000000924,55.83,1.1799999999999997,-0.5298585856861094,1.7097563358843708,descent,False,
28.8,FLT_003,57.11,11.52,8.0,0.75,2.309,54.75,55.7,56.49,53.22,51.556,96.6,0.3552,-7.000000000000028,0.3999999999999915,56.49,3.270000000000003,0.3769172583766525,1.409977091186893,descent,False,
28.9,FLT_003,57.42,11.56,8.0,0.874,2.108,54.96,55.35,54.77,56.45,51.481,96.4,0.2807,3.1000000000000227,0.40000000000000924,56.45,1.6799999999999997,0.31966673669597007,-0.1928010903634773,climb,False,
29.0,FLT_003,56.84,11.6,8.0,2.971,2.166,55.26,54.19,55.82,53.33,51.546,96.2,0.2928,-5.799999999999983,0.3999999999999915,55.82,2.490000000000002,-0.5092823347555155,0.0394156660884972,descent,False,
29.1,FLT_003,58.45,11.64,8.0,-5.802,2.333,54.31,53.57,52.87,55.21,51.395,95.9,0.203,16.099999999999994,0.40000000000000924,55.21,2.3400000000000034,-1.3107248845199837,-1.8233282557247714,climb,False,
29.2,FLT_003,58.28,11.68,8.0,0.285,2.29,55.09,55.59,55.2,52.85,51.587,96.6,0.1539,-1.700000000000017,0.3999999999999915,55.59,2.740000000000002,-0.7572807236415862,-2.61726164143158,descent,False,
29.3,FLT_003,58.22,11.72,8.0,0.744,2.272,54.84,56.0,55.88,56.51,51.417,96.5,0.3517,-0.6000000000000227,0.40000000000000924,56.51,1.6699999999999946,0.5288736808164254,1.2413727916373258,descent,False,
29.4,FLT_003,59.54,11.76,8.0,-2.633,2.201,53.22,55.76,54.3,55.05,51.587,96.4,0.303,13.200000000000003,0.3999999999999915,55.76,2.539999999999999,-0.535023154713074,0.30371976048693256,climb,False,
29.5,FLT_003,60.17,11.8,8.0,-3.323,2.19,55.15,54.73,55.07,56.2,51.596,96.2,0.253,6.300000000000026,0.40000000000000924,56.2,1.470000000000006,0.13354993144780145,-0.6409264646175614,climb,False,
29.6,FLT_003,59.4,11.84,8.0,-3.484,1.925,54.5,55.08,54.14,55.59,51.621,96.4,0.3086,-7.700000000000031,0.3999999999999915,55.59,1.4500000000000028,-0.7702076256086987,0.4198523756975252,descent,False,
29.7,FLT_003,59.56,11.88,8.0,7.24,1.944,55.18,55.37,55.92,55.87,51.677,96.3,0.2584,1.600000000000037,0.40000000000000924,55.92,0.740000000000002,-0.27070772247273667,-0.5864693031872337,climb,False,
29.8,FLT_003,59.72,11.92,8.0,-4.252,1.928,55.25,54.41,55.81,54.43,51.537,96.6,0.2748,1.599999999999966,0.3999999999999915,55.81,1.4000000000000057,-0.46462701771609394,-0.23289226774844285,climb,False,
29.9,FLT_003,59.81,11.96,8.0,-3.556,2.109,53.44,55.14,54.12,56.03,51.4,96.9,0.3843,0.9000000000000341,0.40000000000000924,56.03,2.5900000000000034,-0.1358337837859488,1.8935435521453974,climb,False,
30.0,FLT_003,59.28,12.0,8.0,-0.337,1.996,55.3,57.1,56.71,55.01,51.669,96.8,0.2946,-5.300000000000011,0.3999999999999915,57.1,2.0900000000000034,1.4275771976080822,0.12784600896105616,descent,False,
30.1,FLT_003,59.84,12.04,8.0,2.689,2.1,55.47,56.59,54.75,53.98,51.593,97.1,0.2962,5.600000000000023,0.3999999999999915,56.59,2.6100000000000065,0.6410000793120091,0.11897988550946219,climb,False,
