timestamp_s,flight_id,altitude_m,airspeed_ms,pitch_deg,roll_deg,yaw_deg,motor1_temp_c,motor2_temp_c,motor3_temp_c,motor4_temp_c,battery_v,battery_pct,vibration_g
0.0,FLT_003,0.0,0.0,8.0,0.814,0.045,54.74,56.0,55.3,54.61,52.065,100.0,0.4137
0.1,FLT_003,0.54,0.04,8.0,0.673,359.939,54.14,53.35,53.97,54.14,52.146,99.6,0.352
0.2,FLT_003,0.0,0.08,8.0,-1.975,359.976,53.91,55.74,56.02,55.25,52.013,99.9,0.2705
0.3,FLT_003,0.0,0.12,8.0,1.048,0.165,55.45,55.25,55.76,54.84,52.016,99.9,0.3096
0.4,FLT_003,0.83,0.16,8.0,2.681,0.202,55.71,55.35,55.4,55.33,52.02,100.0,0.3
0.5,FLT_003,0.71,0.2,8.0,2.57,0.177,55.14,54.27,54.89,55.42,51.848,100.0,0.2932
0.6,FLT_003,1.28,0.24,8.0,2.924,0.21,54.27,55.04,54.74,56.11,52.018,99.8,0.3506
0.7,FLT_003,1.17,0.28,8.0,3.541,0.027,54.44,54.52,56.17,55.89,51.768,99.6,0.2999
0.8,FLT_003,1.07,0.32,8.0,3.354,0.088,54.25,54.58,55.3,55.64,51.94,99.7,0.2671
0.9,FLT_003,2.05,0.36,8.0,-2.556,0.045,55.02,54.47,54.11,54.97,52.048,100.0,0.3807
1.0,FLT_003,2.43,0.4,8.0,-0.963,0.153,54.55,56.33,53.68,56.68,51.943,99.8,0.2835
1.1,FLT_003,1.85,0.44,8.0,0.341,0.165,55.06,53.84,54.56,53.91,51.815,100.0,0.2938
1.2,FLT_003,3.29,0.48,8.0,0.387,0.018,55.25,57.56,54.91,55.9,51.985,100.0,0.3059
1.3,FLT_003,3.39,0.52,8.0,-1.933,359.992,57.14,56.42,55.27,55.22,52.056,99.8,0.31
1.4,FLT_003,4.04,0.56,8.0,-0.818,359.829,55.57,53.9,53.99,54.18,51.876,100.0,0.267
1.5,FLT_003,2.88,0.6,8.0,1.458,359.898,55.25,54.77,56.11,57.11,51.99,100.0,0.2918
1.6,FLT_003,3.15,0.64,8.0,1.943,359.82,54.69,57.07,55.7,53.63,51.909,99.8,0.3556
1.7,FLT_003,3.2,0.68,8.0,-1.056,359.898,56.51,55.45,53.67,54.8,52.072,100.0,0.3431
1.8,FLT_003,3.83,0.72,8.0,-0.496,359.774,54.81,54.1,55.59,57.17,52.233,99.5,0.2026
1.9,FLT_003,3.22,0.76,8.0,1.366,359.806,54.77,55.85,54.04,55.7,51.896,99.9,0.2203
2.0,FLT_003,3.87,0.8,8.0,-0.319,359.825,56.29,54.6,53.33,56.33,51.788,100.0,0.2521
2.1,FLT_003,4.61,0.84,8.0,-3.698,359.919,52.65,55.62,56.63,54.06,51.976,99.0,0.2079
2.2,FLT_003,4.0,0.88,8.0,-0.331,359.835,54.25,55.56,55.25,54.75,51.91,100.0,0.2352
2.3,FLT_003,4.47,0.92,8.0,-1.215,359.886,55.9,53.5,55.74,55.7,52.07,99.4,0.3162
2.4,FLT_003,5.06,0.96,8.0,-0.335,359.815,54.32,56.3,55.12,55.55,51.854,99.7,0.2421
2.5,FLT_003,4.91,1.0,8.0,3.112,359.907,52.83,52.62,54.83,54.66,51.97,99.7,0.3202
2.6,FLT_003,4.91,1.04,8.0,1.159,0.036,54.31,55.67,55.33,53.37,51.992,99.2,0.3114
2.7,FLT_003,5.74,1.08,8.0,-1.164,359.976,56.29,54.8,54.17,55.5,51.979,99.5,0.2328
2.8,FLT_003,5.59,1.12,8.0,-0.123,359.908,56.75,52.98,53.98,55.29,51.98,99.4,0.3305
2.9,FLT_003,5.9,1.16,8.0,-2.025,359.773,55.14,56.15,55.39,53.64,52.072,99.5,0.2468
3.0,FLT_003,5.66,1.2,8.0,2.073,359.564,53.81,54.18,55.98,54.7,52.079,99.8,0.3439
3.1,FLT_003,5.9,1.24,8.0,-0.855,359.645,54.96,55.38,56.78,54.21,51.959,99.7,0.3104
3.2,FLT_003,6.76,1.28,8.0,2.402,359.758,53.93,54.88,54.24,54.21,52.031,99.7,0.3228
3.3,FLT_003,7.33,1.32,8.0,2.619,359.741,54.71,55.85,54.83,55.55,52.135,99.6,0.2945
3.4,FLT_003,6.55,1.36,8.0,2.533,359.651,53.87,56.92,55.2,54.78,51.817,100.0,0.3267
3.5,FLT_003,7.36,1.4,8.0,1.138,359.603,53.11,55.05,55.26,54.8,52.199,99.5,0.2635
3.6,FLT_003,7.48,1.44,8.0,1.357,359.62,55.5,55.27,54.08,56.09,51.945,99.5,0.3203
3.7,FLT_003,7.79,1.48,8.0,1.411,359.699,54.87,55.24,56.39,53.97,51.968,99.4,0.3704
3.8,FLT_003,7.56,1.52,8.0,0.702,359.589,54.98,54.8,53.21,55.28,52.006,99.5,0.2907
3.9,FLT_003,8.28,1.56,8.0,-1.983,359.595,57.21,55.71,54.94,53.52,52.123,99.1,0.3002
4.0,FLT_003,8.27,1.6,8.0,-3.764,359.592,55.24,53.31,55.85,54.35,52.059,98.7,0.2707
4.1,FLT_003,7.99,1.64,8.0,2.331,359.509,54.93,55.21,54.53,55.71,52.104,99.8,0.371
4.2,FLT_003,8.21,1.68,8.0,0.211,359.589,56.11,54.11,56.41,56.47,52.092,99.4,0.2195
4.3,FLT_003,9.8,1.72,8.0,-2.13,359.68,56.57,53.94,54.38,55.12,51.838,99.7,0.2726
4.4,FLT_003,9.21,1.76,8.0,0.099,359.662,54.39,56.45,53.62,55.43,52.008,99.4,0.3849
4.5,FLT_003,9.13,1.8,8.0,0.394,359.669,55.82,55.64,55.07,56.19,51.868,99.7,0.3594
4.6,FLT_003,9.06,1.84,8.0,-2.028,359.567,56.28,54.72,54.15,54.15,51.904,99.6,0.3015
4.7,FLT_003,9.23,1.88,8.0,-1.985,359.615,53.9,54.23,56.22,53.36,51.757,99.4,0.2377
4.8,FLT_003,9.72,1.92,8.0,0.492,359.81,55.95,54.0,56.59,55.84,51.909,99.9,0.357
4.9,FLT_003,9.32,1.96,8.0,-0.547,359.916,55.79,54.94,56.37,53.76,51.96,99.5,0.2912
5.0,FLT_003,9.25,2.0,8.0,-0.15,359.886,55.78,55.06,55.3,54.99,51.807,99.8,0.329
5.1,FLT_003,10.53,2.04,8.0,-0.722,359.723,55.76,54.54,56.38,54.06,51.963,99.4,0.3743
5.2,FLT_003,11.17,2.08,8.0,-2.889,359.755,55.28,55.45,55.13,54.03,51.965,98.9,0.3761
5.3,FLT_003,11.38,2.12,8.0,-0.906,359.743,54.23,54.72,53.94,56.58,51.944,99.7,0.3188
5.4,FLT_003,11.13,2.16,8.0,-2.994,359.701,54.95,55.72,55.52,56.87,51.91,98.9,0.2899
5.5,FLT_003,10.8,2.2,8.0,1.682,359.752,53.24,55.31,54.69,55.36,51.75,99.2,0.346
5.6,FLT_003,11.91,2.24,8.0,-2.676,359.756,55.55,55.18,55.95,56.49,51.865,100.0,0.2548
5.7,FLT_003,12.19,2.28,8.0,-1.746,359.677,54.58,53.01,55.23,56.63,51.91,99.8,0.2207
5.8,FLT_003,11.75,2.32,8.0,-2.661,359.732,55.45,55.64,54.76,53.48,51.911,99.8,0.3607
5.9,FLT_003,12.43,2.36,8.0,0.749,359.709,54.01,53.83,54.93,55.76,51.897,99.4,0.3232
6.0,FLT_003,11.01,2.4,8.0,2.077,359.626,55.26,53.48,54.97,56.77,51.928,99.3,0.2349
6.1,FLT_003,12.4,2.44,8.0,2.272,359.541,55.89,53.61,55.63,56.71,51.82,99.0,0.265
6.2,FLT_003,12.6,2.48,8.0,-0.712,359.475,54.49,53.69,55.32,55.17,51.917,98.8,0.2543
6.3,FLT_003,12.34,2.52,8.0,0.359,359.446,54.22,55.24,54.4,56.0,51.884,99.5,0.3486
6.4,FLT_003,12.63,2.56,8.0,0.76,359.275,55.0,53.28,53.68,54.96,51.915,99.4,0.3148
6.5,FLT_003,13.53,2.6,8.0,-1.137,359.293,54.34,54.16,54.9,54.38,52.014,99.2,0.3895
6.6,FLT_003,13.39,2.64,8.0,-1.128,359.46,53.68,54.02,54.75,55.55,51.835,99.1,0.3955
6.7,FLT_003,13.73,2.68,8.0,-1.651,359.312,53.81,53.24,56.24,53.74,52.021,99.0,0.3988
6.8,FLT_003,14.14,2.72,8.0,-0.278,359.141,54.39,56.29,56.53,55.1,52.068,99.0,0.3629
6.9,FLT_003,14.06,2.76,8.0,1.572,359.217,54.71,54.3,55.79,56.28,51.862,98.9,0.3431
7.0,FLT_003,14.19,2.8,8.0,-1.877,359.262,53.38,53.43,55.01,55.45,51.897,100.0,0.3409
7.1,FLT_003,14.47,2.84,8.0,0.357,359.176,56.6,55.85,53.33,53.73,51.942,98.8,0.3189
7.2,FLT_003,13.69,2.88,8.0,-1.969,358.998,54.44,53.67,53.61,54.25,51.907,98.6,0.3587
7.3,FLT_003,15.09,2.92,8.0,-2.508,359.173,55.99,55.1,55.36,53.51,51.919,99.0,0.3355
7.4,FLT_003,15.03,2.96,8.0,-0.417,359.226,55.77,55.42,55.36,54.68,51.703,99.0,0.3187
7.5,FLT_003,15.35,3.0,8.0,-2.062,359.183,54.49,54.77,54.44,55.55,51.875,99.1,0.2946
7.6,FLT_003,15.19,3.04,8.0,1.57,359.13,54.65,54.14,54.21,55.53,51.78,99.3,0.2465
7.7,FLT_003,15.52,3.08,8.0,-0.315,359.072,52.78,54.91,53.55,54.93,51.829,99.7,0.3356
7.8,FLT_003,16.14,3.12,8.0,-1.246,359.12,54.67,54.77,55.86,53.56,51.987,99.4,0.2595
7.9,FLT_003,15.01,3.16,8.0,-1.295,358.987,55.22,55.11,55.26,56.64,51.915,99.9,0.2651
8.0,FLT_003,14.82,3.2,8.0,-0.312,358.961,53.1,55.4,56.8,54.74,51.936,99.0,0.2312
8.1,FLT_003,16.74,3.24,8.0,0.771,359.059,54.71,56.56,56.04,56.02,51.86,99.4,0.2917
8.2,FLT_003,16.37,3.28,8.0,-6.172,358.998,54.85,55.83,54.29,53.78,51.841,98.7,0.2883
8.3,FLT_003,15.61,3.32,8.0,-2.227,359.025,53.68,54.66,55.32,54.85,51.981,99.6,0.2937
8.4,FLT_003,16.5,3.36,8.0,-0.267,359.044,53.96,56.08,53.88,53.99,51.845,99.5,0.2221
8.5,FLT_003,17.21,3.4,8.0,-1.755,359.325,54.35,54.92,54.87,54.25,51.951,98.7,0.3619
8.6,FLT_003,17.19,3.44,8.0,1.045,359.307,54.89,54.42,54.7,56.07,51.98,99.1,0.2573
8.7,FLT_003,17.41,3.48,8.0,-4.381,359.457,54.3,53.8,54.37,55.07,51.947,98.5,0.1975
8.8,FLT_003,17.82,3.52,8.0,-0.385,359.498,57.25,53.59,55.52,56.05,51.926,98.6,0.2837
8.9,FLT_003,17.42,3.56,8.0,-2.011,359.52,56.14,54.57,54.72,54.55,51.782,99.2,0.3182
9.0,FLT_003,17.31,3.6,8.0,-0.806,359.476,55.87,55.13,56.09,54.78,51.732,99.0,0.3169
9.1,FLT_003,18.61,3.64,8.0,-1.518,359.519,54.44,53.46,57.14,53.61,51.894,98.6,0.3074
9.2,FLT_003,19.09,3.68,8.0,3.41,359.627,53.54,52.83,55.31,54.4,51.957,98.9,0.2933
9.3,FLT_003,18.64,3.72,8.0,0.422,359.736,56.81,54.06,54.91,53.75,51.848,98.6,0.2663
9.4,FLT_003,17.66,3.76,8.0,-0.251,359.737,55.79,53.0,54.24,53.28,51.79,98.7,0.3373
9.5,FLT_003,18.9,3.8,8.0,1.564,359.775,54.99,53.71,54.55,54.62,51.86,99.1,0.4189
9.6,FLT_003,18.62,3.84,8.0,3.386,359.952,54.68,53.75,54.53,53.39,51.914,99.0,0.3056
9.7,FLT_003,19.2,3.88,8.0,0.678,359.912,54.34,54.42,54.95,54.58,52.069,98.5,0.2608
9.8,FLT_003,19.54,3.92,8.0,-0.222,359.946,54.65,55.49,54.73,53.77,51.932,98.8,0.3614
9.9,FLT_003,20.58,3.96,8.0,2.964,0.074,54.74,55.73,55.9,54.75,51.788,99.4,0.2496
10.0,FLT_003,20.35,4.0,8.0,-0.153,0.146,57.19,54.15,54.99,53.35,51.843,99.2,0.1967
10.1,FLT_003,18.99,4.04,8.0,-0.022,0.181,53.78,56.73,55.22,55.84,51.972,99.0,0.3946
10.2,FLT_003,19.72,4.08,8.0,-0.728,0.138,54.91,55.13,56.69,56.04,51.798,98.8,0.3147
10.3,FLT_003,21.16,4.12,8.0,2.966,0.173,52.5,56.83,55.0,55.36,51.785,98.8,0.3791
10.4,FLT_003,20.44,4.16,8.0,-0.874,0.183,56.15,52.95,55.14,55.94,51.849,98.9,0.2894
10.5,FLT_003,21.19,4.2,8.0,0.643,0.293,54.55,54.43,55.3,55.66,51.751,99.2,0.2992
10.6,FLT_003,20.89,4.24,8.0,3.718,0.327,54.95,53.92,56.34,56.27,51.815,98.8,0.3378
10.7,FLT_003,21.84,4.28,8.0,2.65,0.344,55.35,54.23,57.2,56.46,51.669,98.6,0.3223
10.8,FLT_003,21.78,4.32,8.0,0.811,0.407,54.41,53.05,54.98,54.47,51.742,98.9,0.2491
10.9,FLT_003,22.22,4.36,8.0,1.212,0.474,53.72,55.41,55.52,55.42,51.833,99.3,0.2554
11.0,FLT_003,21.08,4.4,8.0,0.788,0.532,55.09,53.2,56.18,54.58,51.833,98.7,0.317
11.1,FLT_003,22.45,4.44,8.0,-3.04,0.546,55.81,53.71,56.14,55.04,51.802,98.4,0.3386
11.2,FLT_003,21.71,4.48,8.0,-0.401,0.431,53.9,54.07,54.17,53.4,51.881,98.6,0.245
11.3,FLT_003,23.03,4.52,8.0,2.492,0.305,53.36,54.36,55.56,55.06,51.84,98.9,0.2855
11.4,FLT_003,23.85,4.56,8.0,0.475,0.241,55.28,55.91,54.81,55.97,51.806,98.3,0.2627
11.5,FLT_003,22.2,4.6,8.0,4.054,0.465,56.06,56.2,54.92,53.59,51.839,98.8,0.2369
11.6,FLT_003,23.5,4.64,8.0,0.071,0.345,53.94,54.82,54.87,54.25,51.669,98.7,0.3026
11.7,FLT_003,22.71,4.68,8.0,1.739,0.459,55.41,54.41,55.78,53.86,51.59,98.2,0.262
11.8,FLT_003,23.3,4.72,8.0,-1.272,0.472,54.69,55.74,55.85,54.72,51.866,98.3,0.337
11.9,FLT_003,23.58,4.76,8.0,-1.024,0.607,55.47,55.37,52.69,55.15,51.821,98.4,0.3548
12.0,FLT_003,24.31,4.8,8.0,-0.984,0.695,53.87,55.8,56.85,55.82,51.752,98.6,0.346
12.1,FLT_003,24.7,4.84,8.0,1.991,0.776,57.35,54.68,54.63,55.53,51.648,98.9,0.3342
12.2,FLT_003,24.89,4.88,8.0,-1.398,0.833,56.38,56.76,56.67,55.77,51.783,98.3,0.2184
12.3,FLT_003,24.15,4.92,8.0,-1.459,0.607,56.42,55.25,56.82,53.43,51.832,98.3,0.3424
12.4,FLT_003,25.1,4.96,8.0,-0.104,0.738,56.12,55.77,53.81,54.82,51.791,98.9,0.359
12.5,FLT_003,24.61,5.0,8.0,-0.773,0.707,55.54,52.78,53.37,53.61,51.635,98.3,0.3646
12.6,FLT_003,25.15,5.04,8.0,-0.016,0.898,53.76,56.36,54.24,56.81,51.875,98.6,0.2464
12.7,FLT_003,25.01,5.08,8.0,-1.564,0.972,55.58,54.27,55.13,53.41,51.735,98.9,0.3043
12.8,FLT_003,25.88,5.12,8.0,-0.488,0.769,54.1,55.34,56.19,53.56,51.577,98.9,0.3068
12.9,FLT_003,25.45,5.16,8.0,-2.972,0.708,53.98,54.71,57.07,55.59,51.816,97.8,0.3777
13.0,FLT_003,25.98,5.2,8.0,-0.07,0.538,55.0,54.38,54.8,54.98,51.82,98.7,0.3746
13.1,FLT_003,26.48,5.24,8.0,-0.639,0.409,57.15,53.37,53.56,54.47,51.676,98.0,0.2466
13.2,FLT_003,25.55,5.28,8.0,2.87,0.458,56.4,55.2,56.09,54.81,51.682,98.6,0.2976
13.3,FLT_003,27.11,5.32,8.0,0.748,0.592,55.25,55.76,54.65,55.04,51.865,98.3,0.2446
13.4,FLT_003,27.72,5.36,8.0,0.694,0.671,55.61,57.49,54.47,54.5,51.794,98.0,0.2745
13.5,FLT_003,26.4,5.4,8.0,-0.106,0.568,55.69,53.94,56.21,55.0,51.842,98.2,0.2442
13.6,FLT_003,26.25,5.44,8.0,-1.465,0.698,54.62,55.1,57.48,54.2,51.752,98.4,0.3105
13.7,FLT_003,27.59,5.48,8.0,1.217,0.786,53.34,56.18,54.74,54.2,51.813,98.3,0.2561
13.8,FLT_003,27.92,5.52,8.0,-1.412,1.011,53.64,56.63,56.78,54.22,51.87,98.2,0.3541
13.9,FLT_003,27.1,5.56,8.0,0.327,1.048,55.14,56.45,54.53,55.26,51.786,98.3,0.2122
14.0,FLT_003,27.73,5.6,8.0,-4.948,0.934,55.99,54.53,56.05,53.61,51.746,98.2,0.3233
14.1,FLT_003,28.32,5.64,8.0,0.451,0.973,54.5,55.26,54.94,54.9,51.739,98.5,0.3305
14.2,FLT_003,28.28,5.68,8.0,-0.408,0.97,54.59,54.93,53.23,55.43,51.871,98.0,0.2365
14.3,FLT_003,29.03,5.72,8.0,-2.897,1.257,55.83,56.55,56.43,55.85,51.759,97.8,0.2853
14.4,FLT_003,29.03,5.76,8.0,-0.626,1.26,54.05,55.69,54.89,54.82,51.757,98.3,0.1752
14.5,FLT_003,28.56,5.8,8.0,0.625,1.186,54.73,55.39,54.15,55.48,51.781,97.8,0.3738
14.6,FLT_003,29.63,5.84,8.0,-3.046,1.237,54.42,53.88,56.14,55.08,51.785,98.1,0.262
14.7,FLT_003,29.33,5.88,8.0,2.021,1.106,55.64,54.22,54.32,56.82,51.639,98.0,0.3474
14.8,FLT_003,29.09,5.92,8.0,0.389,1.161,54.4,56.29,54.79,55.12,51.739,98.2,0.3181
14.9,FLT_003,29.56,5.96,8.0,0.328,1.117,56.84,54.87,55.16,52.82,51.806,98.0,0.3701
15.0,FLT_003,30.3,6.0,8.0,1.76,1.152,55.93,55.28,54.28,57.6,51.835,97.9,0.3147
15.1,FLT_003,29.52,6.04,8.0,0.44,0.986,54.37,54.17,54.9,53.73,51.726,98.2,0.2818
15.2,FLT_003,29.83,6.08,8.0,-1.933,1.028,55.04,53.02,56.05,54.99,51.894,97.7,0.1848
15.3,FLT_003,31.46,6.12,8.0,-2.688,1.094,54.8,55.24,53.93,53.88,51.804,98.3,0.3122
15.4,FLT_003,30.32,6.16,8.0,-0.357,1.142,55.84,55.52,54.05,55.75,51.828,98.5,0.2729
15.5,FLT_003,31.64,6.2,8.0,-1.21,1.096,58.09,54.54,56.39,55.13,51.782,98.3,0.2692
15.6,FLT_003,30.49,6.24,8.0,-1.042,1.054,54.75,54.27,55.95,55.49,51.844,98.0,0.3604
15.7,FLT_003,31.55,6.28,8.0,1.367,0.998,56.09,55.87,56.16,56.26,51.792,98.4,0.3326
15.8,FLT_003,32.1,6.32,8.0,1.421,1.051,54.66,55.38,55.18,54.37,51.63,98.4,0.2527
15.9,FLT_003,31.24,6.36,8.0,2.672,1.201,53.96,56.55,55.75,56.79,51.724,98.1,0.2983
16.0,FLT_003,31.59,6.4,8.0,-0.164,1.187,55.53,54.82,54.7,54.58,51.732,98.4,0.3009
16.1,FLT_003,32.78,6.44,8.0,-2.22,1.321,54.84,54.88,55.68,53.76,51.84,98.0,0.3489
16.2,FLT_003,33.38,6.48,8.0,-0.683,1.264,54.39,53.49,55.43,55.74,51.714,98.1,0.3627
16.3,FLT_003,32.97,6.52,8.0,-0.79,1.384,55.72,54.14,54.1,54.27,51.767,97.8,0.2842
16.4,FLT_003,32.75,6.56,8.0,1.488,1.459,53.88,55.57,54.23,55.33,51.636,98.4,0.2717
16.5,FLT_003,33.01,6.6,8.0,-1.106,1.347,56.1,54.78,54.86,54.22,51.77,97.6,0.3078
16.6,FLT_003,32.65,6.64,8.0,0.846,1.408,55.68,54.65,54.99,56.08,51.793,97.7,0.25
16.7,FLT_003,32.39,6.68,8.0,0.705,1.397,54.97,53.96,54.93,54.96,51.705,97.9,0.3319
16.8,FLT_003,33.97,6.72,8.0,1.578,1.503,55.43,56.43,53.82,54.99,51.814,98.6,0.2727
16.9,FLT_003,32.89,6.76,8.0,-2.058,1.574,54.53,55.53,55.43,54.74,51.887,98.1,0.2943
17.0,FLT_003,33.74,6.8,8.0,-2.181,1.568,54.29,56.55,54.91,54.27,51.597,97.6,0.2436
17.1,FLT_003,34.15,6.84,8.0,1.482,1.51,52.44,55.19,54.97,55.72,51.607,98.2,0.238
17.2,FLT_003,33.99,6.88,8.0,-0.444,1.494,55.33,55.5,53.9,54.09,51.694,97.9,0.3145
17.3,FLT_003,34.96,6.92,8.0,-0.931,1.514,55.7,54.45,55.05,53.35,51.587,98.1,0.3625
17.4,FLT_003,34.8,6.96,8.0,2.119,1.573,53.23,54.23,55.01,55.46,51.718,98.0,0.2482
17.5,FLT_003,34.78,7.0,8.0,-0.517,1.621,55.71,54.61,54.81,55.2,51.527,98.3,0.3962
17.6,FLT_003,35.48,7.04,8.0,-0.403,1.589,55.02,55.05,56.23,56.61,51.743,98.1,0.3339
17.7,FLT_003,35.57,7.08,8.0,1.113,1.469,52.94,55.26,54.69,54.52,51.763,97.9,0.3138
17.8,FLT_003,36.02,7.12,8.0,1.818,1.512,54.59,56.53,55.44,56.63,51.54,97.9,0.2978
17.9,FLT_003,35.59,7.16,8.0,2.198,1.573,56.01,56.47,55.08,54.26,51.672,97.8,0.268
18.0,FLT_003,36.42,7.2,8.0,2.049,1.584,55.07,54.63,55.26,52.72,51.711,98.0,0.3433
18.1,FLT_003,36.36,7.24,8.0,-0.262,1.358,54.38,55.04,54.9,54.05,51.635,98.1,0.3044
18.2,FLT_003,36.76,7.28,8.0,0.372,1.333,56.37,54.47,55.75,52.75,51.736,98.1,0.2688
18.3,FLT_003,37.08,7.32,8.0,0.26,1.176,53.59,53.15,53.9,54.49,51.519,97.9,0.2378
18.4,FLT_003,37.18,7.36,8.0,-1.934,1.216,54.68,54.12,53.38,55.1,51.634,97.6,0.4352
18.5,FLT_003,37.01,7.4,8.0,0.102,1.07,54.92,55.83,54.83,54.74,51.785,98.0,0.3892
18.6,FLT_003,37.36,7.44,8.0,-1.015,1.086,56.32,54.13,53.54,56.19,51.625,98.0,0.3018
18.7,FLT_003,37.88,7.48,8.0,-1.85,1.1,55.9,56.97,55.67,53.45,51.78,98.0,0.2868
18.8,FLT_003,37.11,7.52,8.0,0.617,1.201,54.31,54.39,53.98,56.62,51.757,97.8,0.2918
18.9,FLT_003,37.92,7.56,8.0,-0.504,1.196,52.61,55.35,55.03,54.31,51.703,97.5,0.3979
19.0,FLT_003,36.97,7.6,8.0,-1.752,1.227,54.17,53.08,56.46,54.87,51.663,98.0,0.3031
19.1,FLT_003,38.11,7.64,8.0,0.048,1.246,53.42,54.41,56.22,54.57,51.811,97.7,0.2357
19.2,FLT_003,37.22,7.68,8.0,-4.19,1.246,55.63,55.64,55.17,52.96,51.563,98.1,0.2221
19.3,FLT_003,38.24,7.72,8.0,1.925,1.351,54.73,55.91,52.23,55.09,51.663,98.2,0.2641
19.4,FLT_003,37.91,7.76,8.0,-1.541,1.464,55.11,54.89,56.24,55.03,51.675,97.7,0.3079
19.5,FLT_003,39.54,7.8,8.0,0.777,1.419,53.34,54.95,54.97,54.43,51.6,97.5,0.2852
19.6,FLT_003,38.89,7.84,8.0,2.317,1.349,52.6,55.86,53.79,54.48,51.733,97.7,0.3205
19.7,FLT_003,38.9,7.88,8.0,-0.02,1.402,54.53,55.68,55.52,55.2,51.647,97.1,0.2071
19.8,FLT_003,39.72,7.92,8.0,-1.572,1.406,54.74,56.28,55.18,55.62,51.817,97.6,0.2274
19.9,FLT_003,39.43,7.96,8.0,2.219,1.393,55.58,54.1,55.64,55.31,51.677,97.8,0.3295
20.0,FLT_003,39.36,8.0,8.0,0.181,1.249,54.49,56.12,56.43,55.04,51.529,98.0,0.3646
20.1,FLT_003,40.07,8.04,8.0,1.58,1.36,56.44,54.99,55.2,54.05,51.746,97.4,0.2047
20.2,FLT_003,39.63,8.08,8.0,0.582,1.22,55.21,54.89,54.49,55.85,51.491,97.6,0.2675
20.3,FLT_003,41.58,8.12,8.0,2.515,1.194,55.07,55.53,53.61,55.79,51.406,97.6,0.3307
20.4,FLT_003,40.87,8.16,8.0,0.735,1.122,55.04,54.91,54.94,54.0,51.534,97.5,0.2885
20.5,FLT_003,41.33,8.2,8.0,0.966,0.993,56.35,54.87,54.33,54.55,51.788,97.8,0.2838
20.6,FLT_003,41.84,8.24,8.0,0.831,1.249,55.65,56.77,53.41,56.6,51.624,97.5,0.2897
20.7,FLT_003,42.07,8.28,8.0,1.067,1.213,56.03,54.11,55.83,55.47,51.727,97.6,0.3067
20.8,FLT_003,41.95,8.32,8.0,1.127,1.211,55.37,56.37,54.48,55.72,51.71,98.2,0.3369
20.9,FLT_003,41.63,8.36,8.0,-0.419,1.38,53.41,56.06,54.0,56.03,51.611,97.6,0.2819
21.0,FLT_003,42.13,8.4,8.0,-0.833,1.419,54.5,54.68,55.38,55.17,51.624,97.3,0.3305
21.1,FLT_003,42.24,8.44,8.0,0.331,1.407,56.74,55.34,54.49,54.61,51.71,97.1,0.313
21.2,FLT_003,42.45,8.48,8.0,0.029,1.38,55.47,54.58,54.89,56.36,51.787,98.0,0.3257
21.3,FLT_003,42.86,8.52,8.0,-5.357,1.356,54.52,53.34,54.94,54.98,51.634,97.1,0.3269
21.4,FLT_003,42.9,8.56,8.0,3.056,1.48,53.57,54.9,57.26,53.27,51.542,97.4,0.297
21.5,FLT_003,42.8,8.6,8.0,-0.958,1.559,55.58,55.15,54.81,55.25,51.592,97.6,0.2936
21.6,FLT_003,44.53,8.64,8.0,-0.7,1.498,55.72,54.42,52.41,55.38,51.775,97.0,0.2417
21.7,FLT_003,42.74,8.68,8.0,-1.994,1.431,54.22,55.22,54.72,55.03,51.559,97.4,0.339
21.8,FLT_003,43.77,8.72,8.0,-2.425,1.562,54.55,55.16,55.15,54.71,51.722,97.5,0.2805
21.9,FLT_003,44.13,8.76,8.0,0.347,1.523,54.15,55.65,55.11,54.85,51.491,97.7,0.2483
22.0,FLT_003,44.63,8.8,8.0,-4.107,1.678,54.32,55.62,54.03,54.29,51.752,97.0,0.2938
22.1,FLT_003,44.14,8.84,8.0,3.109,1.504,57.06,55.68,53.99,55.07,51.629,97.3,0.3198
22.2,FLT_003,44.75,8.88,8.0,0.172,1.637,56.47,54.87,55.81,53.32,51.757,97.2,0.229
22.3,FLT_003,44.45,8.92,8.0,2.009,1.652,54.02,55.51,57.13,56.38,51.479,96.7,0.3004
22.4,FLT_003,45.31,8.96,8.0,1.058,1.672,55.43,57.06,56.06,54.88,51.544,97.7,0.316
22.5,FLT_003,45.16,9.0,8.0,3.386,1.749,55.02,53.41,54.0,55.18,51.624,97.2,0.2509
22.6,FLT_003,45.61,9.04,8.0,0.707,1.702,55.3,55.74,54.5,55.6,51.525,97.4,0.2761
22.7,FLT_003,45.58,9.08,8.0,0.207,1.783,55.42,56.44,55.3,56.01,51.581,96.7,0.2802
22.8,FLT_003,45.47,9.12,8.0,3.65,1.89,56.04,55.41,52.89,55.77,51.801,96.8,0.3281
22.9,FLT_003,45.15,9.16,8.0,0.17,1.798,54.53,56.16,55.41,56.49,51.499,97.4,0.2597
23.0,FLT_003,45.43,9.2,8.0,-3.136,1.841,53.46,56.51,53.58,56.24,51.651,96.9,0.2759
23.1,FLT_003,45.89,9.24,8.0,1.327,1.861,54.05,55.2,55.04,54.83,51.81,97.3,0.2943
23.2,FLT_003,46.32,9.28,8.0,-2.186,1.751,55.7,55.18,54.92,54.56,51.653,97.4,0.2993
23.3,FLT_003,46.92,9.32,8.0,-2.441,1.688,53.41,54.38,55.49,55.62,51.597,97.4,0.3506
23.4,FLT_003,46.81,9.36,8.0,0.316,1.675,55.17,56.19,56.8,55.86,51.603,97.2,0.318
23.5,FLT_003,47.32,9.4,8.0,1.122,1.663,54.36,56.28,54.29,54.91,51.661,97.0,0.3126
23.6,FLT_003,47.87,9.44,8.0,-1.849,1.572,55.0,54.94,53.11,54.41,51.808,97.3,0.2192
23.7,FLT_003,47.15,9.48,8.0,-1.376,1.644,53.99,55.27,55.68,54.44,51.55,97.2,0.3271
23.8,FLT_003,48.35,9.52,8.0,1.65,1.803,54.27,55.43,56.82,55.76,51.644,97.5,0.1286
23.9,FLT_003,46.42,9.56,8.0,0.737,1.864,54.97,55.83,53.88,56.36,51.762,96.9,0.2838
24.0,FLT_003,48.17,9.6,8.0,-2.158,1.927,53.5,55.88,57.35,54.52,51.688,97.6,0.2253
24.1,FLT_003,48.44,9.64,8.0,-0.53,2.121,55.25,55.35,55.02,56.13,51.788,97.5,0.3174
24.2,FLT_003,48.69,9.68,8.0,1.166,2.137,53.02,55.45,57.15,54.69,51.446,97.0,0.2663
24.3,FLT_003,49.21,9.72,8.0,-2.937,2.134,56.46,52.61,55.11,56.74,51.552,97.3,0.2858
24.4,FLT_003,49.23,9.76,8.0,-1.74,2.375,55.32,54.97,55.28,53.62,51.491,97.0,0.3215
24.5,FLT_003,49.44,9.8,8.0,0.427,2.507,54.69,57.68,55.23,54.86,51.615,97.7,0.3431
24.6,FLT_003,48.15,9.84,8.0,-1.45,2.561,55.62,54.11,53.88,53.5,51.648,97.1,0.1866
24.7,FLT_003,49.07,9.88,8.0,3.025,2.539,53.85,53.53,56.26,55.56,51.527,97.3,0.3025
24.8,FLT_003,49.46,9.92,8.0,-2.928,2.61,55.1,54.89,53.3,53.55,51.472,97.0,0.3255
24.9,FLT_003,50.18,9.96,8.0,-1.036,2.502,55.89,54.57,54.28,54.71,51.434,97.0,0.276
25.0,FLT_003,50.45,10.0,8.0,0.013,2.489,55.42,56.19,53.65,56.1,51.481,96.8,0.3046
25.1,FLT_003,49.77,10.04,8.0,1.313,2.464,55.04,54.69,55.41,55.28,51.725,97.1,0.1788
25.2,FLT_003,50.62,10.08,8.0,0.275,2.45,53.18,54.37,55.32,53.04,51.477,96.9,0.3132
25.3,FLT_003,50.11,10.12,8.0,-2.145,2.533,55.38,53.11,54.86,55.08,51.753,96.8,0.25
25.4,FLT_003,51.12,10.16,8.0,-2.276,2.392,57.14,54.87,55.06,55.08,51.676,96.7,0.3008
25.5,FLT_003,51.47,10.2,8.0,-4.3,2.512,56.37,55.68,54.24,54.78,51.342,97.1,0.2893
25.6,FLT_003,51.82,10.24,8.0,1.684,2.466,55.85,56.89,54.62,55.4,51.49,97.0,0.2905
25.7,FLT_003,50.79,10.28,8.0,0.98,2.477,54.78,56.31,55.9,54.56,51.365,97.0,0.309
25.8,FLT_003,51.21,10.32,8.0,0.398,2.514,55.65,52.63,56.0,53.47,51.482,96.9,0.3124
25.9,FLT_003,50.46,10.36,8.0,0.509,2.493,54.96,55.01,55.39,54.07,51.525,97.2,0.2342
26.0,FLT_003,52.43,10.4,8.0,2.252,2.457,55.17,55.16,55.84,54.4,51.668,97.4,0.2864
26.1,FLT_003,52.88,10.44,8.0,1.381,2.419,55.75,53.41,55.92,54.2,51.634,96.9,0.3078
26.2,FLT_003,51.91,10.48,8.0,1.192,2.56,53.81,55.99,53.68,55.32,51.664,97.1,0.2707
26.3,FLT_003,52.2,10.52,8.0,2.068,2.556,55.02,56.19,55.07,55.0,51.536,96.7,0.3031
26.4,FLT_003,53.32,10.56,8.0,0.747,2.594,54.01,55.46,54.96,54.56,51.659,96.8,0.228
26.5,FLT_003,52.87,10.6,8.0,0.275,2.563,54.11,56.2,54.81,54.35,51.72,96.9,0.1944
26.6,FLT_003,53.8,10.64,8.0,-1.462,2.568,57.46,53.67,54.06,54.83,51.472,96.6,0.2814
26.7,FLT_003,53.39,10.68,8.0,-3.82,2.476,54.85,54.04,54.8,54.45,51.668,96.8,0.2986
26.8,FLT_003,53.89,10.72,8.0,-1.784,2.387,54.72,54.81,55.9,54.49,51.64,96.8,0.2761
26.9,FLT_003,53.47,10.76,8.0,1.311,2.337,54.21,56.14,54.52,54.19,51.511,97.1,0.3088
27.0,FLT_003,54.02,10.8,8.0,-0.987,2.425,54.09,56.32,55.55,55.02,51.541,97.1,0.2088
27.1,FLT_003,52.89,10.84,8.0,-0.619,2.353,52.98,55.43,54.05,56.33,51.448,96.9,0.2635
27.2,FLT_003,55.36,10.88,8.0,1.419,2.256,56.49,54.7,53.26,54.38,51.393,96.9,0.3653
27.3,FLT_003,54.89,10.92,8.0,-3.587,2.367,52.98,56.33,55.02,53.92,51.458,96.8,0.3316
27.4,FLT_003,54.67,10.96,8.0,1.514,2.232,53.75,54.34,55.65,54.24,51.548,96.7,0.3281
27.5,FLT_003,54.78,11.0,8.0,1.613,2.061,56.29,55.18,55.61,54.52,51.54,96.8,0.2516
27.6,FLT_003,54.45,11.04,8.0,-0.144,1.946,56.88,55.76,54.6,55.29,51.457,96.2,0.2734
27.7,FLT_003,54.87,11.08,8.0,-0.091,1.869,53.14,54.51,54.66,55.9,51.421,96.6,0.3238
27.8,FLT_003,55.8,11.12,8.0,-0.367,1.794,57.04,55.73,53.8,55.86,51.551,97.0,0.212
27.9,FLT_003,55.81,11.16,8.0,1.324,1.867,54.8,54.99,53.36,55.08,51.484,96.5,0.3253
28.0,FLT_003,56.38,11.2,8.0,-1.544,1.893,54.24,54.22,57.75,53.3,51.277,96.3,0.313
28.1,FLT_003,55.67,11.24,8.0,-0.655,1.884,57.79,54.74,55.37,55.61,51.508,97.1,0.3012
28.2,FLT_003,57.07,11.28,8.0,2.37,1.914,55.51,52.85,53.41,55.11,51.597,97.3,0.3129
28.3,FLT_003,56.26,11.32,8.0,-0.897,1.946,54.97,56.1,52.14,54.93,51.567,96.6,0.3141
28.4,FLT_003,56.29,11.36,8.0,0.8,1.992,54.1,55.02,55.25,55.49,51.526,96.9,0.2543
28.5,FLT_003,56.75,11.4,8.0,0.145,2.099,56.02,55.58,54.57,55.96,51.539,96.8,0.3216
28.6,FLT_003,57.97,11.44,8.0,-0.548,2.227,55.74,54.64,56.48,57.45,51.549,96.4,0.3863
28.7,FLT_003,57.81,11.48,8.0,1.299,2.24,54.65,55.16,55.83,54.68,51.505,96.5,0.372
28.8,FLT_003,57.11,11.52,8.0,0.75,2.309,54.75,55.7,56.49,53.22,51.556,96.6,0.3552
28.9,FLT_003,57.42,11.56,8.0,0.874,2.108,54.96,55.35,54.77,56.45,51.481,96.4,0.2807
29.0,FLT_003,56.84,11.6,8.0,2.971,2.166,55.26,54.19,55.82,53.33,51.546,96.2,0.2928
29.1,FLT_003,58.45,11.64,8.0,-5.802,2.333,54.31,53.57,52.87,55.21,51.395,95.9,0.203
29.2,FLT_003,58.28,11.68,8.0,0.285,2.29,55.09,55.59,55.2,52.85,51.587,96.6,0.1539
29.3,FLT_003,58.22,11.72,8.0,0.744,2.272,54.84,56.0,55.88,56.51,51.417,96.5,0.3517
29.4,FLT_003,59.54,11.76,8.0,-2.633,2.201,53.22,55.76,54.3,55.05,51.587,96.4,0.303
29.5,FLT_003,60.17,11.8,8.0,-3.323,2.19,55.15,54.73,55.07,56.2,51.596,96.2,0.253
29.6,FLT_003,59.4,11.84,8.0,-3.484,1.925,54.5,55.08,54.14,55.59,51.621,96.4,0.3086
29.7,FLT_003,59.56,11.88,8.0,7.24,1.944,55.18,55.37,55.92,55.87,51.677,96.3,0.2584
29.8,FLT_003,59.72,11.92,8.0,-4.252,1.928,55.25,54.41,55.81,54.43,51.537,96.6,0.2748
29.9,FLT_003,59.81,11.96,8.0,-3.556,2.109,53.44,55.14,54.12,56.03,51.4,96.9,0.3843
30.0,FLT_003,59.28,12.0,8.0,-0.337,1.996,55.3,57.1,56.71,55.01,51.669,96.8,0.2946
30.1,FLT_003,59.84,12.04,8.0,2.689,2.1,55.47,56.59,54.75,53.98,51.593,97.1,0.2962
30.2,FLT_003,60.39,12.08,8.0,1.46,2.148,54.2,54.19,54.37,53.54,51.525,96.4,0.3145
30.3,FLT_003,61.06,12.12,8.0,-0.306,2.051,56.24,54.96,54.15,54.14,51.267,96.5,0.2656
30.4,FLT_003,60.64,12.16,8.0,1.577,2.01,55.48,53.9,57.19,54.45,51.425,96.8,0.303
30.5,FLT_003,61.8,12.2,8.0,1.609,2.141,55.04,53.36,54.19,55.58,51.598,95.8,0.3126
30.6,FLT_003,61.76,12.24,8.0,-0.192,1.901,55.82,56.11,54.05,55.11,51.446,96.1,0.2857
30.7,FLT_003,61.39,12.28,8.0,-2.6,1.889,55.2,55.59,55.19,56.32,51.671,96.6,0.2401
30.8,FLT_003,61.51,12.32,8.0,3.461,1.931,55.21,55.19,54.16,57.74,51.398,96.2,0.3423
30.9,FLT_003,61.95,12.36,8.0,1.147,1.972,54.17,55.14,56.03,56.49,51.503,95.9,0.2797
31.0,FLT_003,62.3,12.4,8.0,0.243,2.042,55.28,54.87,54.96,56.44,51.426,96.2,0.3046
31.1,FLT_003,62.25,12.44,8.0,0.091,1.989,56.43,55.36,55.35,53.75,51.5,96.6,0.2477
31.2,FLT_003,62.52,12.48,8.0,2.566,2.0,55.94,54.89,54.16,52.33,51.49,96.7,0.2328
31.3,FLT_003,63.1,12.52,8.0,2.21,1.908,54.48,55.39,55.26,54.97,51.515,96.2,0.2584
31.4,FLT_003,62.8,12.56,8.0,-4.667,1.854,54.34,54.77,55.23,55.82,51.554,96.0,0.3212
31.5,FLT_003,63.48,12.6,8.0,-4.232,1.913,56.01,54.97,55.6,55.18,51.567,96.1,0.2997
31.6,FLT_003,63.05,12.64,8.0,1.569,2.013,54.41,53.71,56.29,55.38,51.476,96.6,0.2988
31.7,FLT_003,63.02,12.68,8.0,1.212,1.904,53.88,56.45,55.67,57.82,51.336,96.8,0.3446
31.8,FLT_003,63.35,12.72,8.0,-2.657,1.921,56.17,55.0,54.14,53.84,51.358,95.7,0.2531
31.9,FLT_003,63.65,12.76,8.0,-0.905,2.019,55.51,55.48,54.93,55.47,51.401,96.9,0.3417
32.0,FLT_003,63.43,12.8,8.0,1.47,1.913,54.54,54.54,55.55,54.34,51.519,95.8,0.377
32.1,FLT_003,64.48,12.84,8.0,-0.651,1.951,55.4,54.62,53.98,54.94,51.377,96.4,0.3731
32.2,FLT_003,64.12,12.88,8.0,2.249,1.9,55.03,55.68,55.36,56.08,51.388,96.8,0.2733
32.3,FLT_003,64.14,12.92,8.0,-5.496,1.878,56.03,54.07,55.71,54.97,51.457,96.0,0.2778
32.4,FLT_003,64.96,12.96,8.0,0.692,1.944,56.02,54.41,54.22,53.8,51.515,96.3,0.3688
32.5,FLT_003,64.22,13.0,8.0,0.699,1.844,55.73,54.55,54.55,56.22,51.463,95.8,0.3167
32.6,FLT_003,65.19,13.04,8.0,0.808,1.747,55.25,55.47,52.95,55.71,51.428,96.6,0.3029
32.7,FLT_003,65.25,13.08,8.0,1.053,1.754,55.67,56.08,56.27,55.49,51.37,95.5,0.3031
32.8,FLT_003,65.08,13.12,8.0,1.638,1.988,53.33,54.74,55.48,55.04,51.337,95.5,0.305
32.9,FLT_003,66.08,13.16,8.0,1.079,1.944,54.87,55.97,54.29,54.74,51.53,96.1,0.3065
33.0,FLT_003,65.73,13.2,8.0,0.256,2.093,54.92,57.26,53.01,56.38,51.303,96.0,0.2461
33.1,FLT_003,66.58,13.24,8.0,-1.891,2.151,53.89,54.99,55.58,55.39,51.282,96.3,0.2911
33.2,FLT_003,66.57,13.28,8.0,-3.117,2.355,54.91,56.03,54.89,54.64,51.467,96.2,0.3056
33.3,FLT_003,66.37,13.32,8.0,2.144,2.278,55.24,54.71,54.73,56.06,51.505,96.0,0.2384
33.4,FLT_003,67.69,13.36,8.0,-0.252,2.461,55.37,54.48,55.26,52.78,51.362,96.1,0.3848
33.5,FLT_003,67.1,13.4,8.0,-1.697,2.414,55.07,55.5,55.4,53.69,51.33,95.2,0.3338
33.6,FLT_003,67.05,13.44,8.0,-2.159,2.482,54.8,55.6,55.72,55.48,51.553,95.9,0.2539
33.7,FLT_003,68.31,13.48,8.0,-0.246,2.555,54.84,53.76,53.8,55.76,51.292,95.8,0.4227
33.8,FLT_003,67.44,13.52,8.0,0.088,2.92,55.97,53.91,54.55,55.29,51.329,96.0,0.2906
33.9,FLT_003,69.1,13.56,8.0,0.293,2.968,55.29,55.42,55.12,54.11,51.484,95.8,0.3121
34.0,FLT_003,68.31,13.6,8.0,-1.972,2.955,55.65,55.66,54.16,56.02,51.455,96.4,0.2856
34.1,FLT_003,69.11,13.64,8.0,-0.254,2.869,52.06,54.56,56.47,56.58,51.309,96.0,0.3944
34.2,FLT_003,68.99,13.68,8.0,-1.736,2.779,55.46,55.58,55.53,55.11,51.463,96.0,0.3176
34.3,FLT_003,68.32,13.72,8.0,0.441,2.728,55.6,54.96,55.79,54.39,51.138,96.3,0.2681
34.4,FLT_003,69.08,13.76,8.0,1.232,2.7,55.33,53.8,54.01,55.34,51.461,95.7,0.1663
34.5,FLT_003,69.79,13.8,8.0,3.909,2.676,54.25,55.34,53.16,53.62,51.456,96.1,0.3328
34.6,FLT_003,70.31,13.84,8.0,-2.73,2.698,55.11,53.52,54.63,55.05,51.572,95.9,0.3559
34.7,FLT_003,69.53,13.88,8.0,0.163,2.751,55.33,55.05,54.94,55.53,51.703,96.0,0.2691
34.8,FLT_003,68.97,13.92,8.0,-3.503,2.705,53.42,55.89,55.58,54.61,51.438,96.4,0.3825
34.9,FLT_003,70.05,13.96,8.0,-3.524,2.741,55.84,55.48,56.64,56.01,51.432,95.7,0.3248
35.0,FLT_003,69.76,14.0,8.0,-0.662,2.841,54.87,54.12,56.09,55.04,51.415,95.9,0.2577
35.1,FLT_003,69.87,14.04,8.0,-1.78,2.9,54.83,54.28,56.85,54.11,51.51,96.1,0.2647
35.2,FLT_003,70.89,14.08,8.0,-0.861,2.921,55.7,56.56,54.67,55.08,51.456,95.5,0.263
35.3,FLT_003,70.42,14.12,8.0,-2.33,2.86,53.17,53.83,56.77,53.59,51.303,95.6,0.2297
35.4,FLT_003,70.97,14.16,8.0,-1.573,2.779,55.02,55.56,54.28,54.49,51.312,95.7,0.3446
35.5,FLT_003,70.64,14.2,8.0,3.371,2.851,56.05,54.1,54.79,54.21,51.283,95.6,0.2325
35.6,FLT_003,71.07,14.24,8.0,-0.454,2.852,54.43,57.11,53.77,57.23,51.423,95.7,0.2946
35.7,FLT_003,70.98,14.28,8.0,0.656,2.716,53.9,53.63,54.7,53.87,51.401,95.7,0.3006
35.8,FLT_003,72.39,14.32,8.0,0.267,2.575,55.71,55.74,54.01,53.99,51.492,95.5,0.2901
35.9,FLT_003,71.44,14.36,8.0,-2.089,2.653,55.58,54.8,54.35,54.67,51.447,96.5,0.2418
36.01,FLT_003,72.15,14.4,8.0,1.798,2.752,55.38,55.63,54.62,55.59,51.343,95.8,0.3688
36.11,FLT_003,72.62,14.44,8.0,2.8,2.805,55.15,54.42,55.43,54.94,51.188,95.8,0.2752
36.21,FLT_003,72.29,14.48,8.0,1.8,2.764,54.01,58.02,56.12,55.56,51.378,95.5,0.2971
36.31,FLT_003,73.0,14.52,8.0,-1.48,2.817,56.76,54.61,54.85,54.4,51.399,95.4,0.2311
36.41,FLT_003,73.03,14.56,8.0,0.632,2.756,56.08,55.18,55.05,54.17,51.486,95.8,0.2905
36.51,FLT_003,73.77,14.6,8.0,-1.121,2.791,54.19,54.49,55.39,55.3,51.302,95.3,0.2749
36.61,FLT_003,73.59,14.64,8.0,-1.216,2.951,55.67,55.07,53.94,55.39,51.498,95.6,0.3881
36.71,FLT_003,73.96,14.68,8.0,-0.413,2.752,55.24,55.23,53.99,55.56,51.312,95.5,0.3349
36.81,FLT_003,73.93,14.72,8.0,2.306,2.682,54.8,54.82,55.21,56.5,51.43,95.8,0.3859
36.91,FLT_003,72.78,14.76,8.0,2.568,2.569,55.88,52.74,55.68,56.43,51.457,95.3,0.3516
37.01,FLT_003,73.49,14.8,8.0,0.182,2.802,57.0,55.14,54.14,55.44,51.462,95.9,0.2918
37.11,FLT_003,74.57,14.84,8.0,-0.713,2.859,54.14,55.13,56.13,52.93,51.381,95.8,0.3566
37.21,FLT_003,73.59,14.88,8.0,4.393,2.744,54.39,55.51,52.95,54.08,51.222,96.1,0.2803
37.31,FLT_003,74.81,14.92,8.0,-1.955,2.742,57.92,55.49,55.27,55.53,51.371,95.6,0.2784
37.41,FLT_003,75.22,14.96,8.0,2.61,2.71,55.07,57.54,56.19,54.63,51.245,95.7,0.3515
37.51,FLT_003,75.45,15.0,8.0,2.19,2.628,54.26,55.46,53.94,55.57,51.482,95.4,0.2635
37.61,FLT_003,74.73,15.04,8.0,-0.888,2.538,56.62,55.61,54.9,56.18,51.326,95.0,0.2935
37.71,FLT_003,75.68,15.08,8.0,0.911,2.319,56.04,53.62,55.08,54.59,51.373,94.9,0.2204
37.81,FLT_003,75.86,15.12,8.0,0.638,2.225,55.33,54.49,56.13,54.38,51.362,95.8,0.3052
37.91,FLT_003,75.97,15.16,8.0,-1.94,2.075,53.98,54.94,52.67,54.45,51.173,95.7,0.3313
38.01,FLT_003,76.08,15.2,8.0,0.091,2.245,54.67,58.02,54.86,57.14,51.338,95.5,0.2116
38.11,FLT_003,76.07,15.24,8.0,0.914,2.187,55.29,55.14,56.16,54.26,51.357,95.3,0.2642
38.21,FLT_003,75.58,15.28,8.0,0.248,2.106,54.25,54.86,54.28,54.6,51.536,95.4,0.2881
38.31,FLT_003,77.48,15.32,8.0,-2.523,2.157,54.98,54.72,53.54,55.98,51.509,94.8,0.3446
38.41,FLT_003,77.18,15.36,8.0,-3.712,2.119,54.57,56.07,55.46,55.24,51.303,95.4,0.3036
38.51,FLT_003,77.24,15.4,8.0,-1.884,1.939,55.2,53.99,55.91,55.28,51.32,96.0,0.3101
38.61,FLT_003,77.47,15.44,8.0,0.297,1.869,54.65,55.85,55.16,54.56,51.213,95.3,0.2599
38.71,FLT_003,78.1,15.48,8.0,-0.462,1.846,54.62,54.2,55.25,53.75,51.303,95.4,0.3663
38.81,FLT_003,76.99,15.52,8.0,-1.477,1.972,54.72,55.27,54.69,55.31,51.422,95.1,0.1684
38.91,FLT_003,77.16,15.56,8.0,1.795,2.003,55.66,53.28,54.85,53.34,51.261,95.6,0.2935
39.01,FLT_003,77.06,15.6,8.0,-4.578,2.028,56.38,55.59,54.37,54.44,51.279,95.2,0.3164
39.11,FLT_003,78.01,15.64,8.0,1.953,1.916,55.64,54.63,55.9,54.59,51.32,95.7,0.2356
39.21,FLT_003,78.48,15.68,8.0,0.306,1.948,55.14,54.41,54.57,55.63,51.218,96.0,0.3256
39.31,FLT_003,78.6,15.72,8.0,3.39,1.908,57.18,54.49,53.8,53.38,51.388,95.2,0.3396
39.41,FLT_003,77.99,15.76,8.0,-0.386,1.913,56.25,55.7,54.8,53.55,51.32,94.5,0.3164
39.51,FLT_003,78.44,15.8,8.0,-0.811,1.801,56.12,56.18,54.44,55.03,51.419,95.7,0.2903
39.61,FLT_003,80.12,15.84,8.0,-1.626,1.849,55.88,53.53,53.71,55.37,51.395,95.3,0.345
39.71,FLT_003,79.28,15.88,8.0,2.472,1.898,54.32,55.77,54.67,55.53,51.225,95.4,0.3532
39.81,FLT_003,79.44,15.92,8.0,0.179,1.751,54.28,55.08,54.74,54.79,51.412,95.3,0.3639
39.91,FLT_003,80.28,15.96,8.0,-0.051,1.672,54.9,54.78,55.15,53.75,51.191,95.6,0.3528
40.01,FLT_003,80.57,16.0,8.0,-0.595,1.579,55.22,55.13,56.65,54.73,51.408,94.9,0.3997
40.11,FLT_003,80.36,16.04,8.0,2.971,1.662,53.09,56.14,56.74,55.88,51.3,95.1,0.3742
40.21,FLT_003,80.6,16.08,8.0,0.476,1.766,55.69,52.97,54.28,55.31,51.264,95.0,0.3609
40.31,FLT_003,80.01,16.12,8.0,-1.129,1.581,56.78,55.49,53.72,54.71,51.358,95.2,0.3689
40.41,FLT_003,81.01,16.16,8.0,3.628,1.571,54.6,57.02,55.79,53.8,51.359,95.8,0.3144
40.51,FLT_003,81.33,16.2,8.0,-2.306,1.53,53.89,56.06,56.08,55.19,51.163,95.0,0.1355
40.61,FLT_003,81.7,16.24,8.0,1.754,1.475,55.11,55.64,55.69,54.44,51.34,95.3,0.3169
40.71,FLT_003,81.14,16.28,8.0,-0.575,1.532,54.87,54.7,54.48,54.83,51.369,95.4,0.3144
40.81,FLT_003,82.13,16.32,8.0,1.749,1.623,55.37,56.43,54.17,54.88,51.323,95.3,0.3099
40.91,FLT_003,82.29,16.36,8.0,-0.276,1.697,56.34,54.47,52.73,55.84,51.362,95.2,0.3716
41.01,FLT_003,81.79,16.4,8.0,3.121,1.792,56.69,54.62,55.9,55.33,51.401,95.1,0.2941
41.11,FLT_003,82.64,16.44,8.0,-1.684,1.914,53.88,55.96,56.13,54.79,51.216,95.3,0.3287
41.21,FLT_003,82.0,16.48,8.0,0.382,1.904,55.77,54.31,55.4,55.5,51.214,95.4,0.3843
41.31,FLT_003,81.89,16.52,8.0,-1.915,1.995,55.0,53.85,55.14,55.44,51.311,94.8,0.3236
41.41,FLT_003,82.58,16.56,8.0,2.281,2.067,54.03,55.99,54.45,54.77,51.211,95.6,0.2972
41.51,FLT_003,83.12,16.6,8.0,-2.224,2.139,53.8,55.53,57.65,54.64,51.254,94.8,0.4123
41.61,FLT_003,82.98,16.64,8.0,0.299,2.019,54.27,54.65,55.12,55.49,51.394,95.6,0.3304
41.71,FLT_003,82.63,16.68,8.0,0.229,2.036,56.06,55.83,54.54,55.47,51.283,95.5,0.345
41.81,FLT_003,83.83,16.72,8.0,-1.428,2.038,53.29,54.29,54.26,54.89,51.296,95.5,0.3134
41.91,FLT_003,83.74,16.76,8.0,1.365,2.133,53.14,55.79,53.96,55.63,51.462,95.3,0.3769
42.01,FLT_003,83.48,16.8,8.0,-3.151,2.115,56.33,57.38,53.33,55.87,51.316,95.5,0.3345
42.11,FLT_003,84.11,16.84,8.0,-0.018,2.062,54.67,55.48,54.63,54.14,51.41,94.7,0.2656
42.21,FLT_003,84.08,16.88,8.0,0.575,2.091,55.06,55.38,56.65,53.54,51.399,94.7,0.376
42.31,FLT_003,84.62,16.92,8.0,1.089,2.066,54.89,53.83,54.46,55.51,51.248,95.9,0.2307
42.41,FLT_003,84.7,16.96,8.0,-1.956,2.154,54.66,55.31,56.52,54.35,51.223,95.3,0.3409
42.51,FLT_003,85.24,17.0,8.0,3.657,2.087,53.54,53.99,54.74,51.47,51.316,94.7,0.2864
42.61,FLT_003,85.09,17.04,8.0,2.413,2.186,55.37,58.07,53.05,53.57,51.375,95.2,0.2566
42.71,FLT_003,84.4,17.08,8.0,2.111,2.061,54.76,56.01,54.43,54.85,51.162,95.1,0.2716
42.81,FLT_003,85.18,17.12,8.0,-4.829,2.11,54.67,54.53,55.44,55.21,51.286,95.2,0.3175
42.91,FLT_003,85.37,17.16,8.0,-0.191,2.113,56.9,56.42,53.78,54.91,51.302,94.9,0.2907
43.01,FLT_003,86.11,17.2,8.0,2.198,2.188,55.59,54.78,53.48,54.32,51.258,94.6,0.2445
43.11,FLT_003,86.22,17.24,8.0,1.113,2.129,54.92,53.81,55.43,53.22,51.181,94.8,0.3315
43.21,FLT_003,86.92,17.28,8.0,2.732,2.127,53.68,54.67,55.09,55.61,51.281,95.0,0.3248
43.31,FLT_003,86.55,17.32,8.0,0.766,2.148,53.9,54.64,54.27,54.29,51.086,94.9,0.3149
43.41,FLT_003,86.29,17.36,8.0,-0.066,2.249,55.43,55.59,56.14,55.02,51.273,94.9,0.2554
43.51,FLT_003,87.1,17.4,8.0,-1.261,2.364,53.47,55.9,51.94,54.73,51.384,94.7,0.3571
43.61,FLT_003,87.52,17.44,8.0,-0.064,2.3,56.1,54.29,52.82,55.66,51.092,94.9,0.2475
43.71,FLT_003,87.27,17.48,8.0,-0.953,2.159,55.17,56.2,55.31,54.61,51.287,94.7,0.2345
43.81,FLT_003,88.0,17.52,8.0,0.504,2.097,55.14,56.83,54.71,55.73,51.305,94.6,0.3192
43.91,FLT_003,87.62,17.56,8.0,-0.925,2.017,55.27,53.77,54.89,57.1,51.267,95.2,0.2874
44.01,FLT_003,88.01,17.6,8.0,-2.916,1.869,56.23,55.61,55.03,53.53,51.276,95.3,0.2982
44.11,FLT_003,88.22,17.64,8.0,-1.811,1.814,56.31,57.32,56.5,55.85,51.219,94.7,0.3474
44.21,FLT_003,87.99,17.68,8.0,-0.889,1.778,54.48,54.22,54.3,54.01,51.414,94.8,0.2051
44.31,FLT_003,88.38,17.72,8.0,-1.443,1.811,55.72,56.1,54.33,54.51,51.274,94.8,0.2541
44.41,FLT_003,88.88,17.76,8.0,2.973,2.074,55.08,53.46,55.02,55.5,51.305,95.2,0.2912
44.51,FLT_003,89.18,17.8,8.0,-0.794,2.04,55.67,55.48,54.1,54.29,51.201,94.9,0.2439
44.61,FLT_003,90.01,17.84,8.0,-4.003,2.205,52.48,54.63,54.68,54.52,51.197,94.8,0.2479
44.71,FLT_003,89.09,17.88,8.0,1.286,2.087,56.49,55.69,54.6,55.06,51.187,93.8,0.3131
44.81,FLT_003,90.05,17.92,8.0,-4.163,2.185,55.91,56.28,54.4,54.52,51.302,94.6,0.3254
44.91,FLT_003,90.1,17.96,8.0,0.866,2.233,54.41,54.32,53.48,54.74,51.286,95.4,0.282
45.01,FLT_003,90.42,18.0,8.0,1.783,2.173,56.32,56.33,55.44,56.56,51.191,94.5,0.2687
45.11,FLT_003,89.89,18.04,8.0,-2.524,2.172,55.59,55.59,56.11,55.57,51.289,94.6,0.3186
45.21,FLT_003,90.23,18.08,8.0,-0.556,2.206,52.7,56.08,55.49,54.22,51.187,94.3,0.2275
45.31,FLT_003,90.32,18.12,8.0,1.71,2.167,55.58,54.84,56.08,56.41,51.142,94.0,0.3186
45.41,FLT_003,90.69,18.16,8.0,2.702,2.122,55.1,55.93,55.22,54.99,51.203,94.5,0.2623
45.51,FLT_003,91.28,18.2,8.0,1.099,2.105,55.86,55.15,55.31,56.53,51.134,94.6,0.2727
45.61,FLT_003,91.24,18.24,8.0,1.468,2.126,57.32,55.52,54.89,56.56,51.143,94.6,0.3456
45.71,FLT_003,91.85,18.28,8.0,-2.186,2.049,55.9,55.71,54.67,55.11,51.188,94.4,0.3167
45.81,FLT_003,91.22,18.32,8.0,-3.823,2.029,54.43,55.98,55.51,53.77,51.14,94.6,0.3919
45.91,FLT_003,90.84,18.36,8.0,-0.138,2.037,53.9,56.54,55.24,57.3,51.187,94.4,0.2665
46.01,FLT_003,91.98,18.4,8.0,-4.535,2.047,55.12,57.06,54.27,54.93,51.314,94.4,0.2452
46.11,FLT_003,92.13,18.44,8.0,0.317,2.089,55.23,54.04,55.4,55.72,51.322,94.8,0.3462
46.21,FLT_003,92.54,18.48,8.0,-0.518,2.098,56.21,55.4,55.16,56.95,51.211,95.0,0.3434
46.31,FLT_003,92.77,18.52,8.0,-0.983,2.012,54.58,55.97,55.81,54.6,51.291,94.7,0.2207
46.41,FLT_003,92.09,18.56,8.0,1.381,1.933,54.87,54.69,53.8,53.72,51.207,94.5,0.274
46.51,FLT_003,92.04,18.6,8.0,-1.318,2.005,53.94,54.46,52.71,54.25,51.154,94.5,0.1597
46.61,FLT_003,94.39,18.64,8.0,-2.738,2.02,55.77,57.6,54.05,53.99,51.082,94.3,0.3098
46.71,FLT_003,94.12,18.68,8.0,0.576,2.064,56.88,54.81,55.41,56.71,51.253,94.4,0.3316
46.81,FLT_003,94.17,18.72,8.0,3.513,2.097,55.35,55.34,55.22,55.84,51.346,94.7,0.2774
46.91,FLT_003,94.42,18.76,8.0,1.406,2.072,54.94,56.58,55.1,55.96,51.306,94.8,0.3667
47.01,FLT_003,94.17,18.8,8.0,2.167,2.125,53.79,52.96,54.77,54.1,51.316,94.3,0.3297
47.11,FLT_003,94.5,18.84,8.0,0.845,2.047,54.81,56.4,54.58,55.94,51.141,94.1,0.3295
47.21,FLT_003,93.95,18.88,8.0,1.591,2.018,56.73,55.22,54.65,55.2,51.162,94.5,0.3648
47.31,FLT_003,94.68,18.92,8.0,1.61,2.003,55.24,53.04,55.05,53.48,51.283,94.6,0.2053
47.41,FLT_003,95.0,18.96,8.0,0.391,2.059,55.2,56.44,56.22,55.75,51.161,94.7,0.2854
47.51,FLT_003,95.76,19.0,8.0,-1.498,2.054,54.07,53.3,55.06,54.13,51.211,94.6,0.2224
47.61,FLT_003,94.1,19.04,8.0,2.32,1.975,53.88,54.78,56.23,55.84,51.262,94.3,0.288
47.71,FLT_003,96.43,19.08,8.0,1.113,1.85,55.78,54.32,53.28,54.21,51.247,94.9,0.2378
47.81,FLT_003,95.99,19.12,8.0,-0.026,1.854,54.95,55.94,55.27,54.3,51.028,94.3,0.2433
47.91,FLT_003,96.02,19.16,8.0,0.059,1.881,54.38,55.81,55.87,55.92,51.411,94.7,0.3743
48.01,FLT_003,96.04,19.2,8.0,1.511,1.799,55.9,53.45,54.57,55.18,51.29,93.8,0.2591
48.11,FLT_003,96.08,19.24,8.0,-0.521,1.849,55.13,54.05,55.29,55.84,51.063,94.2,0.2861
48.21,FLT_003,95.74,19.28,8.0,3.242,2.031,55.75,54.48,54.01,54.97,51.249,94.4,0.267
48.31,FLT_003,96.51,19.32,8.0,1.624,2.052,54.83,55.53,55.67,55.76,51.128,94.0,0.3796
48.41,FLT_003,97.01,19.36,8.0,1.563,2.071,53.57,56.22,55.27,55.19,51.226,93.8,0.3154
48.51,FLT_003,96.92,19.4,8.0,-0.898,2.032,54.9,55.28,56.41,55.31,51.273,94.4,0.2816
48.61,FLT_003,97.42,19.44,8.0,0.828,2.225,54.98,55.24,55.26,54.81,51.081,94.0,0.3101
48.71,FLT_003,97.53,19.48,8.0,-1.508,2.19,55.88,53.41,55.36,55.43,51.171,94.4,0.2907
48.81,FLT_003,96.99,19.52,8.0,4.509,2.17,56.11,54.29,53.5,56.12,51.275,93.8,0.2616
48.91,FLT_003,97.35,19.56,8.0,2.993,2.208,55.26,54.24,54.06,55.36,51.481,94.6,0.2708
49.01,FLT_003,98.1,19.6,8.0,-0.079,2.133,56.09,55.91,54.67,52.57,51.152,94.8,0.3862
49.11,FLT_003,97.36,19.64,8.0,-0.651,2.13,53.74,54.15,55.87,54.15,51.038,93.6,0.2331
49.21,FLT_003,99.05,19.68,8.0,2.35,2.232,55.16,55.63,54.71,56.48,51.09,93.7,0.3401
49.31,FLT_003,99.01,19.72,8.0,3.005,2.297,56.22,53.48,53.98,54.84,51.312,94.5,0.162
49.41,FLT_003,98.61,19.76,8.0,-0.902,2.175,53.04,55.88,55.54,55.29,51.202,93.8,0.2875
49.51,FLT_003,98.72,19.8,8.0,0.259,2.161,54.55,53.79,55.74,53.68,51.178,94.5,0.278
49.61,FLT_003,99.08,19.84,8.0,1.278,2.088,54.37,53.23,52.45,55.19,51.348,93.9,0.3057
49.71,FLT_003,99.37,19.88,8.0,0.606,2.237,53.96,54.74,55.14,54.82,51.121,94.1,0.2947
49.81,FLT_003,99.24,19.92,8.0,2.151,2.292,56.14,55.72,55.31,53.86,51.236,93.9,0.2858
49.91,FLT_003,100.05,19.96,8.0,5.358,2.177,56.1,54.88,54.92,56.37,51.108,94.2,0.2354
50.01,FLT_003,100.24,20.0,8.0,0.982,2.286,53.17,53.34,55.45,57.63,51.129,93.8,0.3672
50.11,FLT_003,100.16,20.04,8.0,2.888,2.356,56.51,55.09,55.84,55.14,51.157,93.9,0.3156
50.21,FLT_003,100.89,20.08,8.0,-1.585,2.198,55.47,55.07,54.78,55.81,51.043,93.9,0.3661
50.31,FLT_003,101.42,20.12,8.0,2.483,2.217,54.89,55.72,54.71,54.53,51.039,94.1,0.3351
50.41,FLT_003,100.12,20.16,8.0,1.634,2.231,54.36,53.79,55.4,55.24,51.136,93.5,0.3328
50.51,FLT_003,101.55,20.2,8.0,2.42,2.303,53.42,53.1,55.3,54.17,51.112,93.7,0.2615
50.61,FLT_003,100.71,20.24,8.0,0.31,2.269,54.41,54.79,54.45,54.65,51.251,93.3,0.2369
50.71,FLT_003,100.79,20.28,8.0,0.799,2.126,56.05,54.6,53.39,54.67,51.038,94.1,0.3269
50.81,FLT_003,101.12,20.32,8.0,-1.307,2.04,55.24,56.26,55.56,53.35,51.236,94.3,0.3407
50.91,FLT_003,102.02,20.36,8.0,-2.798,2.148,56.67,54.89,55.2,54.98,51.162,93.7,0.2596
51.01,FLT_003,101.45,20.4,8.0,-2.396,2.163,55.39,53.47,56.09,54.02,51.105,93.7,0.3058
51.11,FLT_003,101.97,20.44,8.0,1.384,2.137,55.04,56.0,54.82,54.73,51.174,94.3,0.3246
51.21,FLT_003,102.49,20.48,8.0,-0.484,2.036,54.66,53.92,55.32,55.31,51.17,93.8,0.3789
51.31,FLT_003,101.95,20.52,8.0,-5.075,1.94,56.14,54.17,53.91,55.68,51.075,94.0,0.3485
51.41,FLT_003,102.57,20.56,8.0,1.037,1.806,55.86,53.81,57.03,55.7,51.152,94.1,0.2366
51.51,FLT_003,102.77,20.6,8.0,-4.014,1.77,55.6,55.1,55.94,57.0,51.116,93.6,0.3705
51.61,FLT_003,103.04,20.64,8.0,-0.986,1.849,53.45,54.0,54.07,54.42,51.174,93.4,0.3121
51.71,FLT_003,103.87,20.68,8.0,-3.496,1.625,54.01,55.47,54.68,54.65,51.266,93.6,0.2974
51.81,FLT_003,103.83,20.72,8.0,-0.022,1.567,55.0,55.13,57.06,55.61,51.044,93.6,0.2586
51.91,FLT_003,103.92,20.76,8.0,-1.621,1.427,54.85,56.1,55.11,54.03,51.08,93.9,0.3302
52.01,FLT_003,103.88,20.8,8.0,0.047,1.352,55.06,55.57,55.55,54.82,51.134,94.2,0.3348
52.11,FLT_003,103.32,20.84,8.0,-1.13,1.439,53.72,55.01,54.29,56.28,51.243,93.3,0.2539
52.21,FLT_003,103.89,20.88,8.0,3.827,1.548,55.86,54.57,53.25,53.87,51.027,93.4,0.2867
52.31,FLT_003,104.9,20.92,8.0,1.932,1.635,55.52,53.45,54.22,56.34,51.189,93.6,0.2618
52.41,FLT_003,104.93,20.96,8.0,-0.398,1.63,55.88,54.0,55.81,55.13,50.951,93.8,0.2746
52.51,FLT_003,105.04,21.0,8.0,1.142,1.566,54.15,53.09,54.95,55.21,51.21,94.3,0.297
52.61,FLT_003,105.24,21.04,8.0,1.289,1.62,56.12,55.68,53.67,55.07,51.25,93.7,0.2945
52.71,FLT_003,105.48,21.08,8.0,1.248,1.547,58.28,52.69,54.58,55.51,51.103,93.8,0.3529
52.81,FLT_003,104.93,21.12,8.0,-1.261,1.468,55.1,55.02,55.72,54.84,51.081,93.9,0.3389
52.91,FLT_003,105.57,21.16,8.0,-0.832,1.607,55.56,54.91,54.2,55.04,51.097,93.5,0.273
53.01,FLT_003,106.23,21.2,8.0,0.837,1.51,54.92,53.04,54.89,56.33,51.19,93.9,0.2859
53.11,FLT_003,106.67,21.24,8.0,-1.992,1.628,54.18,55.23,53.87,54.99,50.958,93.8,0.3093
53.21,FLT_003,106.5,21.28,8.0,-3.147,1.542,56.75,56.5,54.82,56.65,51.235,93.9,0.3459
53.31,FLT_003,106.68,21.32,8.0,1.824,1.571,54.04,54.38,55.04,55.5,51.045,93.1,0.2507
53.41,FLT_003,107.75,21.36,8.0,-3.253,1.536,54.45,55.13,55.26,54.58,51.31,93.6,0.313
53.51,FLT_003,106.33,21.4,8.0,-1.26,1.507,54.0,56.46,55.84,54.6,51.072,93.8,0.2805
53.61,FLT_003,106.71,21.44,8.0,-0.876,1.432,55.06,55.09,53.76,54.31,51.018,93.5,0.3594
53.71,FLT_003,108.44,21.48,8.0,-0.812,1.499,54.24,57.05,56.85,56.14,51.121,93.9,0.2938
53.81,FLT_003,107.3,21.52,8.0,2.882,1.591,54.32,56.48,54.91,55.17,51.136,93.1,0.3258
53.91,FLT_003,107.32,21.56,8.0,-0.452,1.71,54.18,55.0,54.9,55.33,51.076,94.0,0.3401
54.01,FLT_003,107.6,21.6,8.0,0.073,1.624,53.14,54.36,53.75,55.45,50.929,93.3,0.2845
54.11,FLT_003,109.21,21.64,8.0,0.987,1.74,56.38,54.58,54.93,53.76,51.058,93.4,0.2836
54.21,FLT_003,108.43,21.68,8.0,-0.193,1.824,54.86,54.69,54.41,57.69,51.248,93.5,0.3441
54.31,FLT_003,108.66,21.72,8.0,1.852,1.62,54.23,54.47,54.2,54.56,51.324,93.6,0.2935
54.41,FLT_003,108.53,21.76,8.0,0.956,1.638,54.32,55.9,55.58,54.24,51.374,93.6,0.3249
54.51,FLT_003,109.02,21.8,8.0,2.54,1.734,53.6,55.97,53.38,55.55,51.091,93.9,0.2112
54.61,FLT_003,109.56,21.84,8.0,0.787,1.758,55.25,54.11,53.12,55.83,51.192,93.7,0.2585
54.71,FLT_003,110.32,21.88,8.0,0.345,1.695,55.1,53.2,53.99,54.41,51.078,93.4,0.2796
54.81,FLT_003,108.96,21.92,8.0,-4.016,1.535,57.48,57.71,54.72,53.95,51.107,93.5,0.349
54.91,FLT_003,110.61,21.96,8.0,-2.051,1.437,53.96,55.43,56.05,53.86,51.151,93.0,0.3798
55.01,FLT_003,110.42,22.0,8.0,1.854,1.483,55.52,55.71,55.88,54.86,51.146,93.6,0.2996
55.11,FLT_003,110.24,22.04,8.0,-1.335,1.349,53.6,54.47,55.27,55.07,51.112,93.8,0.293
55.21,FLT_003,110.09,22.08,8.0,-0.069,1.296,55.6,56.17,55.47,54.2,51.115,92.9,0.2837
55.31,FLT_003,110.3,22.12,8.0,0.268,1.328,55.92,54.78,54.73,54.16,51.108,93.8,0.3137
55.41,FLT_003,110.57,22.16,8.0,-0.578,1.262,54.06,55.43,56.04,54.75,51.189,93.5,0.3319
55.51,FLT_003,111.36,22.2,8.0,3.384,1.155,57.46,55.46,54.58,53.53,50.993,93.6,0.2813
55.61,FLT_003,111.33,22.24,8.0,-4.442,1.049,55.4,55.57,55.8,54.65,51.024,93.1,0.2637
55.71,FLT_003,112.01,22.28,8.0,2.232,1.143,53.75,54.25,54.81,54.61,51.025,93.6,0.3083
55.81,FLT_003,111.49,22.32,8.0,0.463,1.1,54.22,55.17,55.81,55.58,51.108,93.0,0.284
55.91,FLT_003,111.71,22.36,8.0,-1.102,1.025,55.01,54.67,54.42,55.23,51.145,93.6,0.2686
56.01,FLT_003,111.48,22.4,8.0,1.953,0.842,55.08,54.89,55.86,55.76,50.992,93.4,0.2959
56.11,FLT_003,112.58,22.44,8.0,-2.274,0.995,55.17,54.6,53.6,54.49,50.858,93.9,0.205
56.21,FLT_003,112.19,22.48,8.0,1.876,0.924,54.2,54.79,54.65,54.19,51.237,93.2,0.296
56.31,FLT_003,111.87,22.52,8.0,-1.679,0.973,55.5,53.2,54.8,54.29,51.07,93.2,0.3887
56.41,FLT_003,112.43,22.56,8.0,-0.986,1.075,56.37,54.94,54.64,54.61,51.146,92.5,0.3401
56.51,FLT_003,112.44,22.6,8.0,1.364,1.041,56.17,55.67,53.88,54.19,50.993,93.0,0.3069
56.61,FLT_003,113.57,22.64,8.0,-0.178,0.943,53.57,54.99,54.02,54.19,51.039,93.8,0.3316
56.71,FLT_003,113.3,22.68,8.0,1.518,0.81,55.92,54.19,54.25,56.14,51.085,94.0,0.2664
56.81,FLT_003,113.67,22.72,8.0,0.407,0.848,56.98,55.03,54.77,54.78,51.042,93.5,0.1683
56.91,FLT_003,114.33,22.76,8.0,-0.574,0.946,55.47,52.78,55.64,54.7,51.003,93.4,0.2857
57.01,FLT_003,113.48,22.8,8.0,0.313,0.916,54.75,55.02,53.93,56.48,51.041,92.7,0.2903
57.11,FLT_003,114.82,22.84,8.0,1.074,0.92,53.97,56.39,56.44,55.58,50.963,93.4,0.3211
57.21,FLT_003,113.77,22.88,8.0,-0.66,0.88,55.59,55.13,55.34,54.11,51.027,93.6,0.1674
57.31,FLT_003,113.28,22.92,8.0,1.094,0.833,54.47,54.38,55.2,53.64,50.917,92.9,0.3209
57.41,FLT_003,115.51,22.96,8.0,-0.337,0.97,55.24,55.68,55.67,54.34,51.006,93.7,0.4429
57.51,FLT_003,113.86,23.0,8.0,-0.227,1.003,54.09,55.77,54.23,54.76,51.023,93.0,0.3113
57.61,FLT_003,116.17,23.04,8.0,0.887,0.962,56.93,54.94,55.48,55.57,51.031,93.5,0.4005
57.71,FLT_003,115.52,23.08,8.0,-1.482,0.93,53.2,55.35,57.44,56.23,50.973,93.2,0.3151
57.81,FLT_003,116.09,23.12,8.0,-3.039,0.882,55.87,56.06,56.11,54.01,50.957,92.8,0.2707
57.91,FLT_003,115.09,23.16,8.0,0.724,0.808,55.81,55.1,53.56,54.64,51.016,93.1,0.288
58.01,FLT_003,116.05,23.2,8.0,-3.777,0.819,54.98,54.19,54.61,55.32,51.025,93.0,0.3323
58.11,FLT_003,116.47,23.24,8.0,1.294,0.66,55.35,55.5,55.4,54.06,51.038,93.1,0.3666
58.21,FLT_003,116.96,23.28,8.0,3.643,0.538,53.41,55.29,54.8,55.02,51.024,93.4,0.3531
58.31,FLT_003,116.85,23.32,8.0,1.314,0.466,55.08,54.51,55.33,53.52,50.99,93.1,0.2658
58.41,FLT_003,116.75,23.36,8.0,3.597,0.496,57.3,55.22,54.94,54.14,50.967,93.3,0.3533
58.51,FLT_003,116.94,23.4,8.0,-1.507,0.407,55.42,53.32,54.81,56.65,51.133,92.9,0.2508
58.61,FLT_003,117.12,23.44,8.0,-3.42,0.545,53.85,54.83,54.61,55.36,51.154,93.1,0.3462
58.71,FLT_003,117.36,23.48,8.0,0.321,0.48,55.33,54.54,54.32,54.91,51.028,93.4,0.334
58.81,FLT_003,117.31,23.52,8.0,2.177,0.458,55.07,55.22,55.03,56.24,51.051,93.0,0.3378
58.91,FLT_003,118.16,23.56,8.0,-0.35,0.528,54.77,56.87,57.25,54.34,51.137,93.3,0.284
59.01,FLT_003,117.57,23.6,8.0,3.066,0.466,55.64,55.36,55.58,55.29,50.944,93.1,0.2234
59.11,FLT_003,118.42,23.64,8.0,5.752,0.596,54.24,54.14,54.64,54.76,50.911,92.8,0.2573
59.21,FLT_003,118.29,23.68,8.0,-5.029,0.581,53.24,56.44,55.55,57.42,50.93,92.7,0.2548
59.31,FLT_003,117.43,23.72,8.0,1.32,0.612,53.14,55.98,55.62,53.99,51.24,92.9,0.1869
59.41,FLT_003,119.46,23.76,8.0,2.777,0.588,55.36,55.17,55.71,54.49,51.016,92.7,0.2736
59.51,FLT_003,118.26,23.8,8.0,3.396,0.588,53.98,55.47,55.58,54.62,50.981,93.4,0.3377
59.61,FLT_003,119.32,23.84,8.0,-2.225,0.528,56.04,55.41,56.67,54.66,51.146,92.6,0.2747
59.71,FLT_003,119.97,23.88,8.0,-2.116,0.483,54.16,54.51,53.64,55.35,51.201,93.1,0.2629
59.81,FLT_003,119.51,23.92,8.0,-1.513,0.447,55.56,53.91,56.2,55.67,50.929,92.7,0.3201
59.91,FLT_003,121.32,23.96,8.0,1.06,0.465,54.68,55.23,54.72,54.01,50.867,92.6,0.3021
60.01,FLT_003,124.45,25.17,-0.054,-0.266,0.34,54.54,55.33,55.19,55.55,50.982,92.9,0.2914
60.11,FLT_003,124.08,23.84,-1.467,2.928,0.381,55.41,55.08,55.51,56.94,50.927,92.6,0.2076
60.21,FLT_003,125.43,25.69,1.808,1.37,0.446,54.75,56.1,55.02,54.73,50.998,93.0,0.34
60.31,FLT_003,124.1,25.65,0.849,1.035,0.561,54.73,55.06,53.07,54.19,51.204,92.5,0.2878
60.41,FLT_003,124.74,24.34,0.35,0.094,0.54,56.49,54.18,56.17,55.44,51.006,93.1,0.2603
60.51,FLT_003,124.96,25.37,-0.923,1.011,0.555,54.29,54.6,53.05,57.8,50.906,92.8,0.3543
60.61,FLT_003,124.44,23.58,1.02,0.17,0.49,54.19,56.48,54.78,53.6,50.841,92.7,0.3685
60.71,FLT_003,124.59,24.13,0.78,-0.257,0.636,57.55,55.75,56.77,55.81,50.931,93.0,0.2713
60.81,FLT_003,124.4,22.99,0.424,-1.089,0.571,55.17,54.12,54.41,53.18,50.973,92.9,0.3413
60.91,FLT_003,125.99,24.5,-1.269,0.691,0.583,53.71,55.2,53.05,53.9,50.836,92.6,0.3364
61.01,FLT_003,125.31,23.75,1.499,2.687,0.765,54.23,54.81,55.25,54.67,50.88,93.0,0.3312
61.11,FLT_003,124.93,25.14,-1.138,-1.336,0.843,54.1,54.34,55.4,53.65,50.789,92.5,0.3624
61.21,FLT_003,124.69,24.51,0.127,-1.227,0.667,56.52,54.14,56.31,52.99,51.053,92.7,0.2342
61.31,FLT_003,124.15,23.67,-2.152,0.388,0.653,54.9,55.84,55.88,54.24,50.988,92.3,0.2145
61.41,FLT_003,123.86,23.53,1.864,2.426,0.675,55.2,55.57,54.26,54.27,51.081,92.8,0.2724
61.51,FLT_003,124.64,25.6,0.915,-3.44,0.563,54.28,54.56,56.9,55.13,50.795,92.6,0.1604
61.61,FLT_003,124.76,23.02,-2.719,1.56,0.786,55.41,52.94,55.16,54.38,50.995,92.9,0.3008
61.71,FLT_003,123.29,23.06,-2.195,-0.868,0.603,55.48,56.84,52.5,54.8,50.97,93.0,0.22
61.81,FLT_003,123.85,23.73,-0.388,2.893,0.695,55.28,53.7,55.3,54.34,50.69,92.6,0.2043
61.91,FLT_003,124.49,23.95,0.555,-2.577,0.691,53.9,55.71,54.01,54.55,50.924,92.4,0.2826
62.01,FLT_003,124.11,22.92,-1.749,2.434,0.609,55.94,57.05,54.31,55.54,50.972,92.7,0.3622
62.11,FLT_003,124.57,25.01,-0.048,2.033,0.677,56.13,54.26,53.61,55.1,50.867,92.6,0.2283
62.21,FLT_003,124.22,24.27,1.011,5.058,0.634,55.5,54.48,54.32,52.81,50.744,92.6,0.2972
62.31,FLT_003,124.63,26.39,2.054,-1.764,0.861,55.44,56.48,53.75,53.72,51.054,92.6,0.4069
62.41,FLT_003,125.14,25.26,1.47,1.091,0.912,53.7,54.36,55.52,54.6,50.835,92.8,0.3177
62.51,FLT_003,123.72,23.02,-0.591,0.167,0.963,55.48,53.49,53.92,54.21,51.154,92.8,0.2543
62.61,FLT_003,124.42,24.54,-0.565,-0.591,0.962,54.66,54.68,55.3,54.79,50.875,92.7,0.3439
62.71,FLT_003,125.44,23.6,-1.91,0.309,0.811,55.6,55.61,54.25,54.29,51.106,92.8,0.3289
62.81,FLT_003,124.13,23.38,0.805,4.491,0.605,54.39,56.01,55.06,54.85,50.972,92.6,0.2474
62.91,FLT_003,123.94,23.51,-0.669,-0.641,0.658,54.99,56.57,56.56,54.96,51.058,92.3,0.3059
63.01,FLT_003,124.75,23.52,-0.584,-3.511,0.75,56.98,55.53,54.93,55.48,51.152,92.7,0.2363
63.11,FLT_003,124.29,23.37,1.769,-0.404,0.649,54.89,54.01,55.61,55.89,50.895,92.3,0.3515
63.21,FLT_003,124.87,23.42,0.415,-1.3,0.617,54.02,54.47,54.26,56.06,51.058,92.4,0.3034
63.31,FLT_003,124.01,25.29,-0.819,-2.287,0.668,54.2,56.72,55.28,55.3,50.873,92.4,0.3427
63.41,FLT_003,124.58,24.47,-2.334,-3.392,0.536,55.2,54.33,54.1,53.83,51.069,92.3,0.2829
63.51,FLT_003,124.06,23.66,0.319,2.555,0.647,53.64,55.55,54.92,54.91,50.955,91.9,0.3227
63.61,FLT_003,124.34,24.06,-2.007,0.056,0.694,54.53,54.38,54.75,55.12,51.017,92.2,0.337
63.71,FLT_003,124.2,24.9,-1.852,-1.743,0.694,54.99,54.23,54.86,54.34,51.011,92.3,0.3186
63.81,FLT_003,124.9,24.06,-0.091,-1.48,0.882,56.83,55.93,56.51,54.39,50.966,92.6,0.2991
63.91,FLT_003,124.29,22.9,0.739,5.617,0.922,54.62,55.65,53.88,54.91,51.021,92.2,0.2495
64.01,FLT_003,123.56,24.69,-0.357,1.769,0.968,56.88,56.19,54.72,55.16,50.845,92.6,0.2338
64.11,FLT_003,123.68,24.01,0.259,-1.247,0.925,54.66,56.49,55.1,56.09,50.811,92.5,0.2566
64.21,FLT_003,124.36,23.73,2.041,-1.151,0.888,56.81,54.85,54.34,54.66,50.982,92.5,0.1965
64.31,FLT_003,123.77,23.25,-0.167,3.935,0.824,54.61,55.72,52.48,55.9,50.978,92.6,0.3771
64.41,FLT_003,124.41,26.5,-0.132,1.567,0.737,56.63,54.09,54.21,53.43,50.995,92.5,0.3094
64.51,FLT_003,123.69,23.17,0.546,-2.53,0.841,54.08,56.46,53.93,55.15,50.997,92.0,0.2505
64.61,FLT_003,124.05,23.69,2.597,-1.938,0.739,53.72,55.17,54.52,56.0,51.017,92.0,0.297
64.71,FLT_003,123.72,24.29,1.774,1.917,0.769,55.49,55.83,54.86,54.08,50.952,92.4,0.196
64.81,FLT_003,124.13,23.76,1.161,1.772,0.681,54.7,56.22,54.1,54.46,50.952,92.6,0.2524
64.91,FLT_003,123.58,24.87,-1.773,1.353,0.699,55.72,54.44,55.85,55.53,51.114,92.5,0.3271
65.01,FLT_003,124.05,24.03,1.502,0.259,0.704,55.16,56.06,55.77,53.9,50.953,92.0,0.378
65.11,FLT_003,124.36,24.48,-0.26,-1.435,0.617,55.02,55.92,53.88,56.04,50.824,92.0,0.2755
65.21,FLT_003,123.9,23.99,0.88,2.906,0.665,55.42,55.64,55.49,56.14,50.815,92.4,0.3689
65.31,FLT_003,124.26,25.59,2.486,0.145,0.574,53.49,55.2,54.88,53.78,50.963,92.1,0.3123
65.41,FLT_003,123.46,23.48,0.376,2.586,0.58,56.53,54.42,55.49,53.94,50.92,92.0,0.3178
65.51,FLT_003,123.61,23.14,-0.411,2.26,0.343,54.18,54.43,56.31,54.77,50.894,92.2,0.2298
65.61,FLT_003,123.78,24.03,-0.223,1.417,0.411,54.03,54.84,54.65,55.41,50.881,92.8,0.3021
65.71,FLT_003,123.64,24.48,0.738,-0.086,0.477,55.86,53.55,54.45,54.57,50.893,92.1,0.3618
65.81,FLT_003,124.2,23.89,-1.558,-0.471,0.635,53.85,54.14,55.74,55.4,50.853,92.2,0.2824
65.91,FLT_003,124.77,24.33,0.409,-0.147,0.701,54.33,54.43,56.19,55.92,50.808,92.2,0.3247
66.01,FLT_003,123.88,23.88,1.461,2.836,0.561,55.04,54.43,56.1,54.76,50.869,92.6,0.293
66.11,FLT_003,124.83,24.09,-3.541,-0.822,0.415,54.33,54.02,53.79,53.96,50.782,92.3,0.2623
66.21,FLT_003,124.56,23.85,-0.585,-0.206,0.513,55.32,55.32,56.87,56.17,50.815,92.2,0.3354
66.31,FLT_003,123.73,23.55,0.586,1.126,0.673,54.72,54.39,56.27,55.5,50.881,92.2,0.1996
66.41,FLT_003,123.95,23.27,0.194,3.763,0.478,55.97,54.57,53.81,54.58,50.877,92.7,0.3331
66.51,FLT_003,124.97,23.54,-0.872,1.046,0.452,56.15,56.45,55.44,55.47,50.911,91.9,0.3293
66.61,FLT_003,124.23,23.65,-0.219,0.327,0.454,53.43,55.25,54.56,54.43,51.008,92.1,0.3093
66.71,FLT_003,123.57,25.12,0.552,-0.706,0.409,55.14,55.16,54.64,54.74,50.829,92.2,0.2352
66.81,FLT_003,124.4,23.16,-0.652,5.116,0.419,54.65,55.14,56.35,56.39,50.933,92.3,0.3006
66.91,FLT_003,123.91,23.58,1.241,-0.303,0.488,53.7,53.77,54.74,54.2,51.068,92.2,0.2949
67.01,FLT_003,124.05,24.25,0.756,-1.849,0.679,54.93,54.53,55.42,55.23,50.691,91.5,0.3423
67.11,FLT_003,124.61,24.67,2.153,1.971,0.734,53.72,54.77,54.48,54.15,50.849,92.0,0.2527
67.21,FLT_003,124.1,24.46,-0.279,0.973,0.708,55.44,55.15,54.51,55.39,50.952,92.3,0.1932
67.31,FLT_003,123.97,23.06,0.308,-1.437,0.735,55.43,54.24,57.68,55.73,50.944,92.2,0.3469
67.41,FLT_003,123.83,24.81,1.345,0.327,0.622,54.41,55.59,54.04,54.67,50.752,92.0,0.3099
67.51,FLT_003,124.17,24.55,0.065,1.317,0.616,55.27,55.38,55.76,52.06,50.888,91.7,0.2737
67.61,FLT_003,123.26,23.37,-0.227,1.618,0.643,53.92,55.85,54.79,55.77,51.04,92.2,0.3151
67.71,FLT_003,123.41,23.56,1.146,-0.381,0.618,55.11,54.9,54.41,54.3,50.952,91.7,0.3374
67.81,FLT_003,124.41,23.76,2.723,1.193,0.51,56.02,55.45,54.96,54.65,50.912,92.0,0.3073
67.91,FLT_003,125.25,24.2,1.83,3.48,0.471,54.85,53.88,54.11,55.92,50.948,92.0,0.2278
68.01,FLT_003,124.06,25.44,2.657,0.707,0.431,54.29,54.86,55.36,55.46,50.866,92.2,0.2475
68.11,FLT_003,124.57,25.31,1.018,1.74,0.336,53.62,54.23,55.22,56.08,50.939,92.3,0.3587
68.21,FLT_003,123.52,25.31,0.032,-0.41,0.206,54.13,56.78,54.4,54.44,50.75,92.0,0.2968
68.31,FLT_003,124.01,23.97,-0.511,-0.703,0.079,54.38,54.22,54.78,55.44,50.905,92.2,0.3318
68.41,FLT_003,122.52,24.29,2.488,-0.586,0.142,56.53,55.84,54.94,54.91,50.924,91.8,0.2697
68.51,FLT_003,123.74,24.07,1.05,-2.058,0.065,56.08,53.36,54.37,53.18,50.846,92.3,0.241
68.61,FLT_003,124.22,23.87,-1.694,-2.988,359.985,54.79,54.6,54.46,55.36,50.791,91.8,0.2947
68.71,FLT_003,123.42,23.44,0.695,1.633,0.146,54.18,54.38,55.54,54.07,50.851,91.3,0.2911
68.81,FLT_003,123.61,25.53,-1.727,1.281,0.071,54.47,54.9,55.48,55.82,50.855,92.2,0.4023
68.91,FLT_003,124.27,23.93,-2.77,0.641,0.207,54.86,56.47,54.51,55.13,50.869,92.5,0.2462
69.01,FLT_003,123.22,22.84,1.789,-2.371,0.346,55.77,53.89,56.42,54.34,50.827,91.5,0.273
69.11,FLT_003,123.99,23.85,1.87,4.497,0.32,55.47,53.96,53.86,54.85,51.025,92.2,0.1985
69.21,FLT_003,122.71,24.1,1.157,-2.44,0.363,56.18,55.86,55.46,57.08,50.734,91.6,0.3258
69.31,FLT_003,124.28,24.25,2.234,-1.231,0.244,54.4,56.98,54.17,54.8,50.815,91.5,0.3572
69.41,FLT_003,123.55,24.14,-2.206,-0.987,0.135,55.19,55.24,55.66,53.63,50.915,91.1,0.4013
69.51,FLT_003,123.7,23.35,-0.958,-0.867,0.208,55.7,52.98,54.62,53.98,50.754,92.2,0.3308
69.61,FLT_003,123.93,25.52,-0.726,1.861,0.352,54.81,54.36,54.78,55.99,50.826,91.6,0.3137
69.71,FLT_003,122.44,23.86,-1.591,-0.187,0.41,53.61,55.39,56.4,57.77,50.819,92.8,0.2981
69.81,FLT_003,122.97,24.6,2.082,-2.047,0.372,54.52,54.42,53.75,53.34,50.956,92.1,0.362
69.91,FLT_003,123.64,24.29,-1.814,1.29,0.333,55.46,56.36,55.94,54.11,50.93,92.0,0.3742
70.01,FLT_003,123.11,23.16,-1.145,-1.354,0.331,56.07,56.46,54.47,56.8,50.829,91.4,0.2541
70.11,FLT_003,122.92,23.85,-0.735,-1.041,0.432,55.13,55.26,54.67,53.09,50.771,91.6,0.2797
70.21,FLT_003,123.96,24.7,-0.177,-2.719,0.379,54.8,54.91,54.72,53.86,50.799,91.4,0.2761
70.31,FLT_003,123.17,23.69,0.997,1.462,0.351,55.68,54.41,53.59,54.47,50.895,91.9,0.3549
70.41,FLT_003,123.53,24.0,2.081,-2.135,0.413,54.79,56.42,53.99,53.72,50.721,91.6,0.3204
70.51,FLT_003,123.22,24.15,0.415,-2.66,0.519,53.38,53.22,56.14,57.63,50.888,91.1,0.2636
70.61,FLT_003,123.33,23.72,2.03,2.989,0.496,56.46,54.61,55.66,55.87,50.777,91.7,0.2962
70.71,FLT_003,123.69,24.41,2.099,2.628,0.45,54.98,56.17,53.82,56.72,50.833,91.5,0.2265
70.81,FLT_003,123.04,23.83,0.013,0.668,0.398,54.65,55.71,54.47,54.62,50.85,91.9,0.3308
70.91,FLT_003,123.66,23.74,-1.97,-2.294,0.482,53.93,55.41,54.87,55.3,50.904,91.5,0.2541
