timestamp_s,flight_id,altitude_m,airspeed_ms,pitch_deg,roll_deg,yaw_deg,motor1_temp_c,motor2_temp_c,motor3_temp_c,motor4_temp_c,battery_v,battery_pct,vibration_g,altitude_ms_rate,airspeed_ms_rate,motor_max_temp,motor_temp_spread,motor_temp_zscore,vibration_zscore,phase,fault_flag,fault_reason
0.0,FLT_001,0.25,0.0,8.0,0.644,359.933,53.02,53.95,54.41,55.15,52.069,100.0,0.2515,,,55.15,2.1299999999999955,,,landing,False,
0.1,FLT_001,0.13,0.04,8.0,-1.563,359.861,56.02,55.69,53.82,54.63,51.966,100.0,0.415,-1.2,0.4,56.02,2.200000000000003,,,landing,False,
0.2,FLT_001,0.72,0.08,8.0,1.383,0.004,55.08,54.74,54.73,53.28,52.017,100.0,0.3523,5.8999999999999995,0.4,55.08,1.7999999999999972,,,landing,False,
0.3,FLT_001,1.36,0.12,8.0,-1.181,0.19,53.85,54.6,51.91,55.64,51.942,99.6,0.3275,6.400000000000001,0.3999999999999999,55.64,3.730000000000004,,,landing,False,
0.4,FLT_001,0.68,0.16,8.0,1.499,0.098,53.63,55.69,55.6,54.46,51.907,99.9,0.2721,-6.800000000000001,0.4000000000000001,55.69,2.059999999999995,0.4406393815416856,-0.7901789219189124,landing,False,
0.5,FLT_001,0.88,0.2,8.0,-0.548,0.031,56.0,55.74,54.69,54.58,51.926,100.0,0.3619,1.9999999999999996,0.4000000000000001,56.0,1.4200000000000017,0.9966066260423698,0.5270203826956644,landing,False,
0.6,FLT_001,1.99,0.24,8.0,-3.442,0.145,56.1,55.23,56.04,52.61,52.223,100.0,0.3441,11.099999999999998,0.3999999999999998,56.1,3.490000000000002,1.0382110340235557,0.21728747333208573,landing,False,
0.7,FLT_001,1.78,0.28,8.0,-1.965,0.198,55.1,53.42,54.97,55.71,51.948,99.7,0.2947,-2.0999999999999996,0.40000000000000036,55.71,2.289999999999999,0.09415503244104137,-0.6169202132719411,landing,False,
0.8,FLT_001,1.37,0.32,8.0,-0.861,0.266,56.74,54.06,54.47,54.9,52.084,100.0,0.3544,-4.1,0.3999999999999998,56.74,2.6799999999999997,1.873135470788632,0.4766545297256147,landing,False,
0.9,FLT_001,2.07,0.36,8.0,2.736,0.356,54.03,55.98,54.93,55.12,52.19,100.0,0.3523,6.999999999999997,0.3999999999999998,55.98,1.9499999999999957,0.35154981400117086,0.4108664250920058,landing,False,
1.0,FLT_001,1.77,0.4,8.0,1.802,0.332,55.62,54.93,54.18,54.94,52.058,99.6,0.3137,-2.9999999999999982,0.40000000000000036,55.62,1.4399999999999977,-0.3777325264065075,-0.37403608122191623,landing,False,
1.1,FLT_001,1.97,0.44,8.0,3.248,0.365,54.14,55.11,56.0,53.83,51.899,99.3,0.2427,1.9999999999999996,0.3999999999999998,56.0,2.1700000000000017,0.4276707900810127,-1.5966546278912803,landing,False,
1.2,FLT_001,2.52,0.48,8.0,3.307,0.39,53.47,55.05,54.23,55.03,51.902,100.0,0.2489,5.5,0.3999999999999998,55.05,1.5799999999999983,-1.484326030991819,-1.3070784292919864,landing,False,
1.3,FLT_001,1.64,0.52,8.0,-1.07,0.304,55.32,52.86,55.69,53.83,51.986,99.9,0.2208,-8.8,0.40000000000000036,55.69,2.8299999999999983,-0.12718874488081844,-1.5832477469282165,landing,False,
1.4,FLT_001,1.94,0.56,8.0,-0.377,0.335,54.98,54.34,54.45,56.69,52.198,99.7,0.3662,3.0000000000000004,0.40000000000000036,56.69,2.3499999999999943,1.7540352696316737,0.9120682750082383,landing,False,
1.5,FLT_001,2.72,0.6,8.0,-0.823,0.459,55.32,55.9,55.15,55.62,52.112,99.6,0.227,7.8000000000000025,0.39999999999999925,55.9,0.75,0.17273881465654586,-1.3925498318612006,landing,False,
1.6,FLT_001,2.69,0.64,8.0,-1.343,0.426,55.42,55.25,56.11,55.16,52.022,99.8,0.3017,-0.3000000000000025,0.40000000000000036,56.11,0.9500000000000028,0.5822689214422274,-0.12147838997720546,landing,False,
1.7,FLT_001,3.56,0.68,8.0,-3.683,0.441,57.29,55.96,53.86,54.82,51.946,100.0,0.2205,8.700000000000001,0.40000000000000036,57.29,3.4299999999999997,2.3943931762860737,-1.4071577586091801,landing,False,
1.8,FLT_001,3.15,0.72,8.0,-0.029,0.462,55.4,55.04,55.69,55.8,52.002,99.3,0.3842,-4.100000000000001,0.39999999999999925,55.8,0.759999999999998,-0.19398270929445763,1.2624799532454047,landing,False,
1.9,FLT_001,3.09,0.76,8.0,-2.571,0.433,53.64,56.28,54.5,54.4,51.981,99.6,0.2419,-0.6000000000000005,0.40000000000000036,56.28,2.6400000000000006,0.6414421367486088,-1.0358657043483872,landing,False,
2.0,FLT_001,4.73,0.8,8.0,-0.068,0.501,54.4,55.81,54.73,54.34,51.978,100.0,0.3161,16.400000000000006,0.40000000000000036,55.81,1.4699999999999989,-0.2075038189407982,0.18414475090166177,landing,False,
2.1,FLT_001,4.09,0.84,8.0,4.232,0.433,54.58,53.21,54.16,53.76,51.87,99.9,0.2216,-6.400000000000006,0.39999999999999925,54.58,1.3699999999999974,-2.1447674834123274,-1.321814694230205,landing,False,
2.2,FLT_001,4.43,0.88,8.0,-1.019,0.566,54.73,55.66,55.55,56.26,51.867,99.9,0.3435,3.3999999999999986,0.40000000000000036,56.26,1.5300000000000011,0.6486246283106211,0.6749607162318537,landing,False,
2.3,FLT_001,3.89,0.92,8.0,0.39,0.629,56.03,54.47,55.02,54.97,51.987,99.8,0.3542,-5.399999999999996,0.40000000000000036,56.03,1.5600000000000023,0.25270377256857224,0.8241645301493224,landing,False,
2.4,FLT_001,4.53,0.96,8.0,1.813,0.535,52.85,53.78,54.83,54.83,51.836,99.8,0.3009,6.400000000000001,0.39999999999999925,54.83,1.9799999999999969,-1.678274045542571,-0.07391666613129191,landing,False,
2.5,FLT_001,5.06,1.0,8.0,0.561,0.705,55.51,55.46,53.23,55.52,51.887,99.5,0.2967,5.299999999999994,0.40000000000000036,55.52,2.2900000000000063,-0.5210777846406167,-0.14352834648655913,landing,False,
2.6,FLT_001,4.63,1.04,8.0,0.585,0.722,55.18,55.62,56.07,54.86,51.951,99.5,0.3405,-4.299999999999997,0.40000000000000036,56.07,1.2100000000000009,0.39604838665042097,0.6108714306066138,landing,False,
2.7,FLT_001,5.59,1.08,8.0,-0.725,0.649,56.25,54.11,54.05,55.43,51.979,99.9,0.2695,9.6,0.40000000000000036,56.25,2.200000000000003,0.6855321310609853,-0.6365937297659752,landing,False,
2.8,FLT_001,5.3,1.12,8.0,-0.464,0.76,54.63,55.26,56.99,55.39,52.056,99.4,0.3544,-2.9000000000000004,0.40000000000000036,56.99,2.3599999999999994,1.8102868998401491,0.8642483423245964,landing,False,
2.9,FLT_001,5.66,1.16,8.0,-1.92,0.809,55.21,54.13,53.3,54.93,51.817,99.7,0.3148,3.600000000000003,0.39999999999999813,55.21,1.9100000000000037,-1.0838223015104376,0.14610401305955487,landing,False,
3.0,FLT_001,5.7,1.2,8.0,1.692,0.632,56.07,54.68,55.4,56.43,51.815,99.6,0.2213,0.40000000000000036,0.40000000000000036,56.43,1.75,0.8936035710032414,-1.488017678702096,landing,False,
3.1,FLT_001,7.13,1.24,8.0,-3.483,0.58,56.4,55.43,55.17,53.48,52.069,100.0,0.3923,14.299999999999997,0.40000000000000036,56.4,2.9200000000000017,0.8219006572238489,1.5014107616775907,landing,False,
3.2,FLT_001,6.39,1.28,8.0,1.942,0.607,54.37,54.72,54.15,55.25,52.104,99.5,0.3092,-7.400000000000002,0.40000000000000036,55.25,1.1000000000000014,-1.0477072970999017,0.040679330577825606,landing,False,
3.3,FLT_001,6.07,1.32,8.0,-2.807,0.392,56.91,56.52,55.24,55.78,51.83,99.9,0.2831,-3.199999999999994,0.40000000000000036,56.91,1.6699999999999946,1.6029630546848384,-0.41798710458345584,landing,False,
3.4,FLT_001,7.21,1.36,8.0,1.925,0.4,54.27,56.46,53.44,55.91,51.847,99.7,0.3083,11.399999999999997,0.40000000000000036,56.46,3.020000000000003,0.8566988667134198,0.03706710861558845,landing,False,
3.5,FLT_001,6.39,1.4,8.0,-0.708,0.416,55.5,54.24,54.79,53.87,51.985,99.5,0.2641,-8.200000000000003,0.39999999999999813,55.5,1.6300000000000026,-0.6801208073184298,-0.7570341406372406,landing,False,
3.6,FLT_001,7.31,1.44,8.0,-2.464,0.297,53.91,53.41,55.77,56.21,51.933,99.1,0.2924,9.2,0.40000000000000036,56.21,2.8000000000000043,0.467961471686594,-0.23132248236811045,landing,False,
3.7,FLT_001,6.42,1.48,8.0,1.159,0.325,52.84,56.84,54.99,55.29,51.932,99.5,0.3395,-8.899999999999997,0.40000000000000036,56.84,4.0,1.4419664268035042,0.6378213097298971,landing,False,
3.8,FLT_001,6.94,1.52,8.0,1.858,0.325,53.53,56.32,55.2,56.14,51.846,99.7,0.3344,5.200000000000005,0.40000000000000036,56.32,2.789999999999999,0.5894000433074749,0.532783614963841,landing,False,
3.9,FLT_001,7.9,1.56,8.0,-0.876,0.206,56.22,56.33,54.35,54.79,51.994,99.1,0.331,9.6,0.40000000000000036,56.33,1.9799999999999969,0.5955177806041289,0.4610231849829629,landing,False,
4.0,FLT_001,8.37,1.6,8.0,1.441,0.298,54.39,55.9,55.33,56.07,51.896,99.7,0.2699,4.699999999999989,0.40000000000000036,56.07,1.6799999999999997,0.16514843952462793,-0.7011332818929328,landing,False,
4.1,FLT_001,8.29,1.64,8.0,-4.57,0.382,56.11,53.27,56.35,55.95,51.891,99.8,0.257,-0.8000000000000007,0.39999999999999813,56.35,3.0799999999999983,0.6217111817931588,-0.9295100888089796,landing,False,
4.2,FLT_001,8.34,1.68,8.0,-2.641,0.353,54.63,55.35,54.88,55.62,51.803,99.4,0.3194,0.5000000000000071,0.40000000000000036,55.62,0.9899999999999949,-0.595412964322337,0.27653833427515334,landing,False,
4.3,FLT_001,8.45,1.72,8.0,2.585,0.333,54.63,55.48,55.07,54.57,51.993,99.7,0.3385,1.0999999999999943,0.40000000000000036,55.48,0.9099999999999966,-0.816625957136327,0.6404786179126714,landing,False,
4.4,FLT_001,8.06,1.76,8.0,-0.447,0.406,55.19,57.71,54.31,54.75,51.876,99.4,0.2634,-3.899999999999988,0.40000000000000036,57.71,3.3999999999999986,2.683754329626591,-0.8257803590156617,landing,False,
4.5,FLT_001,8.64,1.8,8.0,-3.724,0.386,54.33,54.44,55.82,55.72,51.905,99.5,0.2886,5.800000000000001,0.40000000000000036,55.82,1.490000000000002,-0.2780937093965271,-0.32284705737852487,landing,False,
4.6,FLT_001,8.97,1.84,8.0,-1.398,0.193,54.99,56.03,55.79,54.84,52.027,99.8,0.3196,3.3000000000000007,0.40000000000000036,56.03,1.1899999999999977,0.054216715196503486,0.2938843638068383,landing,False,
4.7,FLT_001,9.93,1.88,8.0,-1.847,0.241,53.47,55.83,55.17,55.02,51.801,98.9,0.2952,9.59999999999999,0.39999999999999813,55.83,2.3599999999999994,-0.2633820479020656,-0.1970091054167125,landing,False,
4.8,FLT_001,9.77,1.92,8.0,-0.332,0.16,54.53,55.74,55.35,54.76,51.895,99.1,0.3579,-1.6000000000000014,0.40000000000000036,55.74,1.2100000000000009,-0.4042562552514884,1.0592931175330564,landing,False,
4.9,FLT_001,8.92,1.96,8.0,-0.742,0.121,53.77,56.07,55.6,55.26,51.746,99.7,0.2346,-8.499999999999996,0.40000000000000036,56.07,2.299999999999997,0.13329088372572184,-1.409615551443599,landing,False,
5.0,FLT_001,10.16,2.0,8.0,0.358,0.267,52.34,54.96,54.76,54.38,51.848,99.7,0.2274,12.400000000000002,0.40000000000000036,54.96,2.6199999999999974,-1.675141288073095,-1.5254338646292245,landing,False,
5.1,FLT_001,10.01,2.04,8.0,-0.139,0.253,55.75,55.71,55.44,56.04,52.027,98.9,0.3548,-1.5000000000000036,0.40000000000000036,56.04,0.6000000000000014,0.08853936699657854,1.078492477269649,landing,False,
5.2,FLT_001,10.06,2.08,8.0,2.719,0.253,53.98,54.55,55.07,54.38,51.742,99.7,0.3309,0.5000000000000071,0.40000000000000036,55.07,1.0900000000000034,-1.494953280362094,0.5958749798669964,landing,False,
5.3,FLT_001,10.91,2.12,8.0,0.849,0.304,55.73,54.48,56.3,54.07,51.918,98.5,0.3045,8.499999999999996,0.40000000000000036,56.3,2.229999999999997,0.492179229719869,0.05382938243609051,landing,False,
5.4,FLT_001,11.32,2.16,8.0,0.915,0.355,57.13,57.03,54.91,56.15,52.052,99.4,0.2833,4.100000000000001,0.40000000000000036,57.13,2.220000000000006,1.7477901331102197,-0.39622181652919697,landing,False,
5.5,FLT_001,11.47,2.2,8.0,2.33,0.263,54.6,56.01,54.82,53.71,51.945,99.3,0.3235,1.5000000000000036,0.40000000000000036,56.01,2.299999999999997,-0.028221178022477787,0.47136394919839547,landing,False,
5.6,FLT_001,10.78,2.24,8.0,-0.778,0.257,51.47,54.73,55.28,56.33,51.83,99.0,0.3094,-6.900000000000013,0.40000000000000036,56.33,4.859999999999999,0.47080672454627426,0.18714152168396117,landing,False,
5.7,FLT_001,11.25,2.28,8.0,-2.524,0.261,55.04,56.0,54.55,54.66,51.775,99.0,0.315,4.700000000000006,0.3999999999999959,56.0,1.4500000000000028,-0.060594897150816944,0.29856431593133603,landing,False,
5.8,FLT_001,11.77,2.32,8.0,2.414,0.288,56.05,52.54,55.01,54.6,51.691,99.0,0.2966,5.199999999999996,0.40000000000000036,56.05,3.509999999999998,0.041141741608462214,-0.07282405832597168,landing,False,
5.9,FLT_001,12.29,2.36,8.0,0.272,0.317,56.36,54.47,55.52,55.92,52.038,99.1,0.3268,5.199999999999996,0.40000000000000036,56.36,1.8900000000000006,0.5256377588801339,0.6019150970116312,landing,False,
6.0,FLT_001,11.76,2.4,8.0,0.279,0.576,53.51,54.86,54.57,55.95,51.838,99.7,0.3459,-5.299999999999994,0.40000000000000036,55.95,2.440000000000005,-0.14260500077236765,0.9983639339932299,landing,False,
6.1,FLT_001,12.11,2.44,8.0,-1.267,0.458,55.68,54.77,53.95,56.04,51.698,99.4,0.3452,3.4999999999999964,0.40000000000000036,56.04,2.0899999999999963,0.0009657611588569584,0.9451851550504587,landing,False,
6.2,FLT_001,11.85,2.48,8.0,-1.234,0.556,54.93,53.38,53.47,55.44,51.774,99.6,0.3229,-2.599999999999998,0.40000000000000036,55.44,2.059999999999995,-0.9938475463773044,0.4286724747660799,landing,False,
6.3,FLT_001,12.0,2.52,8.0,1.693,0.674,53.72,56.86,54.06,55.0,51.766,99.0,0.2998,1.5000000000000036,0.40000000000000036,56.86,3.1400000000000006,1.2745682796208109,-0.12416037693708988,landing,False,
6.4,FLT_001,13.21,2.56,8.0,1.969,0.724,55.16,54.27,52.76,55.19,51.822,99.2,0.3222,12.100000000000009,0.40000000000000036,55.19,2.4299999999999997,-1.3608846989372716,0.4202833256623523,landing,False,
6.5,FLT_001,13.68,2.6,8.0,1.568,0.659,54.25,55.12,54.88,55.26,52.109,98.8,0.3598,4.699999999999989,0.40000000000000036,55.26,1.009999999999998,-1.2101726338240877,1.2644721205941127,landing,False,
6.6,FLT_001,13.17,2.64,8.0,1.586,0.825,56.56,54.45,54.53,53.33,51.96,99.0,0.2923,-5.099999999999998,0.40000000000000036,56.56,3.230000000000004,0.8190081662030538,-0.3460648033894092,landing,False,
6.7,FLT_001,13.9,2.68,8.0,1.138,0.606,54.8,55.41,54.52,55.42,51.914,98.9,0.2864,7.300000000000004,0.40000000000000036,55.42,0.8999999999999986,-0.936983198606611,-0.5415782698114786,landing,False,
6.8,FLT_001,13.78,2.72,8.0,0.263,0.537,54.82,53.7,55.31,54.79,51.984,99.2,0.3247,-1.20000000000001,0.40000000000000036,55.31,1.6099999999999994,-1.0866044247730382,0.46094712086191675,landing,False,
6.9,FLT_001,13.48,2.76,8.0,-0.351,0.655,55.12,54.43,54.34,55.16,52.045,98.8,0.3369,-2.9999999999999893,0.3999999999999959,55.16,0.8199999999999932,-1.2715658473296378,0.7458588304435595,landing,False,
7.0,FLT_001,14.18,2.8,8.0,2.421,0.618,54.77,56.72,55.8,55.55,51.913,98.8,0.295,6.999999999999993,0.40000000000000036,56.72,1.9499999999999957,1.1421048275281087,-0.3549216385998402,landing,False,
7.1,FLT_001,14.97,2.84,8.0,-0.747,0.777,54.82,52.97,54.19,54.35,52.002,99.1,0.3225,7.900000000000009,0.40000000000000036,54.82,1.8500000000000014,-1.8477351830650854,0.339827207078768,landing,False,
7.2,FLT_001,14.38,2.88,8.0,0.74,0.626,54.73,54.97,55.66,55.27,51.792,99.0,0.258,-5.899999999999999,0.40000000000000036,55.66,0.9299999999999997,-0.5020641219193572,-1.4066970472467666,landing,False,
7.3,FLT_001,15.38,2.92,8.0,-1.608,0.515,56.16,54.69,55.26,55.34,51.768,98.8,0.2995,10.0,0.40000000000000036,56.16,1.4699999999999989,0.28253090560305216,-0.22837486188227912,landing,False,
7.4,FLT_001,13.49,2.96,8.0,-1.319,0.462,55.25,56.28,55.8,53.68,51.749,98.7,0.3776,-18.900000000000006,0.40000000000000036,56.28,2.6000000000000014,0.440509460419736,1.86115113597067,landing,False,
7.5,FLT_001,15.41,3.0,8.0,-0.472,0.503,54.89,54.99,57.15,54.67,51.879,98.7,0.3304,19.2,0.40000000000000036,57.15,2.479999999999997,1.7583450768445863,0.5586823659947882,landing,False,
7.6,FLT_001,15.25,3.04,8.0,-1.608,0.481,54.02,55.44,55.5,54.93,51.585,99.2,0.2676,-1.6000000000000014,0.40000000000000036,55.5,1.4799999999999969,-0.8368245013496691,-1.0992362562620388,landing,False,
7.7,FLT_001,15.25,3.08,8.0,1.596,0.432,54.78,55.95,54.15,54.66,51.978,99.0,0.2743,0.0,0.40000000000000036,55.95,1.8000000000000043,-0.11832516540377074,-0.9234809953649472,landing,False,
7.8,FLT_001,15.65,3.12,8.0,-2.696,0.574,54.48,56.09,55.29,53.94,51.795,98.7,0.2378,4.0000000000000036,0.40000000000000036,56.09,2.1500000000000057,0.13420085981105795,-1.812731331128331,landing,False,
7.9,FLT_001,14.81,3.16,8.0,0.198,0.726,54.04,56.87,56.08,55.84,51.925,98.7,0.3812,-8.399999999999999,0.40000000000000036,56.87,2.8299999999999983,1.3397406835541281,1.884667984151127,landing,False,
8.0,FLT_001,15.89,3.2,8.0,0.265,0.684,55.01,56.51,53.9,55.75,51.701,98.5,0.2503,10.8,0.40000000000000036,56.51,2.6099999999999994,0.754548649340128,-1.5175103029657377,landing,False,
8.1,FLT_001,16.38,3.24,8.0,-3.622,0.513,54.56,54.75,55.73,54.86,51.949,98.7,0.1735,4.899999999999984,0.40000000000000036,55.73,1.1699999999999946,-0.4814113226217136,-3.202496732131616,landing,False,
8.2,FLT_001,17.14,3.28,8.0,-0.882,0.297,54.57,54.5,53.01,55.76,51.974,98.9,0.2297,7.600000000000016,0.3999999999999959,55.76,2.75,-0.45604446072666394,-1.724724771595155,landing,False,
8.3,FLT_001,16.34,3.32,8.0,0.511,0.321,53.99,56.86,54.71,56.31,51.844,98.6,0.3027,-8.000000000000007,0.40000000000000036,56.86,2.8699999999999974,1.3493268177508346,0.006115528595448231,landing,False,
8.4,FLT_001,16.4,3.36,8.0,0.857,0.387,53.19,55.73,55.99,56.3,51.885,99.5,0.2641,0.5999999999999872,0.40000000000000036,56.3,3.1099999999999994,0.4370985058393213,-0.8876820203958542,landing,False,
8.5,FLT_001,16.75,3.4,8.0,-0.409,0.393,53.47,54.3,55.58,55.15,51.727,99.0,0.3065,3.500000000000014,0.40000000000000036,55.58,2.1099999999999994,-0.7520888356830685,0.09776309718204634,landing,False,
8.6,FLT_001,17.66,3.44,8.0,1.354,0.386,55.29,54.64,56.55,57.61,51.833,98.8,0.3171,9.100000000000001,0.40000000000000036,57.61,2.969999999999999,2.3947950632608275,0.33900403164366333,landing,False,
8.7,FLT_001,17.57,3.48,8.0,-0.219,0.306,55.1,55.45,55.06,56.28,51.923,98.8,0.2688,-0.8999999999999986,0.40000000000000036,56.28,1.2199999999999989,0.3568820645437344,-0.7817458633351708,landing,False,
8.8,FLT_001,17.34,3.52,8.0,0.027,0.371,55.83,53.93,54.39,53.99,51.794,98.3,0.254,-2.3000000000000043,0.40000000000000036,55.83,1.8999999999999986,-0.3348008770294597,-1.090621055198499,landing,False,
8.9,FLT_001,18.06,3.56,8.0,0.503,0.539,57.69,55.64,54.4,54.32,51.975,98.4,0.3455,7.199999999999989,0.40000000000000036,57.69,3.3699999999999974,2.3943292520299835,1.070724673086963,landing,False,
9.0,FLT_001,18.05,3.6,8.0,1.854,0.317,55.81,55.9,55.8,54.57,51.642,99.1,0.3149,-0.0999999999999801,0.40000000000000036,55.9,1.3299999999999983,-0.2464017570852415,0.3280584617261191,landing,False,
9.1,FLT_001,18.69,3.64,8.0,-1.351,0.31,55.31,55.11,54.06,54.07,51.785,99.2,0.1662,6.400000000000006,0.40000000000000036,55.31,1.25,-1.0760158108397084,-2.899714750650632,landing,False,
9.2,FLT_001,18.05,3.68,8.0,-0.974,0.213,55.41,55.2,55.55,55.79,51.624,98.0,0.2231,-6.400000000000006,0.40000000000000036,55.79,0.5899999999999963,-0.38020452391214976,-1.578339928524686,landing,False,
9.3,FLT_001,18.44,3.72,8.0,-1.338,0.064,56.5,54.22,55.63,55.75,51.846,98.8,0.2104,3.9000000000000057,0.40000000000000036,56.5,2.280000000000001,0.6325191495849118,-1.749795151303234,landing,False,
9.4,FLT_001,18.61,3.76,8.0,-0.664,359.951,54.69,55.12,54.71,57.11,51.791,99.1,0.292,1.6999999999999815,0.3999999999999959,57.11,2.4200000000000017,1.6053016346728588,-0.06953548854366784,landing,False,
9.5,FLT_001,18.27,3.8,8.0,2.852,359.988,55.1,55.45,54.74,54.52,51.792,98.6,0.3101,-3.3999999999999986,0.40000000000000036,55.45,0.9299999999999997,-0.9093337095407628,0.29834118719209307,landing,False,
9.6,FLT_001,19.35,3.84,8.0,1.145,0.029,53.7,56.1,55.77,54.7,51.882,99.1,0.2914,10.800000000000018,0.40000000000000036,56.1,2.3999999999999986,0.07299781564197193,-0.07938422934803373,landing,False,
9.7,FLT_001,19.53,3.88,8.0,-2.262,0.175,54.1,55.18,54.5,54.78,51.778,98.9,0.2686,1.7999999999999972,0.40000000000000036,55.18,1.0799999999999983,-1.2797652057469335,-0.5424172593229983,landing,False,
9.8,FLT_001,19.61,3.92,8.0,-1.201,0.176,53.74,55.22,55.24,56.09,52.085,98.7,0.3511,0.799999999999983,0.40000000000000036,56.09,2.3500000000000014,0.06599928508676578,1.181047659027992,landing,False,
9.9,FLT_001,19.69,3.96,8.0,0.746,0.0,54.85,54.67,53.44,56.1,51.883,98.5,0.316,0.8000000000000185,0.40000000000000036,56.1,2.6600000000000037,0.08003108245868827,0.4203212388539113,landing,False,
10.0,FLT_001,19.3,4.0,8.0,-1.813,359.976,55.89,55.03,53.67,53.79,51.803,98.6,0.2544,-3.9000000000000057,0.40000000000000036,55.89,2.219999999999999,-0.2685608424983502,-0.9089907213802694,landing,False,
10.1,FLT_001,19.99,4.04,8.0,-1.451,359.838,54.45,55.97,55.29,53.51,51.73,98.4,0.2576,6.899999999999977,0.40000000000000036,55.97,2.460000000000001,-0.14361303539527048,-0.8062280412933586,landing,False,
10.2,FLT_001,20.23,4.08,8.0,2.69,359.717,55.4,54.16,54.48,55.97,51.705,98.6,0.2619,2.40000000000002,0.40000000000000036,55.97,1.8100000000000023,-0.1754751052205735,-0.6840513676612142,landing,False,
10.3,FLT_001,20.2,4.12,8.0,-1.227,359.775,55.77,56.09,54.98,55.88,51.838,98.6,0.2826,-0.30000000000001137,0.40000000000000036,56.09,1.1100000000000065,0.01983599548349791,-0.22474714394553308,landing,False,
10.4,FLT_001,20.72,4.16,8.0,1.909,359.794,54.41,54.74,54.67,55.02,51.739,98.4,0.3018,5.199999999999996,0.40000000000000036,55.02,0.6100000000000065,-1.6014136322374706,0.18447592841784952,landing,False,
10.5,FLT_001,21.21,4.2,8.0,2.511,359.853,53.71,54.77,56.45,53.91,51.889,97.9,0.3207,4.90000000000002,0.40000000000000036,56.45,2.740000000000002,0.637731902284234,0.5969250524596518,landing,False,
10.6,FLT_001,22.15,4.24,8.0,-1.467,359.817,53.67,53.75,57.66,55.46,51.78,98.4,0.2588,9.399999999999977,0.40000000000000036,57.66,3.989999999999995,2.3531744735691333,-0.7243742679007348,landing,False,
10.7,FLT_001,21.49,4.28,8.0,-1.78,359.896,54.73,55.07,55.23,54.36,51.778,98.2,0.2322,-6.600000000000001,0.40000000000000036,55.23,0.8699999999999974,-1.2033196527901737,-1.247152778973723,landing,False,
10.8,FLT_001,21.73,4.32,8.0,-0.552,359.855,54.48,54.84,54.28,54.6,51.795,98.1,0.3197,2.40000000000002,0.40000000000000036,54.84,0.5600000000000023,-1.6846337019638615,0.6096881743095646,landing,False,
10.9,FLT_001,21.77,4.36,8.0,-2.177,359.967,55.35,54.0,57.61,55.75,51.767,98.2,0.3414,0.3999999999999915,0.40000000000000036,57.61,3.6099999999999994,2.0995120973232866,1.0591483634317909,landing,False,
11.0,FLT_001,21.04,4.4,8.0,0.242,0.001,53.73,52.52,54.31,55.68,51.808,98.7,0.3855,-7.300000000000004,0.40000000000000036,55.68,3.1599999999999966,-0.4994987009969369,1.9246454364571282,landing,False,
11.1,FLT_001,22.19,4.44,8.0,-0.411,359.981,55.49,54.89,54.4,54.1,51.985,98.1,0.3202,11.500000000000021,0.40000000000000036,55.49,1.3900000000000006,-0.7365620301703885,0.5941403082008303,landing,False,
11.2,FLT_001,22.43,4.48,8.0,0.721,0.002,54.6,53.99,54.6,56.33,51.83,98.1,0.2635,2.3999999999999844,0.40000000000000036,56.33,2.3399999999999963,0.3672969673768871,-0.5610820743743864,landing,False,
11.3,FLT_001,23.84,4.52,8.0,2.794,360.0,54.23,55.61,55.76,53.92,51.816,98.6,0.3305,14.100000000000001,0.3999999999999915,55.76,1.8399999999999963,-0.3751214558349578,0.8158486566926526,landing,False,
11.4,FLT_001,22.71,4.56,8.0,1.635,0.16,54.16,56.07,54.07,54.94,51.851,98.2,0.2925,-11.29999999999999,0.40000000000000036,56.07,2.0,0.02348199006856547,0.042257141618457214,landing,False,
11.5,FLT_001,23.15,4.6,8.0,0.978,0.184,57.04,55.98,55.09,55.84,51.759,98.0,0.2327,4.399999999999977,0.40000000000000036,57.04,1.9499999999999957,1.3070076179853456,-1.1564710373832157,landing,False,
11.6,FLT_001,23.19,4.64,8.0,-3.932,0.184,54.94,56.02,52.95,54.86,51.672,98.6,0.2976,0.400000000000027,0.40000000000000036,56.02,3.0700000000000003,-0.0797478221077804,0.2003434901793366,landing,False,
11.7,FLT_001,22.82,4.68,8.0,0.887,0.16,52.91,55.16,54.76,56.36,51.464,98.3,0.3141,-3.70000000000001,0.40000000000000036,56.36,3.450000000000003,0.36606403695595635,0.5325919980477208,landing,False,
11.8,FLT_001,24.18,4.72,8.0,3.445,0.244,55.71,54.47,54.59,55.38,51.559,98.3,0.3717,13.599999999999994,0.40000000000000036,55.71,1.240000000000002,-0.5535803114736472,1.6743620477225722,landing,False,
11.9,FLT_001,24.18,4.76,8.0,-6.021,0.315,54.43,54.97,56.32,54.17,51.837,98.2,0.3036,0.0,0.40000000000000036,56.32,2.1499999999999986,0.27448954766542466,0.30304020525754727,landing,False,
12.0,FLT_001,24.4,4.8,8.0,1.379,0.288,54.55,54.69,58.16,55.61,51.797,98.4,0.2592,2.1999999999999886,0.40000000000000036,58.16,3.6099999999999994,2.661585167522612,-0.5928559909217305,landing,False,
12.1,FLT_001,23.75,4.84,8.0,-0.319,0.172,56.13,55.77,55.84,55.47,51.743,98.5,0.2057,-6.499999999999986,0.40000000000000036,56.13,0.6600000000000037,-0.07256567599050022,-1.6046121588541988,landing,False,
12.2,FLT_001,25.11,4.88,8.0,-1.7,0.082,55.37,53.55,55.36,54.89,51.992,98.2,0.2385,13.599999999999994,0.40000000000000036,55.37,1.8200000000000003,-1.1009474348868604,-0.9342226433371873,landing,False,
12.3,FLT_001,23.9,4.92,8.0,1.602,0.064,55.55,54.93,55.76,55.94,51.751,97.8,0.2515,-12.100000000000009,0.40000000000000036,55.94,1.009999999999998,-0.316993473680815,-0.6538496945243104,landing,False,
12.4,FLT_001,25.1,4.96,8.0,3.419,0.199,52.09,54.57,53.14,55.24,51.516,98.3,0.3833,12.000000000000028,0.40000000000000036,55.24,3.1499999999999986,-1.2233802273110725,1.950262402410319,landing,False,
12.5,FLT_001,26.1,5.0,8.0,1.55,0.174,54.7,56.36,55.21,54.51,51.825,98.1,0.2905,10.0,0.40000000000000036,56.36,1.8500000000000014,0.30602202684332525,0.13402531522641645,landing,False,
12.6,FLT_001,24.71,5.04,8.0,-0.742,0.114,55.94,54.68,54.5,55.39,51.864,98.5,0.2955,-13.900000000000006,0.40000000000000036,55.94,1.4399999999999977,-0.2817840002252184,0.22263815285930094,landing,False,
12.7,FLT_001,25.12,5.08,8.0,-1.887,359.938,56.61,55.85,55.57,57.75,51.818,97.9,0.3551,4.100000000000001,0.40000000000000036,57.75,2.1799999999999997,2.0627320141361234,1.352420577237253,landing,False,
12.8,FLT_001,25.65,5.12,8.0,0.289,0.089,54.27,54.25,55.15,56.52,51.862,98.1,0.3301,5.299999999999976,0.40000000000000036,56.52,2.270000000000003,0.4337896581732627,0.829148277760727,landing,False,
12.9,FLT_001,25.55,5.16,8.0,1.746,0.146,54.06,56.75,53.56,54.88,51.566,97.7,0.2869,-0.9999999999999787,0.40000000000000036,56.75,3.1899999999999977,0.7406727060883944,0.02019775162954436,landing,False,
13.0,FLT_001,25.23,5.2,8.0,-0.774,0.226,55.17,54.12,54.38,55.8,51.749,98.4,0.3573,-3.200000000000003,0.40000000000000036,55.8,1.6799999999999997,-0.4901430215499598,1.38634594587387,landing,False,
13.1,FLT_001,26.24,5.24,8.0,-0.581,0.322,56.44,52.89,55.18,54.89,51.655,98.5,0.2658,10.09999999999998,0.40000000000000036,56.44,3.549999999999997,0.333428106252841,-0.5096873316175405,landing,False,
13.2,FLT_001,25.87,5.28,8.0,5.644,0.306,55.11,54.68,53.71,56.54,51.788,98.0,0.3142,-3.6999999999999744,0.40000000000000036,56.54,2.8299999999999983,0.4452104597392527,0.48559687968408644,landing,False,
13.3,FLT_001,26.84,5.32,8.0,2.157,0.314,56.16,54.9,54.51,54.39,51.886,98.1,0.2372,9.699999999999989,0.40000000000000036,56.16,1.769999999999996,-0.038037282771030585,-1.1249807103604195,landing,False,
13.4,FLT_001,26.34,5.36,8.0,2.3,0.463,52.41,55.35,55.78,55.14,51.695,97.9,0.313,-5.0,0.40000000000000036,55.78,3.3700000000000045,-0.5281761741187296,0.4614980718023918,landing,False,
13.5,FLT_001,27.78,5.4,8.0,-2.921,0.481,54.91,55.13,54.15,54.5,51.795,97.9,0.3509,14.400000000000013,0.40000000000000036,55.13,0.980000000000004,-1.3605248701232877,1.2284223462630228,landing,False,
13.6,FLT_001,26.81,5.44,8.0,-1.414,0.54,54.83,55.7,56.38,54.77,51.64,98.3,0.3436,-9.700000000000024,0.40000000000000036,56.38,1.6099999999999994,0.31993936742322204,1.0553129179230851,landing,False,
13.7,FLT_001,27.24,5.48,8.0,0.149,0.627,53.96,55.04,57.01,54.04,51.724,97.9,0.3451,4.299999999999997,0.40000000000000036,57.01,3.049999999999997,1.14096892875075,1.0453686696700484,landing,False,
13.8,FLT_001,28.01,5.52,8.0,-2.002,0.691,55.89,56.34,54.64,54.3,51.673,98.2,0.4444,7.700000000000031,0.3999999999999915,56.34,2.0400000000000063,0.22912420622264482,2.774573673908182,landing,False,
13.9,FLT_001,27.19,5.56,8.0,3.201,0.678,55.57,55.35,55.69,57.07,51.902,98.0,0.2866,-8.200000000000003,0.40000000000000036,57.07,1.7199999999999989,1.2617451033160998,-0.1953462533725968,landing,False,
14.0,FLT_001,28.12,5.6,8.0,2.821,0.675,55.17,53.81,55.07,55.24,51.612,98.2,0.2548,9.299999999999997,0.40000000000000036,55.24,1.4299999999999997,-1.230789648378641,-0.7760292128842036,landing,False,
14.1,FLT_001,28.86,5.64,8.0,-1.067,0.753,56.27,54.8,54.59,53.63,51.727,97.9,0.3228,7.399999999999984,0.40000000000000036,56.27,2.6400000000000006,0.14767483048273483,0.4877606726033825,landing,False,
14.2,FLT_001,27.6,5.68,8.0,3.568,0.83,55.55,58.35,54.78,55.45,51.853,98.3,0.256,-12.59999999999998,0.40000000000000036,58.35,3.5700000000000003,2.7188529390722946,-0.8954406866074768,landing,False,
14.3,FLT_001,28.7,5.72,8.0,-0.009,0.947,54.45,53.72,55.43,55.03,51.519,98.5,0.2434,10.999999999999979,0.40000000000000036,55.43,1.7100000000000009,-0.9629441428265437,-1.194138686724492,landing,False,
14.4,FLT_001,28.93,5.76,8.0,5.179,1.002,52.61,56.61,55.42,55.07,51.755,97.4,0.2874,2.3000000000000043,0.40000000000000036,56.61,4.0,0.5452824522376281,-0.2649598253041251,landing,False,
14.5,FLT_001,29.4,5.8,8.0,0.289,1.062,54.58,55.41,55.45,55.4,51.721,97.9,0.399,4.699999999999989,0.40000000000000036,55.45,0.8700000000000045,-0.9353534199431958,1.9649721203195263,landing,False,
14.6,FLT_001,28.59,5.84,8.0,1.152,1.017,56.07,56.3,57.01,54.16,51.64,97.9,0.3345,-8.099999999999987,0.40000000000000036,57.01,2.8500000000000014,1.021454815841345,0.6417246717677849,landing,False,
14.7,FLT_001,28.74,5.88,8.0,2.8,0.959,54.43,55.36,54.22,54.38,51.828,97.7,0.319,1.4999999999999858,0.40000000000000036,55.36,1.1400000000000006,-1.0722774877854089,0.31063835250443694,landing,False,
14.8,FLT_001,29.87,5.92,8.0,2.555,1.037,55.48,55.9,56.28,54.81,51.876,98.0,0.2164,11.300000000000026,0.40000000000000036,56.28,1.4699999999999989,0.09091331591767711,-1.6738029611169953,landing,False,
14.9,FLT_001,29.95,5.96,8.0,1.021,0.98,55.46,55.24,55.02,54.18,51.768,98.2,0.2689,0.799999999999983,0.40000000000000036,55.46,1.2800000000000011,-0.9258289922115174,-0.6137818541812897,landing,False,
15.0,FLT_001,30.13,6.0,8.0,-0.282,0.978,54.06,55.67,54.17,53.22,51.67,97.3,0.3716,1.7999999999999972,0.40000000000000036,55.67,2.450000000000003,-0.654064071425291,1.3524887959645784,climb,False,
15.1,FLT_001,30.38,6.04,8.0,1.028,1.115,54.97,56.46,52.21,54.71,51.553,97.2,0.2865,2.5,0.40000000000000036,56.46,4.25,0.32492746677458045,-0.3227360064684306,climb,False,
15.2,FLT_001,30.07,6.08,8.0,-1.632,1.238,55.68,53.18,54.79,53.86,51.714,98.3,0.4097,-3.099999999999987,0.40000000000000036,55.68,2.5,-0.6441075685085552,1.9706290126808286,descent,False,
15.3,FLT_001,30.72,6.12,8.0,0.304,1.268,53.99,54.6,53.88,53.79,51.679,97.8,0.3224,6.499999999999986,0.40000000000000036,54.6,0.8100000000000023,-1.8837201525616154,0.29895133232258864,climb,False,
15.4,FLT_001,30.95,6.16,8.0,-2.219,1.238,54.94,57.23,55.76,56.01,51.683,97.8,0.2925,2.3000000000000043,0.40000000000000036,57.23,2.289999999999999,1.232938778969979,-0.2654533993061337,climb,False,
15.5,FLT_001,30.65,6.2,8.0,-3.562,1.226,55.8,54.3,55.31,56.1,51.64,97.5,0.2843,-3.000000000000007,0.40000000000000036,56.1,1.8000000000000043,-0.12405969049595791,-0.4069384215817309,descent,False,
15.6,FLT_001,32.14,6.24,8.0,0.101,1.313,55.83,55.19,55.52,57.46,51.629,97.8,0.2967,14.90000000000002,0.40000000000000036,57.46,2.270000000000003,1.5377587823471308,-0.18758064498697066,climb,False,
15.7,FLT_001,31.64,6.28,8.0,2.525,1.309,55.84,54.68,54.93,53.95,51.689,98.2,0.2274,-5.0,0.40000000000000036,55.84,1.8900000000000006,-0.4577454054221603,-1.5067244462159954,descent,False,
15.8,FLT_001,31.01,6.32,8.0,1.852,1.253,57.35,56.6,55.08,57.18,51.561,97.9,0.3487,-6.29999999999999,0.40000000000000036,57.35,2.270000000000003,1.3593845426915343,0.790630330119446,descent,False,
15.9,FLT_001,32.13,6.36,8.0,-0.164,1.375,55.63,54.57,55.91,55.4,51.786,97.8,0.3221,11.20000000000001,0.40000000000000036,55.91,1.3399999999999963,-0.4072298253605965,0.2947281514820877,climb,False,
16.0,FLT_001,31.52,6.4,8.0,3.494,1.393,55.84,53.63,54.19,56.49,51.604,97.2,0.2872,-6.10000000000003,0.40000000000000036,56.49,2.8599999999999994,0.3183546036708594,-0.339486120443066,descent,False,
16.1,FLT_001,32.6,6.44,8.0,-1.138,1.335,56.69,56.42,57.22,55.58,51.689,97.9,0.2944,10.800000000000018,0.40000000000000036,57.22,1.6400000000000006,1.2086800603010648,-0.18941430125474995,climb,False,
16.2,FLT_001,32.98,6.48,8.0,-3.836,1.383,55.51,54.09,54.42,53.01,51.644,97.7,0.3405,3.7999999999999545,0.40000000000000036,55.51,2.5,-0.9547681055559718,0.6795677625059166,climb,False,
16.3,FLT_001,32.2,6.52,8.0,-4.364,1.48,54.68,52.94,56.08,55.39,51.739,97.5,0.4015,-7.79999999999994,0.3999999999999915,56.08,3.1400000000000006,-0.23950030081527038,1.7841671219097401,descent,False,
16.4,FLT_001,33.29,6.56,8.0,-2.362,1.379,52.97,54.81,56.97,54.87,51.731,97.9,0.3766,10.899999999999963,0.40000000000000036,56.97,4.0,0.866285664651257,1.2614213666735365,climb,False,
16.5,FLT_001,33.21,6.6,8.0,1.633,1.359,54.0,53.21,53.24,55.54,51.721,97.4,0.3093,-0.799999999999983,0.40000000000000036,55.54,2.3299999999999983,-0.9071504902966793,-0.018996201613437676,descent,False,
16.6,FLT_001,33.62,6.64,8.0,-1.27,1.335,54.57,54.65,54.57,54.86,51.551,97.8,0.2589,4.099999999999966,0.40000000000000036,54.86,0.28999999999999915,-1.6886600633417639,-0.9531388511709609,climb,False,
16.7,FLT_001,34.35,6.68,8.0,0.922,1.38,53.77,55.32,53.58,54.24,51.647,98.0,0.2233,7.30000000000004,0.40000000000000036,55.32,1.740000000000002,-1.0839216417463742,-1.5490941315097861,climb,False,
16.8,FLT_001,33.48,6.72,8.0,3.293,1.443,56.01,55.38,55.69,57.15,51.824,97.7,0.3061,-8.700000000000045,0.40000000000000036,57.15,1.769999999999996,1.095661622651842,-0.005549165962249706,descent,False,
16.9,FLT_001,33.43,6.76,8.0,-2.2,1.388,54.94,55.02,54.74,54.56,51.628,97.5,0.2608,-0.4999999999999716,0.40000000000000036,55.02,0.46000000000000085,-1.4093299141668034,-0.8272226132286998,cruise,False,
17.0,FLT_001,33.56,6.8,8.0,0.957,1.239,53.99,55.08,55.36,55.41,51.765,97.4,0.3078,1.3000000000000256,0.40000000000000036,55.41,1.4199999999999946,-0.9287811251812856,0.023960217292273385,climb,False,
17.1,FLT_001,33.8,6.84,8.0,1.078,1.342,55.06,55.93,55.03,54.59,51.657,97.7,0.3145,2.399999999999949,0.40000000000000036,55.93,1.3399999999999963,-0.27930321189501917,0.11244487738297003,climb,False,
17.2,FLT_001,34.37,6.88,8.0,-1.721,1.23,54.07,53.45,56.46,54.3,51.625,97.4,0.3358,5.700000000000003,0.40000000000000036,56.46,3.009999999999998,0.35291120314348445,0.49538180679567434,climb,False,
17.3,FLT_001,34.78,6.92,8.0,2.708,1.257,54.07,54.58,54.72,56.64,51.673,98.3,0.2414,4.100000000000037,0.40000000000000036,56.64,2.5700000000000003,0.5588988557505067,-1.3521081587932848,climb,False,
17.4,FLT_001,34.94,6.96,8.0,-0.575,1.244,54.67,57.63,55.06,57.06,51.569,97.1,0.2556,1.599999999999966,0.40000000000000036,57.63,2.960000000000001,1.7046389481184123,-1.034665030540384,climb,False,
17.5,FLT_001,35.42,7.0,8.0,-0.768,1.26,55.89,55.36,56.58,56.12,51.74,97.5,0.2843,4.80000000000004,0.40000000000000036,56.58,1.2199999999999989,0.41167560338516535,-0.463744869967802,climb,False,
17.6,FLT_001,35.21,7.04,8.0,4.223,1.425,55.63,57.32,54.5,54.01,51.563,97.6,0.313,-2.1000000000000085,0.40000000000000036,57.32,3.3100000000000023,1.2637808958941052,0.09680826194164131,descent,False,
17.7,FLT_001,36.13,7.08,8.0,1.046,1.729,54.32,56.75,56.45,54.47,51.701,97.5,0.3101,9.200000000000017,0.40000000000000036,56.75,2.4299999999999997,0.6194675540301784,0.057766385562043825,climb,False,
17.8,FLT_001,35.47,7.12,8.0,1.851,1.566,52.65,54.79,53.99,54.51,51.752,97.3,0.4289,-6.600000000000037,0.40000000000000036,54.79,2.1400000000000006,-1.7183751751755343,2.2635080619168595,descent,False,
17.9,FLT_001,37.17,7.16,8.0,2.71,1.664,53.95,53.39,56.88,54.32,51.685,97.8,0.187,17.00000000000003,0.40000000000000036,56.88,3.490000000000002,0.7941269002157622,-2.1628063400504036,climb,False,
18.0,FLT_001,36.32,7.2,8.0,-1.301,1.648,56.41,54.78,53.87,55.51,51.583,97.6,0.3555,-8.500000000000014,0.40000000000000036,56.41,2.539999999999999,0.21510113790753016,0.8706426684333726,descent,False,
18.1,FLT_001,35.78,7.24,8.0,2.5,1.753,54.61,54.79,55.14,54.19,51.657,97.7,0.3529,-5.3999999999999915,0.40000000000000036,55.14,0.9500000000000028,-1.2624948049458546,0.7918519231129688,descent,False,
18.2,FLT_001,35.87,7.28,8.0,-1.004,1.849,53.38,54.95,55.96,54.1,51.563,97.2,0.2542,0.899999999999963,0.40000000000000036,55.96,2.5799999999999983,-0.2772844623937574,-0.953360110880249,climb,False,
18.3,FLT_001,36.85,7.32,8.0,-1.089,1.99,55.15,56.51,54.91,55.09,51.613,97.3,0.2764,9.80000000000004,0.40000000000000036,56.51,1.6000000000000014,0.36620183072404916,-0.5792587029647361,climb,False,
18.4,FLT_001,36.69,7.36,8.0,-0.544,2.018,55.06,54.32,54.01,54.01,51.58,97.5,0.3881,-1.600000000000037,0.40000000000000036,55.06,1.0500000000000043,-1.313279321816314,1.3826502731213817,descent,False,
18.5,FLT_001,37.36,7.4,8.0,-1.244,1.929,55.37,55.76,55.81,54.62,51.554,97.0,0.2689,6.700000000000017,0.40000000000000036,55.81,1.1900000000000048,-0.4610376142097733,-0.6982165957001489,climb,False,
18.6,FLT_001,37.44,7.44,8.0,1.644,2.022,56.09,55.31,55.07,51.66,51.691,97.6,0.2697,0.799999999999983,0.40000000000000036,56.09,4.430000000000007,-0.12321842370590616,-0.6575901313014451,climb,False,
18.7,FLT_001,37.37,7.48,8.0,0.534,2.034,54.18,53.48,55.63,55.1,51.724,97.3,0.306,-0.7000000000000028,0.40000000000000036,55.63,2.1500000000000057,-0.6380569788571829,-0.0013514429137429316,descent,False,
18.8,FLT_001,37.18,7.52,8.0,-0.982,2.011,53.93,55.3,53.58,53.96,51.729,97.7,0.3256,-1.8999999999999773,0.3999999999999915,55.3,1.7199999999999989,-0.995722795726773,0.41580309813665844,descent,False,
18.9,FLT_001,37.05,7.56,8.0,1.349,1.963,54.29,55.54,56.4,54.41,51.646,97.2,0.3499,-1.3000000000000256,0.40000000000000036,56.4,2.1099999999999994,0.3186525697659907,0.8476607372651606,descent,False,
19.0,FLT_001,37.78,7.6,8.0,-0.55,2.064,56.32,55.05,55.24,54.94,51.767,97.9,0.352,7.30000000000004,0.40000000000000036,56.32,1.3800000000000026,0.1999520811224327,0.8521317407094764,climb,False,
19.1,FLT_001,38.63,7.64,8.0,-0.656,2.224,54.8,55.44,55.74,54.12,51.55,97.4,0.3391,8.500000000000014,0.40000000000000036,55.74,1.6200000000000045,-0.4848155527001133,0.6004796101574407,climb,False,
19.2,FLT_001,38.51,7.68,8.0,0.097,2.104,54.81,56.67,55.18,55.29,51.744,97.4,0.2046,-1.2000000000000455,0.40000000000000036,56.67,1.8599999999999994,0.7247404529490402,-1.8625187529803093,descent,False,
19.3,FLT_001,37.98,7.72,8.0,0.927,2.167,56.17,54.5,54.97,55.82,51.705,97.1,0.2979,-5.300000000000011,0.40000000000000036,56.17,1.6700000000000017,0.05921142337554263,-0.1746419173653319,descent,False,
19.4,FLT_001,38.89,7.76,8.0,0.78,2.129,56.24,52.63,54.26,54.0,51.616,97.3,0.3332,9.100000000000037,0.40000000000000036,56.24,3.6099999999999994,0.1607870212174752,0.4639310701426828,climb,False,
19.5,FLT_001,39.2,7.8,8.0,-0.726,1.983,54.88,54.08,55.66,55.17,51.632,97.1,0.3342,3.1000000000000227,0.40000000000000036,55.66,1.5799999999999983,-0.606650200374449,0.5207731431368542,climb,False,
19.6,FLT_001,38.76,7.84,8.0,1.694,1.997,55.89,55.95,55.68,54.66,51.712,96.8,0.2645,-4.400000000000048,0.40000000000000036,55.95,1.2900000000000063,-0.2002678601049422,-0.7802493508995801,descent,False,
19.7,FLT_001,39.48,7.88,8.0,-0.445,1.914,55.1,54.54,53.64,55.95,51.672,97.2,0.2489,7.199999999999989,0.40000000000000036,55.95,2.3100000000000023,-0.21811777241407324,-1.0391602936704598,climb,False,
19.8,FLT_001,39.64,7.92,8.0,-1.31,1.756,54.92,53.5,55.54,54.78,51.63,97.5,0.2454,1.600000000000037,0.40000000000000036,55.54,2.039999999999999,-0.7462522300610309,-1.1335488210670468,climb,False,
19.9,FLT_001,39.24,7.96,8.0,-2.936,1.678,52.94,53.63,54.3,55.21,51.557,97.2,0.3233,-3.999999999999986,0.40000000000000036,55.21,2.270000000000003,-1.1733916450907413,0.3360982954619915,descent,False,
20.0,FLT_001,40.19,8.0,8.0,1.966,1.575,55.79,55.75,55.6,54.97,51.508,97.1,0.3504,9.499999999999957,0.40000000000000036,55.79,0.8200000000000003,-0.40578004028336434,0.8719642025823621,climb,False,
20.1,FLT_001,40.49,8.04,8.0,0.025,1.511,56.72,55.7,55.22,55.57,51.609,97.1,0.3071,3.0000000000000426,0.3999999999999915,56.72,1.5,0.822406379442257,0.02574536547005296,climb,False,
20.2,FLT_001,40.95,8.08,8.0,0.422,1.378,54.6,54.94,52.92,54.61,51.481,97.8,0.2465,4.6000000000000085,0.40000000000000924,54.94,2.019999999999996,-1.4877140574857919,-1.1199121025037766,climb,False,
20.3,FLT_001,41.13,8.12,8.0,2.092,1.339,56.76,55.15,55.11,56.0,51.667,97.3,0.309,1.7999999999999972,0.3999999999999915,56.76,1.6499999999999986,0.8482785150330394,0.13536746535226943,climb,False,
20.4,FLT_001,40.12,8.16,8.0,-0.955,1.267,55.36,54.21,55.02,53.86,51.415,96.6,0.2524,-10.100000000000051,0.40000000000000924,55.36,1.5,-0.9939663146259867,-0.972639063606828,descent,False,
20.5,FLT_001,40.54,8.2,8.0,-2.749,1.305,55.18,54.16,55.93,54.49,51.621,96.9,0.2632,4.200000000000017,0.3999999999999915,55.93,1.7700000000000031,-0.21397912876077052,-0.746590295502576,climb,False,
20.6,FLT_001,41.46,8.24,8.0,0.14,1.364,54.18,54.89,55.37,53.79,51.56,97.0,0.2816,9.200000000000017,0.40000000000000924,55.37,1.5799999999999983,-0.9447729698142637,-0.37683225302281104,climb,False,
20.7,FLT_001,41.66,8.28,8.0,0.616,1.39,54.48,55.11,56.34,52.47,51.542,96.9,0.2601,1.9999999999999574,0.3999999999999915,56.34,3.8700000000000045,0.3973985023044447,-0.825965080374216,climb,False,
20.8,FLT_001,41.86,8.32,8.0,-0.526,1.367,55.62,54.62,54.51,54.32,51.556,97.1,0.2435,2.0000000000000284,0.40000000000000924,55.62,1.2999999999999972,-0.5784209644944821,-1.1120725546625627,climb,False,
20.9,FLT_001,43.73,8.36,8.0,2.947,1.34,54.64,55.62,54.46,56.66,51.294,96.9,0.3775,18.699999999999974,0.3999999999999915,56.66,2.1999999999999957,0.8928228413022283,1.5046782221641004,climb,False,
21.0,FLT_001,42.29,8.4,8.0,-4.972,1.257,55.62,55.2,54.83,56.19,51.536,96.9,0.2056,-14.399999999999977,0.40000000000000924,56.19,1.3599999999999994,0.22981495023285095,-1.7587646883006294,descent,False,
21.1,FLT_001,42.77,8.44,8.0,2.24,1.175,56.34,53.84,54.3,55.63,51.491,97.1,0.2704,4.80000000000004,0.3999999999999915,56.34,2.5,0.48436069857062874,-0.5246079476172762,climb,False,
21.2,FLT_001,42.88,8.48,8.0,1.582,1.246,55.94,54.7,54.26,55.08,51.49,96.5,0.2892,1.0999999999999943,0.40000000000000924,55.94,1.6799999999999997,-0.12043533740746254,-0.15225115576541337,climb,False,
21.3,FLT_001,42.93,8.52,8.0,0.914,1.07,56.48,55.04,53.74,55.11,51.886,96.3,0.3614,0.4999999999999716,0.3999999999999915,56.48,2.739999999999995,0.6675072599594781,1.263010437129855,cruise,False,
21.4,FLT_001,42.65,8.56,8.0,-6.672,1.062,55.78,54.9,56.26,55.87,51.433,97.3,0.3147,-2.8000000000000114,0.40000000000000924,56.26,1.3599999999999994,0.3699420347460335,0.38856465494764963,descent,False,
21.5,FLT_001,43.39,8.6,8.0,2.568,1.029,54.94,55.04,53.16,56.21,51.61,97.2,0.2859,7.40000000000002,0.3999999999999915,56.21,3.0500000000000043,0.2755474930349379,-0.17590426875093798,climb,False,
21.6,FLT_001,42.82,8.64,8.0,-2.053,1.089,54.67,54.6,54.45,55.46,51.488,97.1,0.2629,-5.700000000000003,0.40000000000000924,55.46,1.009999999999998,-0.9018441635583535,-0.6365935899054413,descent,False,
21.7,FLT_001,43.29,8.68,8.0,-1.015,0.947,53.87,54.02,54.95,54.37,51.475,97.0,0.3574,4.699999999999989,0.3999999999999915,54.95,1.0800000000000054,-1.656053097633205,1.2029957172962722,climb,False,
21.8,FLT_001,43.36,8.72,8.0,-0.341,0.948,55.34,54.41,56.6,55.69,51.429,96.9,0.2597,0.7000000000000028,0.40000000000000924,56.6,2.190000000000005,0.9046733850271357,-0.7361667658607649,climb,False,
21.9,FLT_001,43.85,8.76,8.0,0.815,0.982,55.68,54.4,57.41,54.56,51.675,97.8,0.3106,4.90000000000002,0.3999999999999915,57.41,3.009999999999998,2.056086856327223,0.2617222556230561,climb,False,
22.0,FLT_001,45.16,8.8,8.0,1.279,0.792,54.29,55.71,55.2,54.18,51.68,96.9,0.2915,13.099999999999952,0.40000000000000924,55.71,1.5300000000000011,-0.5649944364102327,-0.11500475555685694,climb,False,
22.1,FLT_001,43.27,8.84,8.0,1.786,0.684,57.2,55.98,55.0,57.4,51.496,97.7,0.324,-18.899999999999935,0.3999999999999915,57.4,2.3999999999999986,1.923639488887977,0.5325663847378268,descent,False,
22.2,FLT_001,44.75,8.88,8.0,1.632,0.675,55.81,54.99,57.28,55.66,51.647,97.5,0.3786,14.799999999999969,0.40000000000000924,57.28,2.289999999999999,1.6748580891544091,1.5769150750193723,climb,False,
22.3,FLT_001,43.8,8.92,8.0,0.506,0.727,55.62,54.61,55.05,54.59,51.45,97.0,0.3353,-9.500000000000028,0.3999999999999915,55.62,1.029999999999994,-0.6958971017773954,0.6955883107493948,descent,False,
22.4,FLT_001,44.57,8.96,8.0,0.832,0.745,56.44,53.39,56.37,54.12,51.512,96.8,0.2936,7.700000000000031,0.40000000000000924,56.44,3.049999999999997,0.5521068859880068,-0.1459082866765006,climb,False,
22.5,FLT_001,45.55,9.0,8.0,-2.182,0.801,54.94,54.7,54.48,55.69,51.618,96.8,0.3838,9.799999999999969,0.3999999999999915,55.69,1.2100000000000009,-0.5637345890204443,1.57345657954277,climb,False,
22.6,FLT_001,45.24,9.04,8.0,-1.502,0.693,54.99,54.33,55.15,54.3,51.448,96.7,0.379,-3.0999999999999517,0.3999999999999915,55.15,0.8500000000000014,-1.349329737377529,1.4239539866107995,descent,False,
22.7,FLT_001,44.87,9.08,8.0,1.791,0.534,54.46,53.5,54.55,55.49,51.472,96.9,0.357,-3.7000000000000455,0.40000000000000924,55.49,1.990000000000002,-0.786047884767065,0.9774059395663767,descent,False,
22.8,FLT_001,45.25,9.12,8.0,1.674,0.543,55.04,56.82,57.61,54.54,51.546,97.0,0.3141,3.8000000000000256,0.3999999999999915,57.61,3.0700000000000003,2.3923213955208875,0.224831882711989,climb,False,
22.9,FLT_001,46.15,9.16,8.0,1.448,0.42,54.17,56.13,55.34,56.14,51.546,96.4,0.2614,8.999999999999986,0.40000000000000924,56.14,1.9699999999999989,0.1675243742699665,-0.9044508079378368,climb,False,
23.0,FLT_001,45.64,9.2,8.0,-1.029,0.333,55.4,54.81,54.81,55.43,51.432,97.5,0.1817,-5.09999999999998,0.3999999999999915,55.43,0.6199999999999974,-0.9028918880714121,-2.385095691939331,descent,False,
23.1,FLT_001,46.32,9.24,8.0,1.821,0.426,54.79,56.22,53.7,56.21,51.761,96.5,0.3106,6.799999999999997,0.40000000000000924,56.22,2.519999999999996,0.2929107172161413,0.21382249767835754,climb,False,
23.2,FLT_001,46.43,9.28,8.0,-2.322,0.445,53.13,55.15,54.67,53.48,51.452,95.9,0.3387,1.0999999999999943,0.3999999999999915,55.15,2.019999999999996,-1.3443403539815357,0.7505257524020552,climb,False,
23.3,FLT_001,46.28,9.32,8.0,2.155,0.388,52.94,53.9,55.05,54.4,51.629,96.7,0.2331,-1.4999999999999858,0.40000000000000924,55.05,2.1099999999999994,-1.431285346084648,-1.3524900445580883,descent,False,
23.4,FLT_001,47.88,9.36,8.0,-0.522,0.319,53.96,56.35,53.77,55.68,51.592,96.3,0.3208,16.000000000000014,0.3999999999999915,56.35,2.5799999999999983,0.5204732414976788,0.43818635905190545,climb,False,
23.5,FLT_001,47.32,9.4,8.0,3.368,0.381,54.11,53.88,54.4,55.62,51.449,96.7,0.2777,-5.600000000000023,0.40000000000000924,55.62,1.7399999999999949,-0.6054315112849303,-0.45341935752192786,descent,False,
23.6,FLT_001,46.2,9.44,8.0,-3.043,0.402,53.63,55.29,54.04,54.22,51.574,96.7,0.3255,-11.199999999999974,0.3999999999999915,55.29,1.6599999999999966,-1.0785007477428208,0.510002722310303,descent,False,
23.7,FLT_001,47.5,9.48,8.0,3.527,0.28,55.4,57.17,54.09,55.72,51.442,96.8,0.2692,12.999999999999972,0.40000000000000924,57.17,3.0799999999999983,1.7022836621388922,-0.6347656195559452,climb,False,
23.8,FLT_001,47.28,9.52,8.0,-0.723,0.086,54.69,54.53,56.07,54.16,51.531,96.9,0.2637,-2.1999999999999886,0.3999999999999915,56.07,1.9100000000000037,0.04337621555960221,-0.7205701025160324,descent,False,
23.9,FLT_001,48.23,9.56,8.0,-0.759,0.274,53.85,55.46,56.59,55.75,51.604,96.3,0.2969,9.499999999999957,0.40000000000000924,56.59,2.740000000000002,0.8175912792882514,-0.018011992757507783,climb,False,
24.0,FLT_001,47.61,9.6,8.0,0.39,0.152,53.59,54.38,55.98,56.58,51.464,96.5,0.2412,-6.199999999999974,0.3999999999999915,56.58,2.989999999999995,0.7909968895562011,-1.127800275821858,descent,False,
24.1,FLT_001,48.15,9.64,8.0,-1.394,0.204,55.23,54.42,56.65,54.93,51.559,96.8,0.3481,5.3999999999999915,0.40000000000000924,56.65,2.229999999999997,0.8634975840476046,1.0825344274267894,climb,False,
24.2,FLT_001,48.66,9.68,8.0,-0.145,0.355,54.39,54.23,53.8,57.83,51.458,96.4,0.301,5.09999999999998,0.3999999999999915,57.83,4.030000000000001,2.4365127716579535,0.07174165759177328,climb,False,
24.3,FLT_001,49.04,9.72,8.0,-1.475,0.37,56.42,54.34,56.73,55.53,51.531,96.0,0.2428,3.8000000000000256,0.40000000000000924,56.73,2.3899999999999935,0.8721920210058808,-1.1389926020232488,climb,False,
24.4,FLT_001,48.21,9.76,8.0,-1.402,0.31,55.47,54.28,54.49,54.96,51.523,96.7,0.2692,-8.299999999999983,0.3999999999999915,55.47,1.1899999999999977,-0.8523674611097263,-0.5542443728330623,descent,False,
24.5,FLT_001,48.84,9.8,8.0,0.974,0.168,53.03,54.51,55.0,56.31,51.473,96.4,0.3295,6.300000000000026,0.40000000000000924,56.31,3.280000000000001,0.29016872268283,0.7304892418258517,climb,False,
24.6,FLT_001,48.97,9.84,8.0,-1.803,0.024,54.38,55.81,52.94,56.17,51.325,96.3,0.2849,1.2999999999999545,0.3999999999999915,56.17,3.230000000000004,0.09029551359266073,-0.22849558220637617,climb,False,
24.7,FLT_001,49.08,9.88,8.0,-1.536,0.061,54.1,55.13,55.41,55.21,51.584,96.5,0.3355,1.0999999999999943,0.40000000000000924,55.41,1.3099999999999952,-0.938984708766637,0.8186666260910748,climb,False,
24.8,FLT_001,50.49,9.92,8.0,-2.746,0.206,54.89,53.76,54.11,56.0,51.703,96.5,0.2502,14.100000000000037,0.3999999999999915,56.0,2.240000000000002,-0.14250223036337156,-1.0148799630328753,climb,False,
24.9,FLT_001,50.01,9.96,8.0,-1.008,0.167,54.4,54.9,53.51,55.86,51.516,96.8,0.286,-4.80000000000004,0.40000000000000924,55.86,2.3500000000000014,-0.35902736234530674,-0.23002768412926453,descent,False,
25.0,FLT_001,49.38,10.0,8.0,2.623,0.111,53.68,55.92,53.94,56.01,51.439,96.1,0.2964,-6.2999999999999545,0.3999999999999915,56.01,2.3299999999999983,-0.15528927504302997,0.01761711451759789,descent,False,
25.1,FLT_001,50.67,10.04,8.0,-1.692,0.181,55.01,54.44,56.6,54.93,51.519,97.1,0.4113,12.899999999999991,0.3999999999999915,56.6,2.1600000000000037,0.6782496725799299,2.339246058433247,climb,False,
25.2,FLT_001,51.47,10.08,8.0,-1.463,0.112,54.64,55.91,53.52,52.47,51.611,96.0,0.2636,7.999999999999972,0.40000000000000924,55.91,3.4399999999999977,-0.329620047742699,-0.7131672628708946,climb,False,
25.3,FLT_001,51.12,10.12,8.0,0.388,0.14,56.16,54.16,55.86,55.05,51.622,96.3,0.3313,-3.500000000000014,0.3999999999999915,56.16,2.0,0.05024512788817633,0.6774127723912017,descent,False,
25.4,FLT_001,50.05,10.16,8.0,-0.742,0.144,53.84,55.61,54.59,53.92,51.583,96.1,0.3236,-10.700000000000003,0.40000000000000924,55.61,1.769999999999996,-0.7657750136829303,0.49258900603217426,descent,False,
25.5,FLT_001,50.77,10.2,8.0,4.456,0.103,53.95,53.27,55.4,54.06,51.534,96.4,0.3874,7.20000000000006,0.3999999999999915,55.4,2.1299999999999955,-1.0478540208174525,1.721531480238455,climb,False,
25.6,FLT_001,51.84,10.24,8.0,-0.325,0.101,54.97,54.82,54.06,53.48,51.555,96.4,0.368,10.700000000000003,0.40000000000000924,54.97,1.490000000000002,-1.635477373056503,1.2740451547431777,climb,False,
25.7,FLT_001,51.05,10.28,8.0,0.67,0.278,57.53,54.95,56.82,56.16,51.498,96.4,0.2769,-7.9000000000000625,0.3999999999999915,57.53,2.5799999999999983,1.9205728896353946,-0.5517696741004825,descent,False,
25.8,FLT_001,51.83,10.32,8.0,1.888,0.338,54.68,55.18,55.15,56.84,51.388,96.4,0.2475,7.800000000000011,0.40000000000000924,56.84,2.1600000000000037,0.9328477925391071,-1.14466523817042,climb,False,
25.9,FLT_001,52.2,10.36,8.0,1.849,0.447,55.83,54.19,55.35,55.8,51.444,96.7,0.2292,3.7000000000000455,0.3999999999999915,55.83,1.6400000000000006,-0.4316176429597151,-1.4530614821052237,climb,False,
26.0,FLT_001,51.55,10.4,8.0,0.467,0.356,53.82,55.49,56.35,54.14,51.448,96.4,0.3118,-6.500000000000057,0.40000000000000924,56.35,2.530000000000001,0.27945497541762965,0.1698049358666684,descent,False,
26.1,FLT_001,52.18,10.44,8.0,-0.322,0.465,54.28,56.16,54.65,54.02,51.507,96.7,0.3507,6.300000000000026,0.3999999999999915,56.16,2.1399999999999935,0.02312141911650347,0.9452111919909757,climb,False,
26.2,FLT_001,50.79,10.48,8.0,4.048,0.529,55.88,55.58,55.09,56.12,51.3,95.8,0.3572,-13.900000000000006,0.40000000000000924,56.12,1.029999999999994,-0.036913717871823716,1.0414463654776815,descent,False,
26.3,FLT_001,52.1,10.52,8.0,-0.2,0.379,56.2,54.92,56.97,56.58,51.525,95.6,0.2869,13.100000000000023,0.3999999999999915,56.97,2.049999999999997,1.1083685870799969,-0.3804809518648505,climb,False,
26.4,FLT_001,52.68,10.56,8.0,-0.883,0.433,53.02,53.97,52.74,54.68,51.271,96.3,0.3022,5.799999999999983,0.40000000000000924,54.68,1.9399999999999977,-1.8943965678794192,-0.0563472424672089,climb,False,
26.5,FLT_001,52.38,10.6,8.0,-1.292,0.382,53.79,54.19,56.09,53.25,51.511,96.3,0.3713,-2.9999999999999716,0.3999999999999915,56.09,2.8400000000000034,-0.042743349329352226,1.3262702341622468,descent,False,
26.6,FLT_001,54.03,10.64,8.0,-3.454,0.227,55.13,55.12,54.92,55.13,51.585,96.1,0.2618,16.499999999999986,0.40000000000000924,55.13,0.21000000000000085,-1.2806258187033297,-0.917857542824319,climb,False,
26.7,FLT_001,52.69,10.68,8.0,1.643,0.24,52.77,54.19,56.54,53.8,51.555,96.2,0.1762,-13.400000000000034,0.3999999999999915,56.54,3.769999999999996,0.5205362945055646,-2.4569498120586317,descent,False,
26.8,FLT_001,53.39,10.72,8.0,-4.696,0.294,56.67,53.59,53.47,54.05,51.374,96.5,0.3577,7.000000000000028,0.40000000000000924,56.67,3.200000000000003,0.6903723109894627,1.0192728011756624,climb,False,
26.9,FLT_001,53.87,10.76,8.0,-0.011,0.309,56.13,54.45,55.35,55.07,51.524,96.4,0.242,4.799999999999969,0.3999999999999915,56.13,1.6799999999999997,0.008741896308440527,-1.171792426318154,climb,False,
27.0,FLT_001,54.73,10.8,8.0,-0.41,0.298,54.95,56.27,55.77,53.86,51.53,96.1,0.2855,8.599999999999994,0.40000000000000924,56.27,2.4100000000000037,0.18522314447569158,-0.3411524455764189,climb,False,
27.1,FLT_001,53.49,10.84,8.0,4.48,0.265,54.72,56.74,55.32,53.49,51.628,96.2,0.3228,-12.399999999999949,0.3999999999999915,56.74,3.25,0.8681255346872615,0.36899398786253024,descent,False,
27.2,FLT_001,54.99,10.88,8.0,-3.663,0.512,53.56,55.89,55.7,54.08,51.492,96.4,0.2769,15.0,0.40000000000000924,55.89,2.3299999999999983,-0.2940534250860023,-0.47483193982790456,climb,False,
27.3,FLT_001,54.61,10.92,8.0,-1.802,0.394,55.75,56.6,56.46,56.6,51.557,95.8,0.354,-3.8000000000000256,0.3999999999999915,56.6,0.8500000000000014,0.7019052163229255,1.0075488475654841,descent,False,
27.4,FLT_001,54.32,10.96,8.0,-0.272,0.481,55.56,54.82,54.6,54.98,51.408,95.9,0.4336,-2.8999999999999915,0.40000000000000924,55.56,0.9600000000000009,-0.7698713379168504,2.3425469657065316,descent,False,
27.5,FLT_001,55.24,11.0,8.0,-0.395,0.483,54.12,54.64,56.28,53.39,51.365,96.4,0.2596,9.200000000000017,0.3999999999999915,56.28,2.8900000000000006,0.24843700884977216,-0.7829262993431271,climb,False,
27.6,FLT_001,55.31,11.04,8.0,-1.099,0.397,53.46,55.83,54.65,53.07,51.534,95.6,0.3067,0.7000000000000028,0.3999999999999915,55.83,2.759999999999998,-0.42739487095332485,0.11454662921317212,climb,False,
27.7,FLT_001,55.11,11.08,8.0,-0.162,0.392,54.94,54.8,54.57,55.69,51.534,95.7,0.3002,-2.0000000000000284,0.40000000000000924,55.69,1.1199999999999974,-0.6417597281376077,0.013684200025069586,descent,False,
27.8,FLT_001,55.64,11.12,8.0,-2.519,0.253,53.67,55.01,54.79,55.04,51.38,95.7,0.3156,5.300000000000011,0.3999999999999915,55.04,1.3699999999999974,-1.5652624525715877,0.3065652300591707,climb,False,
27.9,FLT_001,55.62,11.16,8.0,0.714,0.193,53.27,54.48,55.02,55.54,51.321,96.3,0.2698,-0.20000000000003126,0.40000000000000924,55.54,2.269999999999996,-0.7850461712645274,-0.5705877527988308,cruise,False,
28.0,FLT_001,56.07,11.2,8.0,-4.643,0.189,56.85,55.81,55.46,56.27,51.452,95.7,0.2675,4.500000000000028,0.3999999999999915,56.85,1.3900000000000006,1.1383473588715174,-0.6811473993588039,climb,False,
28.1,FLT_001,56.54,11.24,8.0,-0.052,0.034,54.7,56.55,56.12,54.55,51.442,96.3,0.2687,4.699999999999989,0.40000000000000924,56.55,2.0,0.6760207376838179,-0.6377039264381631,climb,False,
28.2,FLT_001,57.2,11.28,8.0,-1.201,0.084,56.92,55.45,57.19,55.3,51.459,95.9,0.2769,6.600000000000037,0.3999999999999915,57.19,1.8900000000000006,1.5622016422507758,-0.45061630246591267,climb,False,
28.3,FLT_001,55.99,11.32,8.0,2.033,359.988,54.44,54.23,54.64,54.43,51.522,96.5,0.2777,-12.100000000000009,0.40000000000000924,54.64,0.4100000000000037,-2.1601694711708257,-0.4600310470026629,descent,False,
28.4,FLT_001,57.88,11.36,8.0,3.511,359.843,56.27,54.97,53.39,55.21,51.535,96.0,0.1747,18.900000000000006,0.3999999999999915,56.27,2.8800000000000026,0.206370113525471,-2.359593883244221,climb,False,
28.5,FLT_001,56.03,11.4,8.0,-0.662,359.735,55.13,54.53,55.27,54.96,51.431,96.3,0.3044,-18.500000000000014,0.40000000000000924,55.27,0.740000000000002,-1.222309462808979,0.12669988936118443,descent,False,
28.6,FLT_001,57.13,11.44,8.0,2.781,359.952,55.63,55.57,55.36,53.7,51.328,96.1,0.2849,11.000000000000014,0.3999999999999915,55.63,1.9299999999999997,-0.721780336931866,-0.23403268337415095,climb,False,
28.7,FLT_001,57.7,11.48,8.0,-0.632,359.754,57.12,53.44,54.87,53.91,51.353,95.8,0.2641,5.700000000000003,0.40000000000000924,57.12,3.6799999999999997,1.4441091303147089,-0.6331561532465035,climb,False,
28.8,FLT_001,57.75,11.52,8.0,-1.932,359.798,55.4,55.14,54.83,56.52,51.364,95.9,0.3047,0.4999999999999716,0.3999999999999915,56.52,1.6900000000000048,0.557034600872042,0.13501099434897237,cruise,False,
28.9,FLT_001,57.5,11.56,8.0,3.492,359.723,56.11,54.67,55.8,56.56,51.41,95.9,0.2997,-2.5,0.40000000000000924,56.56,1.8900000000000006,0.6162165665516773,0.03704621566472637,descent,False,
29.0,FLT_001,57.91,11.6,8.0,1.042,359.688,56.1,54.86,53.41,55.32,51.368,95.8,0.2801,4.099999999999966,0.3999999999999915,56.1,2.690000000000005,-0.03698815819075304,-0.36186062195865215,climb,False,
29.1,FLT_001,57.96,11.64,8.0,0.009,359.748,55.67,54.23,55.02,54.92,51.393,96.1,0.3004,0.5000000000000426,0.40000000000000924,55.67,1.4400000000000048,-0.6358220369977224,0.05517604746015234,climb,False,
29.2,FLT_001,58.12,11.68,8.0,1.374,359.804,56.39,56.85,56.18,54.91,51.423,96.6,0.2709,1.599999999999966,0.3999999999999915,56.85,1.9400000000000048,1.1785277131090186,-0.5153245108416394,climb,False,
29.3,FLT_001,59.03,11.72,8.0,0.548,359.736,56.15,55.65,54.93,57.09,51.35,95.9,0.2416,9.100000000000037,0.40000000000000924,57.09,2.1600000000000037,1.5161358585643054,-1.0925643209247105,climb,False,
29.4,FLT_001,58.99,11.76,8.0,-0.138,359.6,54.26,55.6,55.84,54.71,51.444,96.0,0.3981,-0.3999999999999915,0.3999999999999915,55.84,1.5800000000000054,-0.3998585882212201,1.8769753542418022,cruise,False,
29.5,FLT_001,58.66,11.8,8.0,-2.653,359.662,55.56,55.95,55.24,55.47,51.593,96.0,0.2752,-3.300000000000054,0.40000000000000924,55.95,0.7100000000000009,-0.22029236040526146,-0.4440086539413181,descent,False,
29.6,FLT_001,59.66,11.84,8.0,-0.541,359.717,55.11,55.8,54.77,54.69,51.391,95.0,0.3133,10.0,0.3999999999999915,55.8,1.1099999999999994,-0.43823449366430817,0.27186391904717055,climb,False,
29.7,FLT_001,59.56,11.88,8.0,1.247,359.689,55.02,56.18,53.25,54.09,51.338,95.9,0.4298,-0.9999999999999432,0.40000000000000924,56.18,2.9299999999999997,0.12139176278456457,2.326903542221399,descent,False,
29.8,FLT_001,60.02,11.92,8.0,-0.246,359.733,57.28,55.28,54.59,55.79,51.435,95.9,0.2793,4.6000000000000085,0.3999999999999915,57.28,2.6899999999999977,1.7289501138243706,-0.403969913276782,climb,False,
29.9,FLT_001,60.12,11.96,8.0,1.805,359.688,54.21,52.9,55.35,54.27,51.322,95.4,0.323,0.9999999999999432,0.40000000000000924,55.35,2.450000000000003,-1.1366555126769537,0.3770275610999136,climb,False,
30.0,FLT_001,59.6,12.0,8.0,0.767,359.606,55.1,55.33,55.14,53.29,51.385,95.2,0.4163,-5.19999999999996,0.3999999999999915,55.33,2.039999999999999,-1.1310658021753148,1.9474872933241083,descent,False,
30.1,FLT_001,59.93,12.04,8.0,-1.756,359.606,55.03,55.44,53.6,53.48,51.33,95.9,0.2175,3.299999999999983,0.3999999999999915,55.44,1.9600000000000009,-0.9328809909988294,-1.4734607384177683,climb,False,
30.2,FLT_001,60.78,12.08,8.0,-2.638,359.658,53.93,55.75,53.0,55.83,51.289,96.2,0.3667,8.500000000000014,0.40000000000000924,55.83,2.8299999999999983,-0.361990073250503,1.1201525848240739,climb,False,
