timestamp_s,flight_id,altitude_m,airspeed_ms,pitch_deg,roll_deg,yaw_deg,motor1_temp_c,motor2_temp_c,motor3_temp_c,motor4_temp_c,battery_v,battery_pct,vibration_g
0.0,FLT_005,0.0,0.0,8.0,-0.248,0.128,55.23,55.84,54.23,55.19,52.07,100.0,0.3154
0.1,FLT_005,0.69,0.04,8.0,-0.106,0.175,55.24,55.28,56.63,54.05,51.897,99.9,0.2798
0.2,FLT_005,0.29,0.08,8.0,0.801,0.174,54.78,55.95,54.81,54.98,52.13,100.0,0.1641
0.3,FLT_005,0.44,0.12,8.0,2.508,0.077,54.34,54.22,56.41,54.61,51.85,100.0,0.4112
0.4,FLT_005,0.89,0.16,8.0,0.975,0.063,53.82,54.92,53.24,54.96,51.975,99.6,0.3292
0.5,FLT_005,0.0,0.2,8.0,1.103,0.057,55.99,55.83,55.62,54.57,52.171,99.5,0.302
0.6,FLT_005,1.36,0.24,8.0,-1.823,359.973,55.48,55.56,53.58,53.5,52.039,99.4,0.3216
0.7,FLT_005,0.79,0.28,8.0,-1.035,359.856,55.03,55.35,53.89,56.72,51.953,99.8,0.348
0.8,FLT_005,1.15,0.32,8.0,-2.07,0.041,54.04,54.94,54.63,55.85,51.892,100.0,0.2225
0.9,FLT_005,2.2,0.36,8.0,-3.5,0.095,55.14,55.51,54.63,52.34,51.954,99.9,0.2723
1.0,FLT_005,2.28,0.4,8.0,-1.913,0.126,56.76,54.51,53.4,52.45,52.117,99.7,0.3278
1.1,FLT_005,2.73,0.44,8.0,1.697,0.031,55.14,56.89,54.38,54.62,51.99,100.0,0.2739
1.2,FLT_005,2.74,0.48,8.0,-1.278,0.044,55.26,54.25,54.26,54.86,51.973,99.6,0.314
1.3,FLT_005,3.32,0.52,8.0,2.162,359.932,54.22,54.93,55.28,53.96,51.854,100.0,0.2489
1.4,FLT_005,2.05,0.56,8.0,1.134,0.075,56.18,54.45,56.11,55.19,51.759,99.8,0.4007
1.5,FLT_005,2.64,0.6,8.0,0.905,359.852,53.97,54.64,54.81,55.22,52.072,99.7,0.216
1.6,FLT_005,3.07,0.64,8.0,-1.504,359.763,54.02,54.35,54.63,53.67,52.159,100.0,0.2961
1.7,FLT_005,3.47,0.68,8.0,1.306,359.718,54.48,54.84,54.37,58.61,52.106,100.0,0.2504
1.8,FLT_005,3.29,0.72,8.0,-5.084,359.687,56.32,56.57,53.82,54.27,51.971,100.0,0.2548
1.9,FLT_005,3.98,0.76,8.0,0.336,359.546,55.34,55.83,55.13,54.83,52.039,99.6,0.3352
2.0,FLT_005,4.37,0.8,8.0,3.585,359.553,55.36,54.59,54.68,55.48,51.958,100.0,0.2779
2.1,FLT_005,4.48,0.84,8.0,-1.253,359.421,55.41,53.3,56.03,56.27,51.914,99.3,0.3108
2.2,FLT_005,4.43,0.88,8.0,2.486,359.535,54.31,55.61,54.12,55.01,52.038,99.6,0.2828
2.3,FLT_005,4.12,0.92,8.0,0.048,359.414,54.05,53.66,54.05,53.92,52.081,99.9,0.3297
2.4,FLT_005,5.32,0.96,8.0,-1.168,359.442,52.76,54.7,54.5,55.78,51.902,99.6,0.281
2.5,FLT_005,5.74,1.0,8.0,2.091,359.47,55.79,55.26,55.13,56.44,52.052,99.8,0.2901
2.6,FLT_005,5.84,1.04,8.0,-0.94,359.309,54.58,56.82,53.06,54.69,52.099,99.5,0.2833
2.7,FLT_005,5.63,1.08,8.0,-0.504,359.241,53.25,55.62,55.59,55.91,51.955,99.9,0.2761
2.8,FLT_005,6.18,1.12,8.0,4.479,359.368,56.13,53.87,55.37,55.54,52.068,99.4,0.2919
2.9,FLT_005,4.91,1.16,8.0,-0.847,359.376,54.0,55.56,52.82,54.56,51.972,99.9,0.2321
3.0,FLT_005,6.8,1.2,8.0,1.986,359.531,53.5,53.89,54.63,55.18,51.947,99.6,0.2201
3.1,FLT_005,6.34,1.24,8.0,-0.402,359.321,54.09,55.45,53.51,54.74,52.103,100.0,0.2671
3.2,FLT_005,6.36,1.28,8.0,-2.811,359.37,55.43,55.12,55.37,54.71,51.795,99.8,0.2763
3.3,FLT_005,6.45,1.32,8.0,-0.597,359.51,54.7,54.82,54.99,53.72,51.812,99.4,0.3739
3.4,FLT_005,7.0,1.36,8.0,0.418,359.455,55.09,55.08,55.5,54.49,51.913,99.4,0.3269
3.5,FLT_005,6.52,1.4,8.0,3.012,359.49,54.35,55.24,54.62,54.32,51.832,99.6,0.3509
3.6,FLT_005,6.94,1.44,8.0,-2.463,359.497,54.4,52.81,54.94,54.64,51.726,99.7,0.2959
3.7,FLT_005,7.88,1.48,8.0,1.175,359.511,57.09,55.99,55.87,54.55,51.909,99.9,0.2571
3.8,FLT_005,6.19,1.52,8.0,2.681,359.334,56.32,54.89,56.01,53.96,52.058,99.3,0.2624
3.9,FLT_005,7.61,1.56,8.0,0.561,359.345,55.73,53.99,55.02,55.4,51.963,100.0,0.3327
4.0,FLT_005,8.54,1.6,8.0,-1.665,359.463,54.6,54.75,56.28,55.18,51.967,99.1,0.2936
4.1,FLT_005,8.5,1.64,8.0,-3.755,359.374,53.12,55.95,55.54,55.04,52.045,98.9,0.2914
4.2,FLT_005,8.85,1.68,8.0,0.792,359.416,55.09,55.46,54.59,56.75,51.967,99.5,0.31
4.3,FLT_005,8.94,1.72,8.0,3.518,359.433,55.71,52.76,55.58,56.23,51.867,99.3,0.2596
4.4,FLT_005,9.1,1.76,8.0,-1.609,359.4,55.76,56.44,55.65,56.57,51.999,99.6,0.278
4.5,FLT_005,9.16,1.8,8.0,1.724,359.459,54.46,50.75,55.07,57.11,51.943,99.9,0.2755
4.6,FLT_005,9.21,1.84,8.0,-0.304,359.55,56.12,54.49,56.22,56.76,51.89,99.1,0.3653
4.7,FLT_005,9.38,1.88,8.0,0.827,359.668,53.69,56.62,53.2,55.17,51.788,99.3,0.2417
4.8,FLT_005,9.43,1.92,8.0,1.445,359.595,55.21,54.23,54.79,55.36,51.927,99.9,0.3761
4.9,FLT_005,10.13,1.96,8.0,-0.409,359.678,54.51,56.09,54.0,54.5,51.848,99.4,0.2505
5.0,FLT_005,10.33,2.0,8.0,-2.513,359.555,55.16,54.69,54.27,56.09,51.976,99.0,0.3015
5.1,FLT_005,10.56,2.04,8.0,-2.466,359.55,55.85,52.78,54.86,55.23,51.908,99.5,0.2958
5.2,FLT_005,9.94,2.08,8.0,-2.77,359.423,55.04,53.52,54.94,54.68,52.045,98.9,0.2612
5.3,FLT_005,10.41,2.12,8.0,-4.439,359.366,55.82,53.46,53.98,53.28,51.875,99.1,0.3014
5.4,FLT_005,10.69,2.16,8.0,3.236,359.514,55.31,54.74,54.63,54.8,51.98,99.0,0.3895
5.5,FLT_005,10.82,2.2,8.0,2.97,359.392,56.27,55.65,52.6,55.46,51.678,99.6,0.3189
5.6,FLT_005,11.57,2.24,8.0,-2.418,359.398,55.02,55.29,55.78,55.48,51.775,99.5,0.2708
5.7,FLT_005,10.86,2.28,8.0,0.883,359.404,53.58,55.4,54.59,55.09,52.005,99.4,0.3289
5.8,FLT_005,12.17,2.32,8.0,1.337,359.58,55.1,54.38,53.97,54.61,51.796,99.7,0.2924
5.9,FLT_005,11.85,2.36,8.0,0.942,359.4,56.39,53.4,56.83,55.08,51.815,98.9,0.347
6.0,FLT_005,12.02,2.4,8.0,-0.487,359.299,55.83,54.77,54.62,56.57,51.974,98.7,0.2378
6.1,FLT_005,11.85,2.44,8.0,1.849,359.266,55.36,52.79,55.77,55.4,51.789,99.4,0.3109
6.2,FLT_005,12.19,2.48,8.0,-0.764,359.294,55.18,54.9,53.76,55.57,51.969,98.4,0.3244
6.3,FLT_005,12.61,2.52,8.0,1.315,359.301,54.16,54.96,54.13,56.51,51.796,98.8,0.3549
6.4,FLT_005,12.91,2.56,8.0,3.164,359.275,53.88,55.06,57.65,54.44,51.887,99.1,0.3374
6.5,FLT_005,13.19,2.6,8.0,-0.649,359.158,52.07,57.22,53.87,55.05,51.881,99.4,0.3122
6.6,FLT_005,12.97,2.64,8.0,-2.883,359.076,54.4,56.46,54.4,55.91,51.982,98.9,0.2931
6.7,FLT_005,13.0,2.68,8.0,4.343,359.18,53.58,54.98,54.41,54.49,52.006,99.6,0.3022
6.8,FLT_005,13.79,2.72,8.0,1.021,359.162,55.29,53.93,54.1,55.38,51.747,98.6,0.305
6.9,FLT_005,14.89,2.76,8.0,0.949,359.156,56.1,53.9,54.73,53.69,51.833,98.8,0.2966
7.0,FLT_005,13.58,2.8,8.0,-0.202,359.175,53.35,54.97,55.97,54.8,51.715,99.0,0.2409
7.1,FLT_005,14.16,2.84,8.0,-0.527,359.378,54.49,55.21,54.69,54.6,51.882,99.0,0.3416
7.2,FLT_005,14.45,2.88,8.0,1.87,359.417,55.14,55.22,54.92,55.62,51.946,99.0,0.326
7.3,FLT_005,14.79,2.92,8.0,-2.225,359.504,54.88,54.26,54.19,54.53,51.797,98.6,0.344
7.4,FLT_005,14.33,2.96,8.0,-1.171,359.602,54.08,54.63,54.94,53.44,52.015,99.3,0.3144
7.5,FLT_005,15.5,3.0,8.0,1.174,359.753,55.0,56.46,53.64,54.03,51.712,98.8,0.3491
7.6,FLT_005,16.57,3.04,8.0,-1.997,359.596,54.73,55.82,54.94,54.79,51.854,98.8,0.214
7.7,FLT_005,15.33,3.08,8.0,-0.441,359.568,55.03,54.21,53.7,55.28,51.903,98.4,0.1916
7.8,FLT_005,15.63,3.12,8.0,1.061,359.589,54.16,55.86,54.04,55.92,52.006,98.6,0.2464
7.9,FLT_005,15.11,3.16,8.0,0.928,359.647,55.68,57.17,54.11,55.22,51.949,98.8,0.3158
8.0,FLT_005,16.32,3.2,8.0,0.933,359.668,54.77,55.43,56.12,55.8,51.947,98.8,0.2798
8.1,FLT_005,16.3,3.24,8.0,-2.032,359.882,54.17,54.87,53.54,57.19,51.896,98.9,0.368
8.2,FLT_005,15.1,3.28,8.0,-3.84,359.747,54.42,54.24,55.71,54.6,51.835,98.6,0.3079
8.3,FLT_005,16.45,3.32,8.0,0.631,359.603,56.26,55.68,53.78,54.9,51.956,98.4,0.3602
8.4,FLT_005,17.46,3.36,8.0,-1.076,359.651,53.09,56.85,54.94,54.37,51.804,98.9,0.3267
8.5,FLT_005,18.01,3.4,8.0,-2.902,359.904,55.84,53.26,54.85,56.44,51.82,99.1,0.3029
8.6,FLT_005,17.2,3.44,8.0,1.026,359.825,55.71,56.67,55.41,56.01,51.749,98.9,0.3805
8.7,FLT_005,18.17,3.48,8.0,3.977,359.992,54.42,54.93,53.57,55.06,51.855,99.0,0.2849
8.8,FLT_005,17.92,3.52,8.0,2.659,0.048,54.2,56.08,55.46,55.37,51.877,98.3,0.2794
8.9,FLT_005,17.79,3.56,8.0,2.669,0.146,54.87,54.3,55.05,55.63,51.813,99.3,0.3255
9.0,FLT_005,18.57,3.6,8.0,-3.094,0.093,55.25,54.21,53.99,55.42,51.684,98.2,0.2902
9.1,FLT_005,18.27,3.64,8.0,-1.6,0.081,53.7,55.39,53.44,56.33,51.911,97.9,0.2784
9.2,FLT_005,17.97,3.68,8.0,2.43,0.096,55.33,54.93,55.75,55.62,51.901,99.0,0.3209
9.3,FLT_005,19.18,3.72,8.0,1.484,0.058,54.48,54.94,55.94,54.94,51.783,98.7,0.3628
9.4,FLT_005,18.76,3.76,8.0,-2.483,0.091,54.7,54.87,54.31,55.87,51.668,98.3,0.2786
9.5,FLT_005,18.95,3.8,8.0,0.383,0.082,56.17,55.07,55.64,54.34,51.812,98.9,0.3152
9.6,FLT_005,18.91,3.84,8.0,-4.829,0.007,54.26,55.57,53.0,53.57,51.685,98.8,0.1979
9.7,FLT_005,20.14,3.88,8.0,-4.693,0.007,53.44,56.54,53.27,55.82,51.852,98.8,0.256
9.8,FLT_005,19.19,3.92,8.0,-0.845,0.122,57.0,52.56,54.48,55.92,51.75,98.5,0.3208
9.9,FLT_005,19.69,3.96,8.0,0.725,359.935,53.65,55.64,55.16,53.12,51.881,98.3,0.248
10.0,FLT_005,19.34,4.0,8.0,-0.715,359.896,55.17,54.53,55.4,56.32,51.865,98.7,0.2325
10.1,FLT_005,19.2,4.04,8.0,-1.389,359.692,55.3,56.5,55.5,54.62,51.79,99.1,0.2537
10.2,FLT_005,19.7,4.08,8.0,1.279,359.607,57.27,54.26,55.6,55.64,51.804,98.4,0.3243
10.3,FLT_005,20.99,4.12,8.0,-2.672,359.49,55.13,56.89,55.83,55.55,51.855,98.7,0.3709
10.4,FLT_005,21.57,4.16,8.0,4.176,359.451,54.55,57.09,55.16,57.31,51.93,98.4,0.2937
10.5,FLT_005,20.99,4.2,8.0,-3.31,359.678,54.37,55.0,56.68,54.31,51.907,98.5,0.289
10.6,FLT_005,22.09,4.24,8.0,0.496,359.674,54.65,54.01,56.39,54.34,51.89,98.5,0.3149
10.7,FLT_005,21.1,4.28,8.0,-1.903,359.534,54.54,53.98,55.24,54.33,51.748,98.6,0.2827
10.8,FLT_005,21.8,4.32,8.0,0.194,359.537,53.54,52.81,54.55,56.23,51.828,98.8,0.2618
10.9,FLT_005,22.06,4.36,8.0,-0.077,359.657,55.86,54.98,54.82,54.77,51.825,98.7,0.308
11.0,FLT_005,22.99,4.4,8.0,0.041,359.615,56.51,55.75,53.81,54.99,51.734,98.0,0.3171
11.1,FLT_005,22.47,4.44,8.0,0.989,359.543,54.15,54.28,55.51,54.33,51.841,98.5,0.2767
11.2,FLT_005,23.22,4.48,8.0,-1.511,359.397,55.18,55.57,54.05,55.43,51.913,98.1,0.3802
11.3,FLT_005,23.03,4.52,8.0,-1.638,359.425,54.91,55.46,53.97,55.49,51.729,98.5,0.3771
11.4,FLT_005,23.09,4.56,8.0,3.762,359.638,55.71,55.84,54.93,54.67,51.817,98.2,0.3225
11.5,FLT_005,23.45,4.6,8.0,-3.143,359.494,55.13,57.29,55.46,54.65,51.899,98.3,0.1657
11.6,FLT_005,23.21,4.64,8.0,-0.414,359.717,53.95,54.53,55.54,55.14,51.633,98.8,0.4459
11.7,FLT_005,23.78,4.68,8.0,3.209,359.719,55.52,56.05,53.59,55.84,51.804,98.8,0.2397
11.8,FLT_005,23.25,4.72,8.0,-4.968,359.689,54.24,55.14,54.97,56.44,51.806,97.9,0.3568
11.9,FLT_005,24.5,4.76,8.0,0.285,359.695,54.2,53.87,56.24,55.1,51.585,98.8,0.2352
12.0,FLT_005,24.44,4.8,8.0,-0.892,359.719,53.71,55.64,55.65,54.72,51.764,97.6,0.3423
12.1,FLT_005,25.23,4.84,8.0,0.212,359.736,55.49,54.19,53.46,54.03,51.907,98.6,0.2696
12.2,FLT_005,24.07,4.88,8.0,-2.415,359.744,56.58,55.97,56.23,55.84,51.868,98.2,0.1707
12.3,FLT_005,25.13,4.92,8.0,1.221,359.817,56.2,55.98,53.63,53.84,51.597,98.7,0.3621
12.4,FLT_005,25.34,4.96,8.0,1.515,359.704,53.89,54.25,55.36,54.06,51.848,97.9,0.2406
12.5,FLT_005,24.72,5.0,8.0,-0.945,359.793,53.94,54.66,56.05,55.0,51.865,98.6,0.3004
12.6,FLT_005,25.5,5.04,8.0,3.948,359.774,54.23,53.39,55.94,55.6,51.822,98.4,0.3195
12.7,FLT_005,26.56,5.08,8.0,-1.847,359.794,54.18,57.0,55.26,54.56,51.823,97.6,0.2801
12.8,FLT_005,25.0,5.12,8.0,-0.054,359.796,55.57,56.66,54.88,53.93,51.871,98.1,0.2294
12.9,FLT_005,25.96,5.16,8.0,-0.221,359.889,54.04,55.57,55.39,54.93,51.512,98.3,0.3212
13.0,FLT_005,24.97,5.2,8.0,1.163,359.918,55.15,56.35,55.37,53.65,51.874,97.9,0.2713
13.1,FLT_005,26.08,5.24,8.0,0.114,359.904,55.5,55.87,56.02,53.12,51.817,98.8,0.3855
13.2,FLT_005,26.36,5.28,8.0,0.269,0.065,54.05,54.06,56.0,54.58,51.739,97.9,0.269
13.3,FLT_005,27.09,5.32,8.0,-1.846,359.974,55.7,55.21,56.2,55.45,51.785,98.1,0.2862
13.4,FLT_005,26.99,5.36,8.0,3.754,0.008,54.42,55.23,56.58,54.68,51.719,98.0,0.2665
13.5,FLT_005,26.3,5.4,8.0,2.308,359.981,54.91,54.82,53.87,56.64,52.009,97.7,0.3113
13.6,FLT_005,28.5,5.44,8.0,1.654,0.075,54.64,54.87,54.97,56.1,51.674,98.0,0.2964
13.7,FLT_005,26.9,5.48,8.0,1.341,359.973,52.81,54.2,56.49,54.1,51.662,98.4,0.3069
13.8,FLT_005,27.68,5.52,8.0,0.649,0.056,55.29,55.15,53.99,55.76,51.69,97.6,0.3693
13.9,FLT_005,27.21,5.56,8.0,3.162,0.018,55.77,55.54,55.01,55.56,51.776,97.9,0.2712
14.0,FLT_005,28.18,5.6,8.0,-1.45,0.092,55.93,54.55,54.18,53.96,51.736,97.6,0.2985
14.1,FLT_005,27.92,5.64,8.0,2.483,0.098,56.42,54.06,53.45,56.58,51.691,98.3,0.3273
14.2,FLT_005,28.14,5.68,8.0,1.907,0.003,53.98,55.22,54.48,54.5,51.729,97.7,0.3447
14.3,FLT_005,28.76,5.72,8.0,-2.364,359.925,56.08,54.34,54.69,55.35,51.757,97.9,0.2402
14.4,FLT_005,29.04,5.76,8.0,-2.276,0.037,53.77,55.07,55.28,52.04,51.811,97.7,0.2888
14.5,FLT_005,29.73,5.8,8.0,1.455,0.038,55.58,56.84,55.33,54.36,51.687,97.6,0.3029
14.6,FLT_005,28.99,5.84,8.0,1.213,0.064,54.27,56.24,56.21,55.61,51.763,97.7,0.2575
14.7,FLT_005,30.37,5.88,8.0,3.735,0.121,57.2,56.56,56.45,56.14,51.802,98.1,0.3027
14.8,FLT_005,28.97,5.92,8.0,0.352,0.048,55.24,52.72,55.48,56.33,51.638,97.9,0.2984
14.9,FLT_005,29.71,5.96,8.0,-0.467,0.231,54.2,55.08,54.21,53.6,51.683,98.1,0.2238
15.0,FLT_005,29.94,6.0,8.0,1.563,0.12,53.06,55.32,55.39,54.2,51.58,98.4,0.3329
15.1,FLT_005,30.39,6.04,8.0,1.149,0.08,56.05,52.16,56.35,55.81,51.602,98.2,0.2956
15.2,FLT_005,30.48,6.08,8.0,-1.744,0.018,53.6,54.55,54.19,55.07,51.853,97.9,0.3615
15.3,FLT_005,30.69,6.12,8.0,-0.141,359.974,54.73,54.43,53.86,56.55,51.714,98.4,0.2558
15.4,FLT_005,30.87,6.16,8.0,-1.462,0.084,52.98,56.46,53.91,54.96,51.785,97.8,0.2685
15.5,FLT_005,30.5,6.2,8.0,2.736,0.16,53.0,56.65,55.74,54.88,51.661,97.6,0.3058
15.6,FLT_005,30.91,6.24,8.0,1.325,0.189,54.87,55.99,56.46,54.17,51.851,97.8,0.3358
15.7,FLT_005,30.31,6.28,8.0,-0.309,359.979,54.87,56.26,54.71,55.66,51.733,97.4,0.3123
15.8,FLT_005,30.95,6.32,8.0,1.746,359.962,54.85,54.78,53.92,57.06,51.73,98.0,0.2909
15.9,FLT_005,31.32,6.36,8.0,2.046,359.898,55.85,53.32,56.74,56.26,51.643,97.4,0.3434
16.0,FLT_005,31.93,6.4,8.0,-1.287,359.815,54.39,55.69,54.89,53.76,51.788,98.1,0.3689
16.1,FLT_005,31.71,6.44,8.0,1.272,359.897,54.4,53.79,55.14,55.52,51.54,98.1,0.288
16.2,FLT_005,32.15,6.48,8.0,-0.619,0.049,55.28,55.06,55.0,54.2,51.424,98.2,0.4097
16.3,FLT_005,32.41,6.52,8.0,-0.69,0.209,53.35,54.41,55.18,55.24,51.546,97.4,0.3063
16.4,FLT_005,33.09,6.56,8.0,0.069,0.169,55.25,55.77,56.64,55.55,51.76,98.1,0.3138
16.5,FLT_005,33.42,6.6,8.0,-2.015,0.238,54.69,53.58,56.29,55.52,52.047,97.9,0.2765
16.6,FLT_005,33.89,6.64,8.0,0.529,0.122,55.52,56.36,53.94,55.06,51.585,97.1,0.3891
16.7,FLT_005,32.5,6.68,8.0,-0.326,359.992,55.67,52.6,54.88,54.45,51.682,98.0,0.2558
16.8,FLT_005,33.58,6.72,8.0,-0.116,0.1,55.68,56.44,54.71,55.9,51.717,97.7,0.2819
16.9,FLT_005,33.67,6.76,8.0,1.769,0.088,55.26,53.62,55.55,55.11,51.773,97.3,0.2918
17.0,FLT_005,34.64,6.8,8.0,0.568,0.184,52.55,53.76,55.78,56.09,51.718,97.3,0.2601
17.1,FLT_005,34.4,6.84,8.0,-1.527,0.1,56.33,55.4,55.26,54.84,51.702,97.4,0.3018
17.2,FLT_005,34.73,6.88,8.0,2.366,0.195,55.32,54.64,55.59,55.01,51.526,97.4,0.2709
17.3,FLT_005,35.2,6.92,8.0,-0.505,0.281,55.74,55.73,54.12,54.11,51.737,98.4,0.2983
17.4,FLT_005,34.65,6.96,8.0,1.353,0.195,55.55,54.82,54.46,54.01,51.648,97.4,0.284
17.5,FLT_005,35.08,7.0,8.0,-3.702,0.307,54.78,55.43,51.38,53.58,51.888,98.0,0.3289
17.6,FLT_005,35.84,7.04,8.0,-0.895,0.313,56.22,54.51,56.26,54.01,51.734,96.3,0.3548
17.7,FLT_005,34.97,7.08,8.0,-3.988,0.259,55.1,54.82,53.35,55.76,51.674,97.2,0.2994
17.8,FLT_005,36.3,7.12,8.0,0.5,0.059,53.69,54.11,55.06,53.3,51.645,97.2,0.445
17.9,FLT_005,35.85,7.16,8.0,-3.136,0.097,55.81,55.65,55.38,53.05,51.651,97.3,0.311
18.0,FLT_005,34.39,7.2,8.0,1.821,0.094,55.5,57.15,54.6,55.82,51.686,97.8,0.2632
18.1,FLT_005,36.66,7.24,8.0,1.773,0.031,55.24,53.78,54.7,56.46,51.711,97.1,0.2161
18.2,FLT_005,36.19,7.28,8.0,-0.243,359.982,53.91,55.69,56.3,56.35,51.408,97.5,0.2893
18.3,FLT_005,36.16,7.32,8.0,-1.14,359.783,56.04,55.01,56.18,54.62,51.669,97.7,0.2923
18.4,FLT_005,36.96,7.36,8.0,0.127,359.654,55.18,54.19,55.86,54.09,51.776,97.2,0.3988
18.5,FLT_005,36.86,7.4,8.0,1.992,359.532,55.7,56.77,54.23,55.54,51.655,97.4,0.2179
18.6,FLT_005,37.32,7.44,8.0,1.392,359.572,55.09,55.11,56.32,57.22,51.638,97.8,0.3353
18.7,FLT_005,36.9,7.48,8.0,-4.167,359.506,54.51,54.46,55.74,53.5,51.667,97.4,0.2676
18.8,FLT_005,38.33,7.52,8.0,-1.174,359.472,54.58,54.9,53.29,54.81,51.668,96.4,0.3434
18.9,FLT_005,37.49,7.56,8.0,-0.527,359.44,54.8,54.06,52.48,56.21,51.65,97.0,0.2783
19.0,FLT_005,38.42,7.6,8.0,2.603,359.444,54.51,56.04,56.24,54.62,51.628,97.4,0.3059
19.1,FLT_005,38.76,7.64,8.0,3.77,359.431,56.43,55.62,54.8,55.4,51.472,96.8,0.3371
19.2,FLT_005,38.68,7.68,8.0,0.216,359.501,55.22,55.43,55.6,54.46,51.578,97.8,0.2743
19.3,FLT_005,38.26,7.72,8.0,1.742,359.536,54.61,54.23,54.94,53.94,51.636,97.6,0.2969
19.4,FLT_005,38.23,7.76,8.0,-1.976,359.445,55.25,56.95,54.98,54.82,51.675,97.1,0.2273
19.5,FLT_005,38.8,7.8,8.0,0.435,359.562,54.05,55.64,54.79,55.95,51.501,97.0,0.3239
19.6,FLT_005,39.15,7.84,8.0,-3.648,359.503,55.05,54.57,54.97,54.59,51.691,97.1,0.2845
19.7,FLT_005,39.23,7.88,8.0,-0.719,359.503,54.19,54.98,54.63,56.05,51.406,97.0,0.2924
19.8,FLT_005,39.78,7.92,8.0,-0.472,359.572,54.66,55.35,53.93,55.14,51.645,97.5,0.3254
19.9,FLT_005,39.08,7.96,8.0,-1.724,359.702,55.03,54.42,56.11,54.7,51.535,96.7,0.2905
20.0,FLT_005,39.83,8.0,8.0,-2.251,359.672,53.81,54.86,54.73,55.81,51.653,97.3,0.3228
20.1,FLT_005,40.64,8.04,8.0,1.961,359.687,53.68,54.97,54.34,55.98,51.798,97.3,0.3789
20.2,FLT_005,40.28,8.08,8.0,1.928,359.664,55.94,54.65,53.7,55.4,51.409,96.9,0.2337
20.3,FLT_005,41.23,8.12,8.0,-2.359,359.5,56.58,56.34,55.21,54.38,51.531,96.9,0.3183
20.4,FLT_005,40.07,8.16,8.0,-1.771,359.68,53.01,57.1,55.11,55.61,51.67,96.5,0.3785
20.5,FLT_005,41.25,8.2,8.0,-2.011,359.61,55.78,55.08,55.03,54.2,51.451,97.2,0.2471
20.6,FLT_005,41.48,8.24,8.0,2.383,359.482,55.15,55.74,54.15,54.59,51.518,96.5,0.2945
20.7,FLT_005,41.83,8.28,8.0,0.868,359.399,54.11,53.39,55.15,56.22,51.781,96.2,0.3299
20.8,FLT_005,42.2,8.32,8.0,-2.099,359.525,54.17,55.82,53.04,54.11,51.583,97.4,0.3027
20.9,FLT_005,42.09,8.36,8.0,-1.099,359.508,55.81,55.87,54.68,54.48,51.642,96.9,0.2756
21.0,FLT_005,40.98,8.4,8.0,-0.567,359.531,56.55,54.97,55.5,54.26,51.489,96.8,0.3448
21.1,FLT_005,42.57,8.44,8.0,-2.326,359.584,54.71,55.54,54.11,54.61,51.659,97.0,0.2713
21.2,FLT_005,41.87,8.48,8.0,-1.543,359.55,54.29,54.27,53.57,55.48,51.488,96.8,0.2982
21.3,FLT_005,42.46,8.52,8.0,0.119,359.707,54.68,53.86,54.89,53.85,51.575,97.1,0.3163
21.4,FLT_005,42.92,8.56,8.0,0.1,359.705,55.61,54.93,55.21,54.49,51.66,97.2,0.3053
21.5,FLT_005,43.59,8.6,8.0,-1.817,359.777,56.45,55.06,53.63,55.08,51.647,97.3,0.2687
21.6,FLT_005,43.42,8.64,8.0,0.623,359.747,54.82,54.7,55.46,54.11,51.721,97.3,0.2594
21.7,FLT_005,43.48,8.68,8.0,-0.584,359.647,54.9,55.69,54.97,57.21,51.759,97.2,0.3152
21.8,FLT_005,42.82,8.72,8.0,1.625,359.541,53.14,56.3,55.14,53.24,51.719,97.0,0.3369
21.9,FLT_005,43.96,8.76,8.0,0.416,359.557,55.38,56.16,55.44,55.65,51.587,97.0,0.2463
22.0,FLT_005,44.26,8.8,8.0,-0.282,359.377,54.37,54.23,55.5,54.73,51.516,96.9,0.3794
22.1,FLT_005,42.81,8.84,8.0,-1.12,359.417,54.86,54.57,54.7,53.37,51.523,96.6,0.3255
22.2,FLT_005,44.41,8.88,8.0,-1.288,359.31,55.95,54.45,53.92,54.0,51.399,96.8,0.3937
22.3,FLT_005,44.14,8.92,8.0,-0.054,359.08,53.98,55.36,54.9,54.27,51.647,97.0,0.389
22.4,FLT_005,44.04,8.96,8.0,-2.773,359.108,56.43,54.24,53.16,54.73,51.572,96.7,0.3566
22.5,FLT_005,45.26,9.0,8.0,1.943,359.152,53.18,55.29,54.73,54.85,51.397,96.9,0.3446
22.6,FLT_005,45.17,9.04,8.0,0.107,359.159,56.69,57.19,54.56,55.02,51.527,96.7,0.2887
22.7,FLT_005,45.97,9.08,8.0,-0.31,359.368,54.0,56.68,54.62,54.65,51.418,96.8,0.2914
22.8,FLT_005,45.76,9.12,8.0,0.174,359.242,55.01,53.95,55.23,53.63,51.594,96.6,0.3089
22.9,FLT_005,45.22,9.16,8.0,-0.392,359.144,55.73,53.68,53.92,55.18,51.506,97.2,0.2641
23.0,FLT_005,46.36,9.2,8.0,0.008,359.281,53.83,55.24,55.01,54.84,51.555,97.2,0.2558
23.1,FLT_005,46.16,9.24,8.0,-1.669,359.128,52.32,54.61,55.09,55.23,51.539,96.5,0.2037
23.2,FLT_005,45.9,9.28,8.0,2.205,359.061,53.4,55.5,54.05,54.25,51.619,96.9,0.3779
23.3,FLT_005,46.49,9.32,8.0,2.942,359.208,52.92,54.55,55.19,56.81,51.521,96.4,0.2677
23.4,FLT_005,46.63,9.36,8.0,-0.013,359.141,53.59,53.84,56.06,57.19,51.384,96.4,0.289
23.5,FLT_005,47.4,9.4,8.0,3.677,359.067,55.27,55.37,54.79,55.63,51.326,96.4,0.2645
23.6,FLT_005,48.26,9.44,8.0,-2.353,359.081,54.83,55.7,56.0,54.45,51.61,97.2,0.3569
23.7,FLT_005,46.93,9.48,8.0,-2.105,358.908,55.13,55.53,55.15,54.21,51.574,96.6,0.3401
23.8,FLT_005,47.43,9.52,8.0,-0.436,358.852,55.43,55.59,54.77,55.64,51.401,96.6,0.2629
23.9,FLT_005,47.46,9.56,8.0,-0.313,358.898,54.67,56.57,55.05,56.38,51.594,96.2,0.2138
24.0,FLT_005,47.89,9.6,8.0,-0.27,359.027,53.22,56.36,55.59,55.96,51.502,97.3,0.2572
24.1,FLT_005,48.41,9.64,8.0,-1.24,358.983,54.25,55.0,55.22,54.66,51.531,96.2,0.2798
24.2,FLT_005,48.47,9.68,8.0,2.518,359.065,54.39,55.13,54.64,55.54,51.634,96.7,0.324
24.3,FLT_005,48.38,9.72,8.0,0.95,359.004,55.04,55.46,54.61,54.25,51.414,96.9,0.2973
24.4,FLT_005,49.22,9.76,8.0,-2.083,359.163,56.29,55.74,53.83,53.94,51.705,97.2,0.392
24.5,FLT_005,49.72,9.8,8.0,0.545,359.073,56.07,55.16,54.71,52.34,51.506,96.8,0.2152
24.6,FLT_005,49.68,9.84,8.0,1.0,359.004,53.42,55.39,55.23,56.84,51.475,96.8,0.3505
24.7,FLT_005,48.52,9.88,8.0,0.153,359.0,55.8,54.58,55.94,56.4,51.473,96.4,0.3145
24.8,FLT_005,49.4,9.92,8.0,0.882,358.984,55.28,54.75,54.96,53.0,51.467,96.3,0.3697
24.9,FLT_005,49.65,9.96,8.0,-1.518,358.923,54.47,53.82,56.97,56.15,51.335,96.8,0.164
25.0,FLT_005,49.07,10.0,8.0,0.031,358.883,55.87,54.81,55.3,56.73,51.542,96.1,0.3075
25.1,FLT_005,49.99,10.04,8.0,2.582,358.928,55.21,55.26,54.37,54.7,51.401,96.0,0.3266
25.2,FLT_005,50.71,10.08,8.0,-3.92,358.945,55.98,55.05,54.57,54.9,51.573,96.8,0.3076
25.3,FLT_005,51.52,10.12,8.0,1.638,358.933,56.04,54.76,52.76,55.6,51.456,96.3,0.1788
25.4,FLT_005,50.44,10.16,8.0,1.3,358.956,54.09,53.74,56.02,56.09,51.277,96.2,0.2532
25.5,FLT_005,50.56,10.2,8.0,1.377,358.957,55.72,54.78,54.96,57.28,51.629,96.2,0.2684
25.6,FLT_005,51.31,10.24,8.0,3.089,358.976,54.49,54.39,52.82,53.45,51.368,96.4,0.2264
25.7,FLT_005,50.58,10.28,8.0,1.799,358.692,54.91,55.55,54.88,53.8,51.299,96.7,0.2365
25.8,FLT_005,51.2,10.32,8.0,-3.784,358.518,55.14,54.75,54.14,56.27,51.412,96.2,0.27
25.9,FLT_005,51.04,10.36,8.0,2.773,358.54,56.94,55.62,56.86,54.47,51.362,96.5,0.262
26.0,FLT_005,51.49,10.4,8.0,0.251,358.461,54.39,54.17,53.44,55.45,51.596,96.0,0.2395
26.1,FLT_005,52.49,10.44,8.0,-0.801,358.555,55.89,52.91,55.02,54.83,51.484,96.3,0.3864
26.2,FLT_005,52.34,10.48,8.0,1.8,358.791,54.56,54.56,55.22,55.23,51.4,97.0,0.3215
26.3,FLT_005,52.16,10.52,8.0,3.009,358.808,54.86,55.21,54.08,54.23,51.476,95.9,0.3289
26.4,FLT_005,52.65,10.56,8.0,4.782,358.678,54.4,55.06,55.93,53.69,51.452,96.0,0.3301
26.5,FLT_005,53.36,10.6,8.0,2.174,358.603,54.72,55.48,56.08,53.49,51.351,96.4,0.3937
26.6,FLT_005,53.02,10.64,8.0,3.685,358.583,57.25,56.45,54.91,54.31,51.477,96.0,0.3592
26.7,FLT_005,53.18,10.68,8.0,0.009,358.565,54.34,54.95,53.99,54.81,51.342,96.4,0.2316
26.8,FLT_005,53.29,10.72,8.0,-1.848,358.643,54.19,56.3,54.64,56.03,51.237,96.4,0.2842
26.9,FLT_005,53.71,10.76,8.0,-2.574,358.486,55.27,55.21,54.46,54.36,51.395,96.8,0.4012
27.0,FLT_005,54.59,10.8,8.0,1.908,358.489,55.5,55.02,55.47,54.16,51.515,96.1,0.3526
27.1,FLT_005,54.05,10.84,8.0,-0.922,358.341,55.66,55.35,55.4,52.21,51.63,96.2,0.2673
27.2,FLT_005,54.78,10.88,8.0,1.444,358.338,56.92,55.15,54.15,55.09,51.468,96.0,0.2843
27.3,FLT_005,54.62,10.92,8.0,-3.022,358.409,56.68,52.66,56.03,52.93,51.46,96.0,0.3877
27.4,FLT_005,54.59,10.96,8.0,3.672,358.534,54.01,54.03,54.46,54.89,51.589,96.4,0.3199
27.5,FLT_005,54.51,11.0,8.0,0.433,358.463,55.89,55.89,52.69,54.44,51.553,95.7,0.3433
27.6,FLT_005,54.67,11.04,8.0,-1.889,358.485,52.88,54.97,54.94,54.69,51.52,95.6,0.2478
27.7,FLT_005,55.35,11.08,8.0,-0.495,358.429,55.0,54.64,56.6,56.75,51.34,96.2,0.2643
27.8,FLT_005,56.31,11.12,8.0,0.638,358.445,56.63,54.25,56.64,53.98,51.478,96.1,0.218
27.9,FLT_005,56.16,11.16,8.0,3.433,358.474,55.54,55.0,54.41,57.11,51.539,95.9,0.3017
28.0,FLT_005,56.56,11.2,8.0,1.603,358.371,53.81,55.38,55.49,54.16,51.509,95.8,0.2901
28.1,FLT_005,55.92,11.24,8.0,-3.529,358.266,55.5,55.29,54.71,54.39,51.465,96.0,0.3111
28.2,FLT_005,56.73,11.28,8.0,0.822,358.188,54.42,53.76,54.18,54.8,51.269,95.9,0.2799
28.3,FLT_005,56.04,11.32,8.0,1.943,358.311,54.4,53.3,54.81,55.13,51.515,95.9,0.2627
28.4,FLT_005,57.13,11.36,8.0,0.37,358.332,55.41,54.98,56.61,56.38,51.27,96.0,0.3497
28.5,FLT_005,57.77,11.4,8.0,0.623,358.408,55.34,55.19,55.22,54.45,51.35,95.8,0.3694
28.6,FLT_005,57.96,11.44,8.0,-5.508,358.393,55.73,55.23,56.96,54.19,51.482,96.3,0.2832
28.7,FLT_005,57.2,11.48,8.0,0.944,358.492,53.69,55.8,54.46,55.34,51.529,96.0,0.2439
28.8,FLT_005,57.17,11.52,8.0,2.487,358.602,52.85,56.25,55.52,56.73,51.562,95.6,0.3237
28.9,FLT_005,57.31,11.56,8.0,0.25,358.652,54.48,54.21,55.26,54.26,51.27,96.3,0.2453
29.0,FLT_005,57.73,11.6,8.0,2.955,358.797,53.62,56.28,54.64,54.35,51.338,96.0,0.3811
29.1,FLT_005,58.19,11.64,8.0,2.036,358.765,54.63,55.29,54.44,54.86,51.585,96.3,0.1875
29.2,FLT_005,58.62,11.68,8.0,-2.411,358.723,55.13,56.5,55.32,54.11,51.479,96.2,0.3284
29.3,FLT_005,58.72,11.72,8.0,-0.077,358.801,55.13,56.57,56.15,53.19,51.427,95.6,0.2624
29.4,FLT_005,58.88,11.76,8.0,-1.349,358.951,54.96,56.81,55.63,55.61,51.327,95.1,0.3411
29.5,FLT_005,58.94,11.8,8.0,-0.232,358.874,55.7,56.06,55.75,56.08,51.333,95.8,0.2861
29.6,FLT_005,59.14,11.84,8.0,-0.6,358.844,54.0,54.25,55.01,53.61,51.282,95.9,0.2908
29.7,FLT_005,59.33,11.88,8.0,2.043,358.838,54.52,54.11,54.38,55.18,51.312,95.4,0.3082
29.8,FLT_005,59.4,11.92,8.0,0.309,358.929,53.97,53.48,55.13,54.56,51.488,95.8,0.3723
29.9,FLT_005,59.67,11.96,8.0,-3.888,358.876,54.89,55.05,55.2,55.32,51.548,95.8,0.3671
30.01,FLT_005,60.39,12.0,8.0,0.883,358.858,55.88,55.24,55.32,54.74,51.386,95.9,0.2992
30.11,FLT_005,60.54,12.04,8.0,2.735,358.808,54.05,56.69,53.25,53.53,51.449,95.9,0.3296
30.21,FLT_005,60.83,12.08,8.0,-1.378,358.954,54.35,55.19,55.74,55.51,51.41,95.4,0.3062
30.31,FLT_005,61.15,12.12,8.0,-0.431,358.977,54.68,57.0,53.9,53.2,51.476,95.1,0.3575
30.41,FLT_005,60.84,12.16,8.0,-2.067,358.964,55.91,55.78,55.34,53.22,51.332,95.7,0.2897
30.51,FLT_005,60.21,12.2,8.0,3.063,358.906,55.99,54.95,55.22,53.77,51.28,95.8,0.3197
30.61,FLT_005,61.98,12.24,8.0,1.729,358.871,56.62,55.21,54.81,56.38,51.358,95.8,0.2361
30.71,FLT_005,61.32,12.28,8.0,1.345,358.785,54.39,55.38,53.31,56.87,51.389,96.2,0.2749
30.81,FLT_005,61.58,12.32,8.0,-0.881,358.84,54.29,56.11,56.28,56.57,51.375,95.5,0.3379
30.91,FLT_005,61.48,12.36,8.0,-0.461,358.895,54.2,56.04,55.33,54.01,51.347,95.5,0.2706
31.01,FLT_005,61.96,12.4,8.0,1.943,358.968,54.81,53.78,57.47,54.92,51.223,96.0,0.299
31.11,FLT_005,62.06,12.44,8.0,1.866,358.752,54.53,54.15,54.61,54.78,51.398,95.7,0.3619
31.21,FLT_005,62.63,12.48,8.0,1.957,358.817,55.58,54.48,54.76,55.44,51.45,95.6,0.3077
31.31,FLT_005,61.95,12.52,8.0,2.512,358.795,55.21,54.86,55.21,54.15,51.344,95.8,0.2766
31.41,FLT_005,62.82,12.56,8.0,2.952,358.612,55.24,55.22,53.78,55.16,51.271,96.1,0.2952
31.51,FLT_005,63.78,12.6,8.0,-0.002,358.48,53.91,56.33,54.36,54.73,51.346,95.6,0.3427
31.61,FLT_005,62.78,12.64,8.0,-4.463,358.613,54.92,55.39,55.19,55.01,51.314,95.4,0.3114
31.71,FLT_005,63.04,12.68,8.0,0.797,358.638,55.28,56.02,55.15,55.17,51.308,95.6,0.3059
31.81,FLT_005,63.46,12.72,8.0,0.759,358.791,56.35,56.39,54.15,53.25,51.359,95.2,0.3473
31.91,FLT_005,65.38,12.76,8.0,-0.154,358.814,53.61,56.21,56.6,54.94,51.566,95.1,0.3567
32.01,FLT_005,63.62,12.8,8.0,-2.69,358.828,55.41,55.49,55.4,55.06,51.548,95.2,0.3
32.11,FLT_005,65.12,12.84,8.0,-1.07,359.027,53.77,53.98,54.4,54.44,51.35,95.5,0.3421
32.21,FLT_005,64.16,12.88,8.0,0.448,359.03,55.46,55.28,53.35,55.68,51.339,95.7,0.306
32.31,FLT_005,64.28,12.92,8.0,2.668,358.982,53.44,55.54,55.14,54.81,51.45,95.8,0.3156
32.41,FLT_005,65.73,12.96,8.0,3.175,358.951,53.5,55.96,55.11,54.03,51.36,95.2,0.2935
32.51,FLT_005,63.76,13.0,8.0,-1.612,358.976,55.03,55.94,54.67,54.97,51.373,95.5,0.2345
32.61,FLT_005,64.54,13.04,8.0,-1.016,359.068,53.04,55.46,56.03,55.32,51.524,95.5,0.3403
32.71,FLT_005,65.29,13.08,8.0,1.802,358.974,56.39,53.27,55.18,54.76,51.491,95.7,0.3205
32.81,FLT_005,66.08,13.12,8.0,2.161,358.878,56.14,53.68,54.33,57.24,51.386,94.5,0.391
32.91,FLT_005,65.08,13.16,8.0,-1.266,358.681,54.34,55.76,54.55,54.11,51.422,95.2,0.2531
33.01,FLT_005,65.91,13.2,8.0,-1.432,358.562,55.81,52.88,54.34,56.36,51.222,95.1,0.314
33.11,FLT_005,66.02,13.24,8.0,0.901,358.608,55.59,56.72,54.0,54.89,51.322,94.9,0.3389
33.21,FLT_005,66.88,13.28,8.0,0.892,358.779,54.17,55.93,53.21,56.34,51.331,95.6,0.3463
33.31,FLT_005,66.63,13.32,8.0,3.726,358.632,54.44,56.16,55.37,56.8,51.112,95.2,0.3374
33.41,FLT_005,66.99,13.36,8.0,0.558,358.511,55.47,54.93,54.6,53.61,51.472,95.5,0.3085
33.51,FLT_005,66.63,13.4,8.0,1.469,358.31,53.84,55.9,53.19,54.27,51.245,94.8,0.3469
33.61,FLT_005,65.91,13.44,8.0,2.451,358.468,54.63,55.76,55.05,54.85,51.289,95.3,0.3361
33.71,FLT_005,67.38,13.48,8.0,-0.756,358.453,55.61,53.44,55.86,56.65,51.333,95.7,0.3669
33.81,FLT_005,67.87,13.52,8.0,-0.161,358.451,54.61,55.14,52.99,53.73,51.271,95.3,0.2585
33.91,FLT_005,68.43,13.56,8.0,-2.5,358.324,55.23,56.12,52.07,55.35,51.502,95.4,0.357
34.01,FLT_005,67.37,13.6,8.0,-0.563,358.365,55.24,53.48,55.49,53.61,51.34,94.8,0.4161
34.11,FLT_005,68.53,13.64,8.0,-0.096,358.353,54.35,55.92,54.62,53.76,51.272,94.6,0.351
34.21,FLT_005,67.71,13.68,8.0,0.321,358.326,58.45,55.38,55.01,54.6,51.321,95.1,0.3986
34.31,FLT_005,68.58,13.72,8.0,0.022,358.183,55.83,55.14,55.2,54.43,51.144,94.8,0.2951
34.41,FLT_005,68.12,13.76,8.0,-0.775,357.783,55.59,54.94,54.42,54.02,51.547,95.5,0.3188
34.51,FLT_005,68.62,13.8,8.0,-3.004,357.623,55.62,56.06,56.17,57.26,51.333,95.1,0.3352
34.61,FLT_005,69.62,13.84,8.0,0.075,357.74,55.99,55.67,53.99,54.2,51.128,95.1,0.2869
34.71,FLT_005,69.6,13.88,8.0,-1.55,357.85,54.34,54.09,53.94,54.29,51.39,95.4,0.215
34.81,FLT_005,69.54,13.92,8.0,-0.502,357.96,54.5,53.16,55.75,55.29,51.154,94.4,0.2881
34.91,FLT_005,69.74,13.96,8.0,0.604,358.02,54.86,55.4,55.26,54.46,51.291,95.4,0.3218
35.01,FLT_005,69.67,14.0,8.0,-0.894,357.942,55.47,54.99,54.35,55.8,51.155,95.0,0.334
35.11,FLT_005,71.51,14.04,8.0,-2.275,357.884,54.61,55.28,55.17,56.11,51.473,95.1,0.2234
35.21,FLT_005,70.64,14.08,8.0,0.19,357.779,55.59,54.18,52.98,53.02,51.239,94.4,0.2935
35.31,FLT_005,69.55,14.12,8.0,1.176,357.895,56.16,54.86,56.03,54.75,51.439,95.4,0.3412
35.41,FLT_005,70.67,14.16,8.0,-0.787,357.917,55.9,53.53,52.57,54.14,51.388,94.8,0.2942
35.51,FLT_005,70.67,14.2,8.0,-0.866,357.851,54.49,53.05,55.44,53.24,51.152,95.0,0.2755
35.61,FLT_005,72.78,14.24,8.0,-0.162,357.731,53.95,57.01,53.54,54.25,51.229,94.6,0.3349
35.71,FLT_005,71.12,14.28,8.0,-0.412,357.676,55.25,56.15,56.16,55.34,51.351,94.5,0.3254
35.81,FLT_005,71.59,14.32,8.0,3.048,357.801,54.2,54.73,54.52,55.1,51.223,95.1,0.3638
35.91,FLT_005,72.22,14.36,8.0,-2.809,357.877,53.57,55.08,55.66,55.75,51.214,95.1,0.2289
36.01,FLT_005,71.9,14.4,8.0,-0.191,357.989,55.72,54.85,55.98,54.16,51.328,94.7,0.3483
36.11,FLT_005,71.28,14.44,8.0,-1.204,357.986,54.22,53.71,54.41,54.93,51.153,94.8,0.3351
36.21,FLT_005,72.68,14.48,8.0,-2.138,357.832,54.43,54.95,54.25,54.99,51.151,94.9,0.3494
36.31,FLT_005,72.18,14.52,8.0,-1.039,357.79,54.74,55.56,55.29,55.04,51.071,95.5,0.3412
36.41,FLT_005,72.41,14.56,8.0,-1.348,357.823,55.92,54.2,54.46,54.19,51.337,95.1,0.2738
36.51,FLT_005,72.67,14.6,8.0,-3.85,357.774,54.06,53.98,52.4,55.97,51.071,94.7,0.3261
36.61,FLT_005,72.54,14.64,8.0,-0.043,357.707,56.01,54.88,56.37,55.46,51.204,94.3,0.3437
36.71,FLT_005,73.26,14.68,8.0,3.881,357.915,55.4,54.84,54.97,55.78,51.206,94.6,0.3241
36.81,FLT_005,73.9,14.72,8.0,-0.557,357.948,54.79,55.22,54.4,53.2,51.264,94.9,0.3226
36.91,FLT_005,72.82,14.76,8.0,-2.326,357.911,54.19,54.16,54.77,53.71,51.261,95.1,0.3091
37.01,FLT_005,73.87,14.8,8.0,-0.088,357.902,54.96,55.18,56.96,55.73,51.287,94.4,0.4289
37.11,FLT_005,73.73,14.84,8.0,-2.623,357.935,54.98,54.31,54.56,55.27,51.456,94.2,0.2695
37.21,FLT_005,74.29,14.88,8.0,2.71,357.855,54.51,55.19,54.52,54.83,51.331,95.1,0.2017
37.31,FLT_005,74.53,14.92,8.0,-0.725,357.818,55.87,54.26,53.97,55.29,51.054,94.9,0.2919
37.41,FLT_005,74.49,14.96,8.0,0.22,357.804,55.42,53.43,55.92,55.57,51.371,94.4,0.3533
37.51,FLT_005,73.97,15.0,8.0,-0.37,357.716,56.62,55.17,55.52,55.58,51.3,94.5,0.2884
37.61,FLT_005,75.64,15.04,8.0,-1.94,357.69,56.58,54.98,55.7,54.51,51.293,94.5,0.3332
37.71,FLT_005,75.62,15.08,8.0,2.278,357.68,53.95,54.24,53.14,56.11,51.125,95.0,0.3112
37.81,FLT_005,76.08,15.12,8.0,2.336,357.621,55.55,54.79,56.51,54.57,51.161,94.7,0.3502
37.91,FLT_005,76.3,15.16,8.0,0.938,357.739,55.17,55.27,53.33,53.99,51.336,94.7,0.3862
38.01,FLT_005,76.42,15.2,8.0,1.561,357.654,54.77,54.22,53.54,54.08,51.1,94.3,0.2876
38.11,FLT_005,76.15,15.24,8.0,-1.328,357.635,53.65,55.3,53.87,54.56,51.328,94.8,0.2464
38.21,FLT_005,76.6,15.28,8.0,1.443,357.496,54.35,56.88,54.76,55.16,51.021,94.5,0.324
38.31,FLT_005,75.94,15.32,8.0,1.328,357.424,55.16,54.43,54.48,54.62,51.211,94.9,0.3564
38.41,FLT_005,76.66,15.36,8.0,-0.012,357.475,55.24,55.82,56.44,52.35,51.208,94.4,0.3456
38.51,FLT_005,76.55,15.4,8.0,2.236,357.238,55.18,55.19,54.17,54.1,51.188,94.8,0.3107
38.61,FLT_005,77.15,15.44,8.0,-4.196,357.238,57.24,54.39,55.38,55.29,51.312,94.3,0.264
38.71,FLT_005,77.16,15.48,8.0,-0.68,357.069,53.18,54.1,55.4,54.61,50.981,94.8,0.2884
38.81,FLT_005,77.15,15.52,8.0,-1.062,357.103,54.3,54.87,55.66,55.76,51.17,95.3,0.3438
38.91,FLT_005,78.65,15.56,8.0,-0.628,357.121,53.6,57.37,54.63,54.64,51.159,94.7,0.298
39.01,FLT_005,78.05,15.6,8.0,-0.072,357.286,54.09,52.77,55.67,56.06,50.916,94.6,0.2823
39.11,FLT_005,78.46,15.64,8.0,0.978,357.316,53.64,54.37,53.33,55.87,51.058,94.2,0.3657
39.21,FLT_005,78.49,15.68,8.0,-0.625,357.273,54.63,54.19,55.22,55.5,51.25,94.1,0.3669
39.31,FLT_005,78.84,15.72,8.0,0.229,357.496,53.93,55.63,54.52,55.9,51.219,94.9,0.3376
39.41,FLT_005,79.43,15.76,8.0,2.359,357.51,55.51,54.09,56.01,54.15,51.146,94.4,0.3221
39.51,FLT_005,78.72,15.8,8.0,-0.465,357.363,54.51,54.31,53.87,55.86,51.223,93.8,0.278
39.61,FLT_005,80.12,15.84,8.0,0.077,357.242,53.8,54.21,56.99,55.07,51.282,94.5,0.1904
39.71,FLT_005,79.58,15.88,8.0,0.852,357.192,52.63,54.7,53.75,53.89,51.109,94.3,0.2755
39.81,FLT_005,80.26,15.92,8.0,0.106,357.232,55.03,56.4,53.9,55.46,51.253,94.1,0.3093
39.91,FLT_005,79.8,15.96,8.0,-0.785,357.255,53.14,53.55,56.1,55.48,51.116,94.4,0.3192
40.01,FLT_005,80.88,16.0,8.0,1.452,357.326,55.08,54.35,55.81,54.04,51.231,94.4,0.324
40.11,FLT_005,80.73,16.04,8.0,2.404,357.278,56.6,53.91,53.57,55.58,51.392,93.4,0.3104
40.21,FLT_005,80.17,16.08,8.0,2.378,357.398,55.06,55.01,55.47,55.94,51.122,94.4,0.371
40.31,FLT_005,80.38,16.12,8.0,1.041,357.303,55.54,54.34,57.08,56.93,51.144,93.8,0.327
40.41,FLT_005,80.05,16.16,8.0,-2.278,357.212,52.92,54.06,54.12,55.39,51.168,94.5,0.2223
40.51,FLT_005,81.06,16.2,8.0,-0.597,357.372,54.82,55.61,56.02,55.1,51.163,94.2,0.2943
40.61,FLT_005,81.41,16.24,8.0,3.571,357.477,57.09,55.41,54.66,54.51,51.22,94.3,0.3262
40.71,FLT_005,80.99,16.28,8.0,-1.996,357.415,53.71,55.31,53.66,55.45,51.106,94.2,0.2168
40.81,FLT_005,81.51,16.32,8.0,1.318,357.532,54.77,54.46,55.1,54.94,51.254,94.4,0.3132
40.91,FLT_005,81.65,16.36,8.0,-1.559,357.551,55.17,54.18,54.67,55.69,51.273,94.5,0.2516
41.01,FLT_005,82.28,16.4,8.0,-1.882,357.64,54.76,54.32,55.04,54.51,51.065,94.3,0.3049
41.11,FLT_005,82.52,16.44,8.0,3.398,357.651,53.97,54.89,55.28,54.02,51.085,93.8,0.233
41.21,FLT_005,82.97,16.48,8.0,1.54,357.574,54.43,54.36,53.73,54.75,51.077,94.0,0.3339
41.31,FLT_005,83.22,16.52,8.0,-0.483,357.446,56.59,54.91,56.33,56.57,51.168,94.0,0.2454
41.41,FLT_005,83.3,16.56,8.0,4.356,357.482,55.57,55.56,53.9,54.57,50.946,94.7,0.2737
41.51,FLT_005,82.72,16.6,8.0,-1.13,357.446,55.03,54.64,55.07,55.13,51.102,94.2,0.2081
41.61,FLT_005,84.18,16.64,8.0,0.264,357.448,56.64,55.14,56.2,54.73,51.189,94.4,0.3785
41.71,FLT_005,83.9,16.68,8.0,-2.501,357.41,52.07,55.57,57.01,56.14,51.12,94.0,0.2955
41.81,FLT_005,83.57,16.72,8.0,2.218,357.217,55.97,54.88,54.46,56.66,51.379,93.6,0.2062
41.91,FLT_005,83.92,16.76,8.0,1.115,357.064,53.29,54.02,55.76,55.55,51.342,94.1,0.3293
42.01,FLT_005,83.28,16.8,8.0,0.385,357.275,54.46,54.66,53.83,53.8,50.999,94.2,0.3565
42.11,FLT_005,85.33,16.84,8.0,0.369,357.221,55.58,53.86,55.5,55.2,51.078,94.0,0.3753
42.21,FLT_005,83.96,16.88,8.0,6.055,357.154,54.82,53.8,56.94,55.94,51.215,93.5,0.4083
42.31,FLT_005,83.65,16.92,8.0,1.392,357.162,55.78,53.33,54.51,56.19,51.305,94.0,0.4245
42.41,FLT_005,85.03,16.96,8.0,1.555,357.284,55.89,55.79,53.43,56.22,51.044,93.4,0.3383
42.51,FLT_005,85.0,17.0,8.0,-1.453,357.18,53.61,54.84,55.21,55.56,51.244,94.4,0.2782
42.61,FLT_005,83.89,17.04,8.0,-2.065,357.273,56.3,55.4,55.7,53.99,50.923,94.0,0.2872
42.71,FLT_005,85.58,17.08,8.0,-0.896,357.254,55.96,55.39,56.01,53.13,51.256,94.4,0.255
42.81,FLT_005,85.41,17.12,8.0,3.0,357.379,54.98,55.06,54.5,58.76,51.146,94.5,0.3361
42.91,FLT_005,85.78,17.16,8.0,5.728,357.391,54.06,54.66,53.51,54.14,51.165,93.8,0.4129
43.01,FLT_005,86.06,17.2,8.0,-4.14,357.452,54.01,55.79,54.09,55.67,51.158,94.0,0.3475
43.11,FLT_005,86.5,17.24,8.0,1.102,357.38,54.67,55.85,55.43,54.98,50.976,94.0,0.2461
43.21,FLT_005,86.51,17.28,8.0,4.561,357.435,54.75,54.95,55.48,54.47,51.13,94.5,0.3092
43.31,FLT_005,86.61,17.32,8.0,3.805,357.246,54.11,53.8,55.06,56.0,51.061,94.1,0.3004
43.41,FLT_005,86.67,17.36,8.0,-1.089,357.216,53.82,56.1,56.48,55.53,51.194,93.6,0.3817
43.51,FLT_005,88.03,17.4,8.0,-1.532,357.274,54.51,56.04,55.82,56.11,51.05,93.5,0.1949
43.61,FLT_005,86.73,17.44,8.0,-1.453,357.321,54.81,53.52,56.05,57.08,51.348,93.8,0.2564
43.71,FLT_005,87.76,17.48,8.0,-2.255,357.429,55.39,54.99,55.16,54.29,51.196,94.2,0.226
43.81,FLT_005,87.49,17.52,8.0,-3.988,357.418,55.45,54.83,54.56,55.3,51.216,94.2,0.3203
43.91,FLT_005,87.42,17.56,8.0,-0.885,357.263,55.93,54.43,54.49,54.92,51.251,93.7,0.2869
44.01,FLT_005,87.7,17.6,8.0,-1.84,357.256,57.2,56.26,52.75,56.86,51.244,93.9,0.2966
44.11,FLT_005,86.99,17.64,8.0,-2.381,357.222,55.61,55.04,55.37,54.15,51.039,93.4,0.2974
44.21,FLT_005,88.64,17.68,8.0,2.28,357.185,55.64,56.04,54.4,55.08,51.189,93.8,0.4037
44.31,FLT_005,88.62,17.72,8.0,-0.901,357.254,56.0,54.42,53.91,53.76,51.112,93.6,0.2889
44.41,FLT_005,89.29,17.76,8.0,-0.467,357.427,55.1,54.49,54.88,53.8,51.016,93.5,0.3128
44.51,FLT_005,88.75,17.8,8.0,-0.661,357.401,53.95,54.63,53.87,56.43,51.0,93.9,0.2636
44.61,FLT_005,88.83,17.84,8.0,-0.978,357.445,54.75,53.82,54.56,55.7,51.113,93.8,0.3781
44.71,FLT_005,89.53,17.88,8.0,1.582,357.363,53.54,56.92,56.26,54.93,51.098,93.5,0.2664
44.81,FLT_005,90.1,17.92,8.0,0.94,357.672,54.28,56.38,54.25,54.04,51.174,94.1,0.2643
44.91,FLT_005,89.0,17.96,8.0,0.192,357.653,55.02,52.08,55.53,56.06,51.144,93.3,0.2567
45.01,FLT_005,88.97,18.0,8.0,-1.246,357.693,56.51,52.9,57.4,55.02,51.121,93.9,0.2485
45.11,FLT_005,90.72,18.04,8.0,0.082,357.624,54.34,54.46,56.41,55.58,50.973,93.9,0.2289
45.21,FLT_005,90.03,18.08,8.0,-0.633,357.619,57.05,55.49,55.75,55.54,51.09,93.5,0.2461
45.31,FLT_005,90.78,18.12,8.0,-0.714,357.552,55.44,54.9,56.18,53.83,50.899,93.2,0.2774
45.41,FLT_005,91.15,18.16,8.0,2.25,357.675,54.89,54.31,56.21,54.32,51.025,93.7,0.3421
45.51,FLT_005,91.22,18.2,8.0,1.511,357.564,56.04,54.35,54.95,55.03,51.168,93.5,0.2453
45.61,FLT_005,90.38,18.24,8.0,-1.261,357.497,53.12,56.96,53.91,53.61,51.146,93.5,0.3152
45.71,FLT_005,91.26,18.28,8.0,-1.102,357.453,55.79,56.81,55.99,55.49,50.988,93.9,0.3534
45.81,FLT_005,91.41,18.32,8.0,0.909,357.38,54.53,55.41,55.07,55.2,51.192,93.9,0.4255
45.91,FLT_005,92.43,18.36,8.0,0.3,357.417,55.76,54.7,54.27,55.23,51.009,93.9,0.2953
46.01,FLT_005,91.01,18.4,8.0,-2.268,357.439,56.04,56.49,53.73,55.46,51.126,93.3,0.2626
46.11,FLT_005,92.29,18.44,8.0,0.684,357.476,55.36,55.36,53.89,53.83,51.054,93.4,0.383
46.21,FLT_005,92.27,18.48,8.0,-2.045,357.299,55.29,54.7,53.38,53.13,50.971,93.0,0.2608
46.31,FLT_005,92.36,18.52,8.0,1.188,357.245,56.07,56.01,52.23,54.37,51.065,93.7,0.3343
46.41,FLT_005,92.98,18.56,8.0,-1.78,357.361,54.7,56.17,56.16,55.47,50.856,93.6,0.4212
46.51,FLT_005,92.54,18.6,8.0,-2.482,357.49,55.77,54.37,54.89,56.09,51.039,93.4,0.2683
46.61,FLT_005,93.25,18.64,8.0,-2.567,357.29,55.45,55.24,54.26,54.39,51.064,93.7,0.2372
46.71,FLT_005,94.16,18.68,8.0,-3.222,357.328,56.05,56.18,53.06,54.82,51.186,93.5,0.2219
46.81,FLT_005,92.98,18.72,8.0,-0.959,357.465,55.01,56.36,55.65,55.04,51.233,93.4,0.3186
46.91,FLT_005,93.84,18.76,8.0,-1.282,357.492,54.48,55.69,55.67,55.69,50.984,93.5,0.4185
47.01,FLT_005,94.12,18.8,8.0,0.405,357.417,54.52,54.69,56.64,54.52,50.988,93.7,0.3176
47.11,FLT_005,93.7,18.84,8.0,0.963,357.389,55.99,54.46,53.38,57.26,50.948,93.1,0.3294
47.21,FLT_005,94.54,18.88,8.0,-1.211,357.358,55.83,54.13,53.4,54.84,50.959,93.6,0.3901
47.31,FLT_005,94.24,18.92,8.0,-0.469,357.48,54.84,53.38,55.67,54.92,51.071,93.5,0.2842
47.41,FLT_005,94.46,18.96,8.0,2.738,357.468,53.71,55.25,54.51,55.67,50.866,93.2,0.2999
47.51,FLT_005,96.0,19.0,8.0,-0.53,357.365,53.33,55.73,53.06,55.1,51.167,93.8,0.3235
47.61,FLT_005,95.32,19.04,8.0,-1.605,357.408,55.93,54.87,54.04,55.48,51.018,93.3,0.3059
47.71,FLT_005,94.94,19.08,8.0,0.134,357.466,56.12,55.55,55.53,54.76,51.022,93.2,0.2422
47.81,FLT_005,95.88,19.12,8.0,-0.872,357.463,54.55,55.39,54.5,54.21,51.036,93.0,0.3095
47.91,FLT_005,95.6,19.16,8.0,-0.751,357.559,54.82,55.1,55.85,55.95,51.042,93.3,0.2803
48.01,FLT_005,96.8,19.2,8.0,3.521,357.489,54.14,53.93,54.88,54.58,50.958,93.4,0.3029
48.11,FLT_005,96.93,19.24,8.0,2.522,357.243,55.87,54.1,54.12,56.09,51.158,93.5,0.2922
48.21,FLT_005,96.61,19.28,8.0,3.718,357.32,55.63,55.85,54.96,57.07,51.174,92.9,0.4034
48.31,FLT_005,97.17,19.32,8.0,0.292,357.299,54.97,55.62,55.21,52.24,51.141,93.4,0.3833
48.41,FLT_005,96.87,19.36,8.0,1.203,357.438,55.08,54.69,54.65,53.3,51.074,93.0,0.2687
48.51,FLT_005,96.91,19.4,8.0,0.748,357.493,55.74,54.48,54.32,55.54,50.917,93.2,0.3075
48.61,FLT_005,97.16,19.44,8.0,0.793,357.428,55.79,56.35,55.75,54.35,51.174,92.8,0.2969
48.71,FLT_005,97.35,19.48,8.0,1.136,357.579,55.34,55.35,55.75,56.78,50.997,93.5,0.2906
48.81,FLT_005,98.05,19.52,8.0,2.671,357.56,53.64,56.73,53.68,53.61,50.983,92.9,0.2534
48.91,FLT_005,98.29,19.56,8.0,-3.501,357.658,54.99,54.91,54.63,55.97,51.026,93.6,0.3041
49.01,FLT_005,98.16,19.6,8.0,-1.567,357.578,55.09,54.78,55.48,52.82,51.055,93.1,0.3309
49.11,FLT_005,97.91,19.64,8.0,2.87,357.467,54.24,54.22,55.97,54.38,51.034,92.6,0.4392
49.21,FLT_005,98.27,19.68,8.0,0.859,357.421,55.21,54.42,54.17,55.98,51.073,92.8,0.2586
49.31,FLT_005,97.92,19.72,8.0,1.326,357.199,55.85,55.64,53.8,55.44,51.107,93.3,0.182
49.41,FLT_005,98.88,19.76,8.0,-0.781,356.988,55.31,55.38,54.0,54.78,51.199,93.2,0.246
49.51,FLT_005,99.29,19.8,8.0,1.155,357.164,54.29,54.12,54.54,56.6,50.93,93.3,0.2612
49.61,FLT_005,99.25,19.84,8.0,1.027,357.096,55.04,55.41,57.03,55.21,51.031,92.6,0.2467
49.71,FLT_005,98.96,19.88,8.0,2.849,357.078,56.16,55.19,55.7,53.58,51.053,93.0,0.2738
49.81,FLT_005,99.22,19.92,8.0,1.654,357.236,57.48,55.19,55.94,54.82,51.159,93.0,0.2613
49.91,FLT_005,99.83,19.96,8.0,-1.047,357.199,56.64,54.23,55.71,56.25,50.986,92.7,0.2609
50.01,FLT_005,100.95,20.0,8.0,-1.606,357.287,55.7,54.78,54.54,54.48,50.962,92.8,0.2542
50.11,FLT_005,100.26,20.04,8.0,-1.09,357.318,57.22,54.11,55.44,55.26,51.01,92.8,0.2899
50.21,FLT_005,100.43,20.08,8.0,0.835,357.19,52.81,53.26,55.25,55.4,51.045,92.5,0.2716
50.31,FLT_005,99.69,20.12,8.0,-0.773,357.244,55.5,53.97,56.16,55.12,51.055,92.7,0.3228
50.41,FLT_005,100.35,20.16,8.0,0.293,357.304,56.01,54.63,53.51,52.51,51.004,93.0,0.3367
50.51,FLT_005,100.93,20.2,8.0,0.108,357.333,56.07,53.91,54.42,54.31,50.929,92.4,0.3923
50.61,FLT_005,100.49,20.24,8.0,1.582,357.246,54.45,53.56,56.26,56.73,50.939,93.1,0.3269
50.71,FLT_005,101.61,20.28,8.0,-0.742,357.315,54.59,54.95,55.19,54.71,50.902,93.0,0.3739
50.81,FLT_005,102.02,20.32,8.0,1.535,357.331,54.81,55.2,54.04,54.91,51.05,92.5,0.3342
50.91,FLT_005,101.46,20.36,8.0,-1.131,357.557,56.56,54.96,56.13,53.77,50.771,93.0,0.303
51.01,FLT_005,101.78,20.4,8.0,-1.281,357.564,56.07,54.95,54.66,54.85,50.973,93.0,0.2393
51.11,FLT_005,101.77,20.44,8.0,1.808,357.576,55.42,54.89,54.38,53.2,51.219,92.8,0.3951
51.21,FLT_005,102.99,20.48,8.0,0.918,357.499,55.05,54.28,54.55,56.68,51.043,92.4,0.2985
51.31,FLT_005,102.48,20.52,8.0,-1.87,357.261,55.23,55.83,53.98,55.36,50.646,92.5,0.2566
51.41,FLT_005,103.24,20.56,8.0,-1.703,357.119,55.34,55.9,55.28,55.2,50.942,92.7,0.3754
51.51,FLT_005,102.6,20.6,8.0,-3.496,357.193,55.76,54.76,54.62,54.63,50.826,92.9,0.3088
51.61,FLT_005,103.09,20.64,8.0,-1.028,357.165,53.87,55.44,55.12,55.23,50.953,92.1,0.1964
51.71,FLT_005,103.31,20.68,8.0,2.732,357.191,55.46,56.31,54.81,54.22,50.889,92.9,0.2828
51.81,FLT_005,104.05,20.72,8.0,-0.959,357.232,55.33,55.03,53.8,56.0,51.042,93.0,0.3376
51.91,FLT_005,105.04,20.76,8.0,1.983,357.164,54.62,54.96,53.89,54.54,50.719,92.8,0.2663
52.01,FLT_005,103.07,20.8,8.0,-1.441,356.997,56.22,56.81,55.92,54.66,51.072,91.8,0.2411
52.11,FLT_005,103.52,20.84,8.0,0.166,357.107,55.0,54.41,54.72,54.08,50.861,92.8,0.2858
52.21,FLT_005,104.26,20.88,8.0,0.873,357.037,54.91,56.43,54.16,55.68,50.921,92.5,0.3307
52.31,FLT_005,104.37,20.92,8.0,-1.093,357.07,54.21,54.91,55.88,56.06,50.981,92.8,0.2196
52.41,FLT_005,105.27,20.96,8.0,0.127,357.009,55.32,54.85,56.14,54.79,50.95,92.1,0.3212
52.51,FLT_005,104.08,21.0,8.0,1.414,357.025,55.01,54.61,56.18,54.69,51.013,92.4,0.3457
52.61,FLT_005,105.23,21.04,8.0,-3.249,357.174,55.23,53.81,54.78,55.83,50.847,93.1,0.2374
52.71,FLT_005,105.09,21.08,8.0,1.456,357.122,53.85,53.71,56.81,54.49,50.93,91.8,0.2674
52.81,FLT_005,105.32,21.12,8.0,-3.025,357.315,54.37,54.97,55.74,56.44,50.92,92.5,0.2998
52.91,FLT_005,106.54,21.16,8.0,2.869,357.424,54.39,56.07,54.5,56.31,50.877,93.2,0.3093
53.01,FLT_005,105.34,21.2,8.0,0.615,357.451,54.07,55.74,55.45,55.82,51.035,92.7,0.3462
53.11,FLT_005,106.44,21.24,8.0,0.378,357.334,53.26,54.19,54.36,55.22,51.067,93.0,0.3036
53.21,FLT_005,106.83,21.28,8.0,-0.572,357.265,53.57,55.11,53.41,54.85,50.974,92.2,0.3
53.31,FLT_005,106.31,21.32,8.0,-0.442,357.365,54.88,54.92,54.04,54.58,50.798,92.8,0.2481
53.41,FLT_005,107.69,21.36,8.0,0.656,357.211,56.67,55.29,54.18,55.33,50.994,92.8,0.3318
53.51,FLT_005,107.28,21.4,8.0,2.394,357.203,53.12,53.71,57.63,56.19,50.779,92.6,0.3155
53.61,FLT_005,107.28,21.44,8.0,-0.595,357.264,55.33,53.82,54.88,56.17,50.899,92.2,0.2262
53.71,FLT_005,108.0,21.48,8.0,3.649,357.274,54.75,54.37,55.14,55.4,51.027,92.2,0.2958
53.81,FLT_005,107.47,21.52,8.0,-1.309,357.32,55.12,54.96,56.45,55.27,51.086,92.5,0.2652
53.91,FLT_005,107.99,21.56,8.0,1.055,357.153,53.8,54.0,55.24,56.1,50.904,92.9,0.2821
54.01,FLT_005,108.06,21.6,8.0,0.895,357.023,54.67,55.62,55.04,53.89,50.996,92.2,0.3201
54.11,FLT_005,108.74,21.64,8.0,5.336,357.281,55.66,54.89,55.22,54.42,50.926,92.4,0.2077
54.21,FLT_005,108.71,21.68,8.0,0.11,357.279,55.17,53.79,54.1,56.18,50.953,92.0,0.3146
54.31,FLT_005,107.85,21.72,8.0,0.528,357.292,55.17,54.32,54.83,55.05,50.623,92.1,0.3103
54.41,FLT_005,108.48,21.76,8.0,-0.952,357.429,54.57,54.19,55.94,54.11,50.866,92.2,0.321
54.51,FLT_005,108.28,21.8,8.0,-2.107,357.399,54.74,54.93,55.36,56.46,50.898,91.8,0.3116
54.61,FLT_005,109.29,21.84,8.0,3.095,357.244,55.91,54.18,55.96,53.07,50.932,91.9,0.3206
54.71,FLT_005,109.35,21.88,8.0,-4.444,357.176,54.64,55.59,54.28,55.91,50.863,92.3,0.2693
54.81,FLT_005,109.26,21.92,8.0,0.169,357.236,54.5,53.87,55.17,54.48,50.887,92.5,0.3241
54.91,FLT_005,109.69,21.96,8.0,-1.698,357.175,55.9,55.66,53.98,54.12,50.876,91.6,0.2915
55.01,FLT_005,109.25,22.0,8.0,-0.42,357.276,54.97,56.35,54.46,55.67,50.931,91.9,0.3206
55.11,FLT_005,110.9,22.04,8.0,-3.926,357.345,55.47,55.69,54.99,53.25,50.771,92.7,0.2851
55.21,FLT_005,110.64,22.08,8.0,0.751,357.222,55.75,57.39,56.1,54.6,50.848,92.5,0.3024
55.31,FLT_005,109.83,22.12,8.0,-2.71,357.385,55.92,54.48,53.81,55.21,50.853,92.2,0.3391
55.41,FLT_005,110.46,22.16,8.0,0.639,357.484,52.7,55.91,55.73,54.79,50.914,92.2,0.3958
55.51,FLT_005,110.75,22.2,8.0,-0.63,357.722,57.17,54.64,55.22,53.85,50.875,92.0,0.2619
55.61,FLT_005,111.22,22.24,8.0,-0.576,357.654,54.81,53.94,56.69,54.96,50.796,91.6,0.2986
55.71,FLT_005,111.34,22.28,8.0,2.596,357.627,55.54,54.5,52.48,53.27,50.752,92.4,0.1846
55.81,FLT_005,111.64,22.32,8.0,2.386,357.621,55.14,54.82,54.88,55.54,50.904,92.8,0.3706
55.91,FLT_005,112.0,22.36,8.0,-1.772,357.747,56.58,55.19,56.08,54.85,50.981,92.4,0.2778
56.01,FLT_005,111.92,22.4,8.0,0.194,357.807,53.71,56.97,54.76,53.73,50.771,91.7,0.376
56.11,FLT_005,112.78,22.44,8.0,3.299,357.826,56.93,55.87,56.05,56.63,50.988,92.3,0.2165
56.21,FLT_005,112.2,22.48,8.0,-1.746,357.708,56.11,56.53,56.8,55.77,50.655,91.8,0.4167
56.31,FLT_005,112.8,22.52,8.0,-2.285,357.844,55.04,54.27,54.7,54.96,50.871,92.2,0.2043
56.41,FLT_005,112.72,22.56,8.0,-1.174,357.85,55.45,56.95,54.73,55.53,50.962,91.9,0.2755
56.51,FLT_005,112.93,22.6,8.0,0.919,357.717,56.2,55.06,54.0,55.44,50.92,91.9,0.2685
56.61,FLT_005,113.3,22.64,8.0,-1.738,357.676,54.81,55.41,55.45,54.38,50.959,91.5,0.3109
56.71,FLT_005,112.96,22.68,8.0,-0.492,357.608,53.66,54.54,55.44,52.42,50.917,92.2,0.2783
56.81,FLT_005,113.64,22.72,8.0,-1.921,357.437,53.96,54.63,56.01,52.86,50.627,91.9,0.3076
56.91,FLT_005,113.26,22.76,8.0,-0.732,357.36,53.61,55.62,56.19,54.69,50.86,91.8,0.2637
57.01,FLT_005,114.11,22.8,8.0,0.251,357.413,53.0,55.7,54.9,54.87,51.059,91.4,0.2933
57.11,FLT_005,113.87,22.84,8.0,-0.184,357.526,54.4,55.93,52.77,55.15,50.866,91.8,0.3472
57.21,FLT_005,114.08,22.88,8.0,1.128,357.459,55.55,54.66,57.21,55.47,50.9,91.7,0.4306
57.31,FLT_005,114.36,22.92,8.0,0.93,357.317,55.7,54.45,53.48,54.27,50.789,91.3,0.3152
57.41,FLT_005,115.11,22.96,8.0,0.907,357.486,54.22,56.26,52.46,56.32,50.744,91.4,0.2826
57.51,FLT_005,115.33,23.0,8.0,-0.839,357.456,53.8,56.05,55.39,56.2,50.847,92.1,0.3245
57.61,FLT_005,114.86,23.04,8.0,0.881,357.143,55.06,55.14,56.18,55.03,50.903,91.7,0.2441
57.71,FLT_005,115.09,23.08,8.0,-1.278,357.219,56.4,55.01,54.03,56.17,50.868,91.8,0.2953
57.81,FLT_005,116.14,23.12,8.0,2.441,357.275,55.19,57.0,55.04,54.49,50.987,91.9,0.3118
57.91,FLT_005,115.59,23.16,8.0,-0.582,357.266,55.17,55.52,55.99,54.33,50.73,91.6,0.3057
58.01,FLT_005,116.67,23.2,8.0,-2.846,357.044,54.75,55.94,54.88,54.65,50.952,91.6,0.3212
58.11,FLT_005,116.24,23.24,8.0,1.648,356.985,56.26,55.62,55.17,56.33,50.82,91.8,0.3091
58.21,FLT_005,116.16,23.28,8.0,2.165,357.098,55.21,51.78,53.95,55.71,50.766,92.2,0.3917
58.31,FLT_005,116.33,23.32,8.0,1.807,357.044,54.24,53.88,55.61,55.38,50.8,91.5,0.4014
58.41,FLT_005,115.83,23.36,8.0,2.181,356.884,55.68,53.86,54.42,54.52,50.953,91.2,0.3636
58.51,FLT_005,116.22,23.4,8.0,-2.977,356.763,54.9,55.66,56.25,56.73,50.674,90.9,0.3393
58.61,FLT_005,117.43,23.44,8.0,-1.321,356.582,55.83,56.82,55.49,54.88,50.811,91.7,0.2867
58.71,FLT_005,117.76,23.48,8.0,2.071,356.488,54.95,55.65,56.32,53.65,50.807,91.4,0.222
58.81,FLT_005,118.08,23.52,8.0,-4.22,356.489,54.98,54.76,55.51,54.31,50.738,91.6,0.1982
58.91,FLT_005,119.13,23.56,8.0,0.06,356.412,55.54,54.38,55.57,54.76,50.734,91.6,0.3171
59.01,FLT_005,118.25,23.6,8.0,2.18,356.572,52.89,53.69,54.35,53.03,50.753,91.1,0.3051
59.11,FLT_005,118.81,23.64,8.0,0.398,356.449,52.99,52.88,56.21,56.6,50.853,91.5,0.3546
59.21,FLT_005,119.06,23.68,8.0,0.776,356.451,54.67,54.95,55.11,54.17,50.753,91.8,0.3552
59.31,FLT_005,118.84,23.72,8.0,3.222,356.319,56.0,55.54,54.19,53.46,50.794,91.4,0.3087
59.41,FLT_005,118.33,23.76,8.0,-0.49,356.359,54.9,55.24,54.37,54.83,51.017,91.6,0.2203
59.51,FLT_005,118.23,23.8,8.0,-5.69,356.225,52.98,54.82,56.23,55.01,50.787,91.3,0.239
59.61,FLT_005,119.1,23.84,8.0,1.549,356.196,56.02,53.08,55.12,54.06,50.554,91.7,0.3155
59.71,FLT_005,119.43,23.88,8.0,-0.92,356.114,54.72,53.82,56.4,55.13,50.841,91.4,0.3083
59.81,FLT_005,118.56,23.92,8.0,-0.82,356.121,56.5,55.13,54.38,53.33,50.732,91.6,0.2973
59.91,FLT_005,120.16,23.96,8.0,0.95,356.173,55.64,54.78,55.06,55.76,50.681,91.8,0.3253
60.01,FLT_005,124.2,24.57,2.151,3.554,356.109,54.26,54.33,54.27,56.38,50.769,91.3,0.2841
60.11,FLT_005,124.35,23.38,0.81,-0.272,356.046,53.75,53.47,55.59,53.96,50.699,91.4,0.3513
60.21,FLT_005,123.94,23.65,1.158,-2.246,356.201,55.48,53.88,56.44,53.26,50.927,91.6,0.3144
60.31,FLT_005,124.21,23.41,1.191,-0.194,356.28,54.04,53.15,54.99,54.76,50.707,90.8,0.3441
60.41,FLT_005,124.22,23.64,1.344,1.359,356.179,55.13,55.6,55.1,54.32,50.846,91.7,0.3093
60.51,FLT_005,125.0,22.75,-0.605,3.365,356.28,55.59,54.3,55.37,55.11,50.761,91.5,0.3638
60.61,FLT_005,124.3,24.83,-1.155,-2.281,356.402,55.59,54.35,53.9,56.16,50.734,91.6,0.2872
60.71,FLT_005,124.01,24.67,-0.516,-1.488,356.416,55.01,53.98,52.91,56.56,50.728,91.1,0.2351
60.81,FLT_005,123.91,23.77,-1.598,-1.034,356.437,54.79,56.53,54.79,55.7,50.927,91.3,0.3284
60.91,FLT_005,124.1,23.95,2.077,1.401,356.242,56.45,54.62,55.42,53.8,50.842,91.8,0.3588
61.01,FLT_005,124.44,24.31,0.78,6.192,356.368,54.91,54.95,53.96,56.03,50.902,90.9,0.2828
61.11,FLT_005,124.44,24.83,-1.103,-3.745,356.365,54.85,56.53,55.28,54.12,50.608,90.5,0.3207
61.21,FLT_005,124.87,24.04,0.178,-0.296,356.494,55.32,54.4,56.21,53.53,50.834,91.5,0.2688
61.31,FLT_005,124.57,23.73,1.242,-2.476,356.337,55.7,54.08,54.41,55.07,50.519,91.5,0.2681
61.41,FLT_005,124.78,23.3,-0.605,0.371,356.268,55.92,54.72,53.41,55.0,51.045,90.9,0.258
61.51,FLT_005,124.29,24.54,0.614,-0.257,356.213,53.91,54.16,55.05,54.17,50.739,91.1,0.3605
61.61,FLT_005,124.36,24.27,-1.578,0.608,356.063,55.38,55.51,56.15,53.59,50.805,91.5,0.2779
61.71,FLT_005,124.49,23.78,0.552,0.934,355.944,55.47,53.05,56.63,55.79,50.757,91.8,0.2664
61.81,FLT_005,124.65,23.01,1.372,0.099,355.81,55.75,55.16,54.61,53.07,50.676,91.5,0.3899
61.91,FLT_005,124.53,24.04,-0.123,-3.947,355.972,55.54,52.3,54.24,53.4,50.696,90.8,0.3029
62.01,FLT_005,124.33,24.26,-0.78,-1.981,355.99,54.41,55.12,55.42,56.27,50.756,90.8,0.3244
62.11,FLT_005,124.76,24.11,-1.384,-0.643,355.816,55.6,55.01,54.39,55.44,50.638,91.4,0.275
62.21,FLT_005,124.76,25.0,2.967,-1.379,355.855,55.29,54.81,55.12,55.14,50.747,91.5,0.3085
62.31,FLT_005,123.9,23.86,-0.309,3.162,355.875,55.15,55.9,55.47,55.1,50.977,90.7,0.3437
62.41,FLT_005,124.09,23.64,0.84,0.017,355.899,55.34,54.23,54.15,54.49,50.886,91.6,0.3225
62.51,FLT_005,124.34,22.77,-0.298,-0.025,355.75,57.14,53.99,53.67,52.51,50.843,90.4,0.3177
62.61,FLT_005,124.21,23.74,-1.477,3.55,355.784,53.62,56.19,55.89,55.88,50.615,91.6,0.2598
62.71,FLT_005,124.59,23.99,-2.138,1.018,355.834,54.55,55.19,54.61,54.79,50.649,91.1,0.2462
62.81,FLT_005,124.71,24.06,-1.537,1.413,355.673,54.23,54.51,55.53,55.94,50.705,90.7,0.3375
62.91,FLT_005,124.13,24.18,0.137,0.507,355.711,56.31,52.97,54.84,55.24,50.674,91.2,0.3002
63.01,FLT_005,123.99,23.51,-0.118,-0.688,355.68,54.4,55.01,54.19,54.24,50.722,90.8,0.2757
63.11,FLT_005,125.21,23.28,-0.606,-0.348,355.616,55.63,54.83,55.45,54.91,50.766,90.8,0.2894
63.21,FLT_005,124.84,24.37,-1.332,1.262,355.613,55.58,54.49,57.33,55.98,50.779,91.1,0.3577
63.31,FLT_005,123.22,23.38,0.879,-0.237,355.485,55.5,55.78,56.43,54.72,50.803,91.1,0.3181
63.41,FLT_005,124.02,23.09,-0.627,-0.167,355.611,53.57,55.94,54.01,55.63,50.675,90.8,0.2848
63.51,FLT_005,125.24,23.38,-0.084,-1.008,355.599,54.83,53.9,55.35,55.5,50.578,91.1,0.366
63.61,FLT_005,124.26,25.34,1.966,-0.635,355.527,54.74,53.93,54.37,57.08,50.729,91.5,0.2513
63.71,FLT_005,124.46,23.39,0.275,0.035,355.611,54.23,56.29,53.73,54.76,50.803,90.9,0.2948
63.81,FLT_005,124.61,24.07,-0.934,3.638,355.53,53.51,56.56,55.74,54.29,50.655,90.4,0.2465
63.91,FLT_005,124.49,26.42,-1.279,2.285,355.431,53.83,54.71,56.05,53.62,50.733,90.4,0.3065
64.01,FLT_005,123.2,23.56,-0.919,-0.606,355.465,52.66,56.07,54.75,56.19,50.717,90.8,0.3231
64.11,FLT_005,123.94,23.65,-1.578,-0.703,355.352,54.87,54.33,54.54,56.49,50.682,91.6,0.297
64.21,FLT_005,124.31,24.64,0.278,-1.29,355.387,54.6,56.1,53.71,53.14,50.658,91.2,0.278
64.31,FLT_005,124.07,24.08,-0.731,-5.679,355.408,53.72,54.46,55.7,54.96,50.788,91.2,0.4155
64.41,FLT_005,124.8,23.75,2.149,-1.626,355.246,55.06,55.6,54.37,54.33,50.572,90.8,0.254
64.51,FLT_005,124.73,23.21,0.256,-0.009,355.31,54.7,54.85,55.55,55.85,50.84,91.4,0.272
64.61,FLT_005,124.37,25.11,-1.852,-5.008,355.173,55.62,54.94,54.69,54.91,50.838,90.1,0.2303
64.71,FLT_005,125.33,23.97,0.205,1.481,355.146,53.54,54.48,54.85,56.8,50.642,90.6,0.3657
64.81,FLT_005,124.19,24.0,-0.722,1.211,354.889,57.71,54.04,54.35,54.17,50.616,90.7,0.2615
64.91,FLT_005,124.39,23.22,-2.568,0.033,354.866,56.33,54.74,54.85,54.21,50.823,90.5,0.3021
65.01,FLT_005,123.47,24.12,2.411,-3.195,354.824,56.97,54.57,53.71,54.28,50.697,90.6,0.2092
65.11,FLT_005,124.93,24.94,-0.669,-3.897,354.952,55.17,53.69,53.26,55.29,50.698,90.3,0.3391
65.21,FLT_005,125.16,24.29,2.054,-1.18,354.975,55.77,54.15,53.32,54.4,50.724,90.9,0.3434
65.31,FLT_005,124.24,22.39,0.185,0.187,354.97,55.24,54.99,56.12,55.56,50.735,91.3,0.2352
65.41,FLT_005,123.71,25.88,1.51,-2.93,354.923,54.59,54.9,53.91,55.13,50.789,90.3,0.28
65.51,FLT_005,124.06,23.71,-0.097,2.016,354.816,56.09,53.02,56.02,54.71,50.664,91.2,0.2503
65.61,FLT_005,124.27,24.56,0.1,-1.465,354.711,55.38,54.74,55.5,53.76,50.744,90.7,0.4084
65.71,FLT_005,124.08,23.65,2.48,3.512,354.722,54.5,55.3,54.12,52.97,50.777,90.7,0.3982
65.81,FLT_005,124.13,25.08,0.418,0.329,354.819,55.3,55.43,54.75,53.33,50.621,90.0,0.3572
65.91,FLT_005,124.28,25.11,-0.706,0.453,354.677,56.61,56.52,53.6,54.62,50.594,91.0,0.2304
66.01,FLT_005,124.59,23.18,0.828,3.582,354.747,56.76,55.46,54.01,55.42,50.617,91.0,0.2793
66.11,FLT_005,124.5,22.71,-0.01,-1.151,354.718,53.19,53.53,55.11,53.81,50.625,90.6,0.2676
66.21,FLT_005,124.66,23.45,-1.126,0.991,354.665,54.49,53.65,54.77,54.83,50.51,90.3,0.3122
66.31,FLT_005,124.47,23.3,-0.224,3.352,354.693,55.09,54.56,57.09,55.26,50.617,90.6,0.3511
66.41,FLT_005,123.56,24.72,-0.4,-1.23,354.676,54.56,54.76,54.13,57.76,50.523,91.0,0.2772
66.51,FLT_005,123.51,24.8,4.34,3.012,354.656,54.4,54.7,55.8,54.83,50.66,90.3,0.2436
66.61,FLT_005,123.71,24.9,-1.431,-4.437,354.763,54.55,56.74,55.41,56.71,50.645,90.8,0.2806
66.71,FLT_005,124.63,24.17,2.122,-0.059,354.679,55.4,55.71,55.5,55.75,50.697,90.7,0.1637
66.81,FLT_005,124.22,22.76,0.501,-0.652,354.728,54.45,54.37,53.95,54.42,50.631,90.7,0.3083
66.91,FLT_005,123.63,24.62,0.213,3.812,354.645,53.9,55.33,55.89,54.25,50.797,90.8,0.349
67.01,FLT_005,123.91,23.43,2.154,1.398,354.709,56.8,54.33,55.26,54.96,50.558,90.5,0.2742
67.11,FLT_005,123.81,23.09,0.033,1.208,354.682,55.91,55.45,55.24,54.67,50.615,91.0,0.2095
67.21,FLT_005,123.26,24.11,1.184,0.018,354.691,53.63,55.75,54.96,55.54,50.537,90.5,0.2959
67.31,FLT_005,124.22,24.17,0.76,-0.037,354.719,55.18,53.91,55.33,54.98,50.6,90.3,0.2957
67.41,FLT_005,124.13,23.61,-0.001,0.267,354.814,54.97,55.55,55.81,54.19,50.735,90.5,0.3104
67.51,FLT_005,124.49,24.43,1.104,0.385,354.733,54.81,55.99,55.88,55.89,50.561,90.0,0.3117
67.61,FLT_005,123.57,23.74,1.219,0.33,354.892,54.09,55.08,55.65,56.66,50.601,90.1,0.3243
67.71,FLT_005,124.65,22.97,-1.275,1.391,354.769,53.97,54.05,54.62,54.1,50.494,90.5,0.3279
67.81,FLT_005,123.4,25.22,-0.476,2.616,354.764,53.47,53.06,55.55,55.08,50.544,90.2,0.2462
67.91,FLT_005,123.69,23.98,0.938,1.272,354.969,55.88,54.6,54.66,55.93,50.568,90.7,0.3353
68.01,FLT_005,124.99,24.61,-1.905,-0.714,354.904,55.33,55.11,53.11,55.03,50.731,90.6,0.2787
68.11,FLT_005,122.96,24.51,1.678,0.421,354.87,54.23,54.69,56.65,53.05,50.6,90.4,0.2441
68.21,FLT_005,123.69,23.33,-1.153,0.161,354.911,56.22,55.55,55.63,54.42,50.683,90.1,0.3258
68.31,FLT_005,124.52,26.38,-1.096,-1.39,354.951,53.93,55.2,56.03,54.93,50.497,90.5,0.3391
68.41,FLT_005,123.52,23.05,1.849,-0.19,354.956,55.43,53.46,54.71,54.82,50.75,90.1,0.2895
68.51,FLT_005,124.5,24.81,0.416,1.807,354.792,53.69,54.58,54.63,54.81,50.623,90.2,0.2651
68.61,FLT_005,125.02,23.72,-1.167,1.938,354.809,55.34,55.23,54.93,52.18,50.534,90.0,0.3591
68.71,FLT_005,124.81,24.12,-0.818,1.099,354.787,55.44,54.5,55.1,55.42,50.64,90.3,0.3476
68.81,FLT_005,124.08,25.44,1.357,-0.148,354.767,55.3,55.65,55.56,55.0,50.764,89.6,0.2126
68.91,FLT_005,123.22,23.53,3.559,-0.321,354.669,55.34,53.61,54.19,54.88,50.796,90.3,0.242
69.01,FLT_005,124.17,25.1,-0.96,0.641,354.692,54.92,56.38,55.21,54.28,50.618,90.5,0.295
69.11,FLT_005,124.77,24.79,1.924,1.093,354.727,54.67,55.42,55.18,57.19,50.899,90.1,0.2398
69.21,FLT_005,123.25,23.13,0.843,-0.049,354.86,54.74,54.91,54.21,54.87,50.748,90.4,0.2874
69.31,FLT_005,123.83,23.94,-1.253,-4.283,354.797,54.92,54.05,54.19,55.59,50.648,90.0,0.2986
69.41,FLT_005,123.56,23.42,-1.602,5.74,354.694,54.1,55.15,52.25,54.34,50.654,90.2,0.352
69.51,FLT_005,123.74,24.55,0.412,0.925,354.758,52.34,56.26,54.24,54.67,50.509,89.9,0.3628
69.61,FLT_005,123.79,24.66,0.344,-0.007,354.714,55.42,54.12,55.07,54.12,50.501,90.3,0.3584
