timestamp_s,flight_id,altitude_m,airspeed_ms,pitch_deg,roll_deg,yaw_deg,motor1_temp_c,motor2_temp_c,motor3_temp_c,motor4_temp_c,battery_v,battery_pct,vibration_g
0.0,FLT_002,0.0,0.0,8.0,-0.256,359.964,55.52,54.67,56.33,53.8,52.07,99.9,0.2668
0.1,FLT_002,0.29,0.04,8.0,-3.049,359.951,55.61,52.88,55.09,55.06,51.873,100.0,0.262
0.2,FLT_002,0.0,0.08,8.0,-0.425,359.892,53.79,56.53,53.9,54.66,51.957,100.0,0.2957
0.3,FLT_002,0.11,0.12,8.0,-1.226,359.877,56.18,55.23,54.61,54.4,52.012,99.6,0.2896
0.4,FLT_002,0.7,0.16,8.0,2.672,359.817,55.02,54.61,55.12,54.35,51.946,100.0,0.2721
0.5,FLT_002,0.97,0.2,8.0,1.123,359.783,55.89,54.37,53.51,57.82,51.769,99.8,0.3302
0.6,FLT_002,1.1,0.24,8.0,-6.024,359.741,56.0,54.33,54.12,55.69,51.813,99.6,0.3387
0.7,FLT_002,2.24,0.28,8.0,0.101,359.788,54.35,56.04,55.52,55.29,52.199,99.7,0.2544
0.8,FLT_002,1.62,0.32,8.0,-2.273,359.838,55.19,56.46,54.8,55.14,52.1,100.0,0.2677
0.9,FLT_002,2.28,0.36,8.0,-2.905,359.852,54.24,55.61,54.14,56.22,52.042,99.4,0.3762
1.0,FLT_002,3.12,0.4,8.0,-4.579,360.0,56.32,53.34,56.03,53.76,51.963,99.6,0.2795
1.1,FLT_002,1.96,0.44,8.0,1.753,0.107,54.57,54.98,54.55,54.64,51.906,99.7,0.352
1.2,FLT_002,2.47,0.48,8.0,2.026,0.238,55.81,56.07,54.89,55.0,52.01,100.0,0.264
1.3,FLT_002,3.01,0.52,8.0,-3.0,0.164,55.63,53.95,55.04,54.78,51.873,99.6,0.2616
1.4,FLT_002,2.86,0.56,8.0,2.238,0.048,55.28,53.83,55.36,55.28,52.066,99.5,0.2645
1.5,FLT_002,2.86,0.6,8.0,4.205,0.076,56.98,53.71,57.31,56.92,52.018,99.6,0.2734
1.6,FLT_002,4.37,0.64,8.0,-0.413,0.118,56.28,54.49,55.98,53.27,51.969,100.0,0.3366
1.7,FLT_002,4.0,0.68,8.0,-1.807,0.018,52.96,54.42,54.03,53.04,51.931,100.0,0.263
1.8,FLT_002,2.55,0.72,8.0,-0.146,0.051,56.62,54.28,55.47,57.81,51.927,99.7,0.2918
1.9,FLT_002,4.48,0.76,8.0,2.337,359.879,54.89,53.71,56.87,54.85,51.985,98.9,0.2445
2.0,FLT_002,4.8,0.8,8.0,2.632,359.845,55.85,52.28,55.3,54.94,51.83,99.9,0.2867
2.1,FLT_002,4.8,0.84,8.0,-0.07,359.715,54.63,55.97,54.33,54.72,52.185,99.3,0.2454
2.2,FLT_002,4.78,0.88,8.0,-1.838,359.756,55.1,55.87,54.75,54.84,51.904,99.7,0.2774
2.3,FLT_002,5.38,0.92,8.0,0.486,359.835,54.83,54.83,53.68,55.76,51.823,99.2,0.2565
2.4,FLT_002,5.24,0.96,8.0,-0.195,359.627,55.83,53.37,54.55,56.32,52.021,99.2,0.3103
2.5,FLT_002,5.29,1.0,8.0,0.238,359.317,55.11,54.68,53.89,56.26,51.891,99.5,0.2852
2.6,FLT_002,5.27,1.04,8.0,-0.773,359.475,54.3,55.69,56.92,55.12,51.887,99.7,0.3116
2.7,FLT_002,4.87,1.08,8.0,0.383,359.358,56.42,55.47,56.01,54.75,51.938,98.8,0.3797
2.8,FLT_002,4.91,1.12,8.0,-3.728,359.303,54.12,54.54,54.65,55.27,51.879,99.2,0.2828
2.9,FLT_002,6.19,1.16,8.0,0.718,359.198,55.71,53.45,55.16,55.32,51.873,99.7,0.2894
3.0,FLT_002,6.38,1.2,8.0,2.273,359.314,55.05,53.96,55.41,55.37,51.91,99.2,0.3167
3.1,FLT_002,6.18,1.24,8.0,-0.38,359.408,55.83,54.78,55.3,55.56,52.062,99.1,0.3636
3.2,FLT_002,5.97,1.28,8.0,0.251,359.374,55.05,53.66,52.73,54.19,51.901,99.3,0.2923
3.3,FLT_002,6.04,1.32,8.0,-3.211,359.442,53.29,55.25,53.98,54.34,51.9,99.9,0.1594
3.4,FLT_002,6.62,1.36,8.0,1.041,359.47,56.77,54.61,56.19,55.04,52.023,99.7,0.2396
3.5,FLT_002,7.35,1.4,8.0,1.854,359.501,53.56,54.96,52.68,55.22,51.715,99.5,0.1877
3.6,FLT_002,8.32,1.44,8.0,3.282,359.564,54.07,54.98,54.34,56.18,51.973,99.3,0.3278
3.7,FLT_002,7.39,1.48,8.0,-4.749,359.563,55.04,54.69,54.51,55.21,51.975,99.6,0.2501
3.8,FLT_002,7.75,1.52,8.0,1.057,359.511,54.62,52.69,54.46,55.0,51.916,99.6,0.2562
3.9,FLT_002,8.36,1.56,8.0,-3.48,359.6,54.25,55.25,55.11,52.81,51.868,99.1,0.2422
4.0,FLT_002,7.97,1.6,8.0,0.782,359.616,54.29,56.32,55.53,55.63,51.904,99.1,0.317
4.1,FLT_002,8.39,1.64,8.0,-1.109,359.615,55.97,54.75,54.44,55.84,51.868,99.2,0.2996
4.2,FLT_002,8.81,1.68,8.0,1.001,359.626,56.11,56.23,54.36,55.66,51.921,99.5,0.2371
4.3,FLT_002,9.15,1.72,8.0,0.862,359.564,54.89,55.71,54.91,54.97,51.869,99.5,0.2903
4.4,FLT_002,8.83,1.76,8.0,0.166,359.432,55.8,54.67,54.63,56.06,51.998,99.1,0.2445
4.5,FLT_002,8.76,1.8,8.0,-0.913,359.369,55.41,54.01,56.16,56.46,51.851,99.0,0.3305
4.6,FLT_002,9.3,1.84,8.0,0.324,359.391,55.3,54.68,56.61,56.55,51.866,99.4,0.3167
4.7,FLT_002,8.55,1.88,8.0,1.877,359.382,54.11,54.74,54.95,56.64,51.96,99.1,0.3285
4.8,FLT_002,9.75,1.92,8.0,0.535,359.273,55.89,54.68,55.0,54.89,51.949,99.5,0.294
4.9,FLT_002,10.24,1.96,8.0,1.581,359.132,54.24,55.52,55.45,55.59,51.892,99.1,0.2882
5.0,FLT_002,10.85,2.0,8.0,-2.778,359.01,55.22,53.91,54.37,55.06,51.844,99.3,0.3373
5.1,FLT_002,10.66,2.04,8.0,0.128,358.993,55.9,55.28,53.77,52.98,51.853,98.9,0.2797
5.2,FLT_002,9.12,2.08,8.0,-0.968,359.152,54.96,55.41,55.79,56.75,52.152,99.5,0.3122
5.3,FLT_002,11.3,2.12,8.0,1.555,359.032,56.12,55.62,54.46,56.44,51.965,98.7,0.3108
5.4,FLT_002,11.54,2.16,8.0,1.062,359.103,53.92,56.1,56.88,56.4,51.911,99.2,0.3023
5.5,FLT_002,10.54,2.2,8.0,-1.027,358.963,54.61,53.36,54.25,55.05,51.856,98.7,0.2632
5.6,FLT_002,11.0,2.24,8.0,0.307,359.04,54.72,55.24,53.19,55.79,52.011,99.4,0.1639
5.7,FLT_002,12.12,2.28,8.0,-0.281,358.972,54.38,55.0,54.52,55.75,51.651,98.6,0.4065
5.8,FLT_002,11.63,2.32,8.0,0.784,358.963,54.43,53.29,55.56,53.41,51.934,99.5,0.3167
5.9,FLT_002,11.51,2.36,8.0,0.697,359.033,54.83,56.09,55.58,55.03,51.868,99.5,0.2868
6.0,FLT_002,11.63,2.4,8.0,0.137,359.042,55.07,53.95,55.41,55.49,51.875,99.2,0.2916
6.1,FLT_002,13.52,2.44,8.0,-2.676,359.066,55.21,55.01,54.86,55.79,51.975,99.2,0.2488
6.2,FLT_002,12.8,2.48,8.0,2.97,359.076,54.39,53.66,55.9,53.68,52.005,99.1,0.2274
6.3,FLT_002,12.46,2.52,8.0,2.111,359.261,54.26,55.42,55.33,54.84,51.843,98.7,0.328
6.4,FLT_002,13.52,2.56,8.0,0.179,359.133,56.41,55.98,54.89,54.44,51.837,98.7,0.3477
6.5,FLT_002,12.96,2.6,8.0,1.038,359.119,55.27,55.19,56.19,54.8,51.744,99.0,0.2552
6.6,FLT_002,13.81,2.64,8.0,1.202,359.12,56.03,53.67,55.35,54.29,51.824,99.2,0.3307
6.7,FLT_002,13.69,2.68,8.0,-1.381,359.031,55.01,54.78,53.89,54.26,51.987,99.0,0.3458
6.8,FLT_002,13.43,2.72,8.0,2.484,359.111,54.54,56.75,54.47,53.1,51.798,98.3,0.3055
6.9,FLT_002,14.05,2.76,8.0,-4.064,359.067,54.26,53.24,53.96,52.56,51.64,99.0,0.2114
7.0,FLT_002,14.27,2.8,8.0,-3.409,359.149,54.38,55.37,54.59,54.64,51.723,98.6,0.2547
7.1,FLT_002,14.6,2.84,8.0,-1.429,359.157,57.55,54.4,55.22,55.11,51.778,99.0,0.2808
7.2,FLT_002,15.22,2.88,8.0,0.672,359.121,55.25,54.39,55.77,56.19,51.746,98.5,0.2637
7.3,FLT_002,15.71,2.92,8.0,0.266,359.293,55.07,56.17,55.54,55.17,51.881,99.0,0.3424
7.4,FLT_002,15.01,2.96,8.0,0.145,359.11,53.96,54.88,56.0,54.61,51.861,98.9,0.3701
7.5,FLT_002,14.05,3.0,8.0,-0.143,359.172,55.08,53.92,55.37,55.46,51.916,98.6,0.3469
7.6,FLT_002,15.64,3.04,8.0,-0.642,359.312,57.34,55.23,55.3,54.85,51.78,98.3,0.3726
7.7,FLT_002,15.27,3.08,8.0,-2.551,359.163,54.91,54.7,56.36,54.48,51.834,99.0,0.2612
7.8,FLT_002,14.76,3.12,8.0,-2.753,359.16,56.15,54.91,54.16,54.44,51.708,98.7,0.3408
7.9,FLT_002,16.15,3.16,8.0,-2.568,359.207,54.31,54.47,53.79,54.25,51.773,98.6,0.335
8.0,FLT_002,16.22,3.2,8.0,-2.186,359.121,52.52,55.11,54.44,54.78,51.803,98.6,0.2924
8.1,FLT_002,15.8,3.24,8.0,-2.829,359.177,54.18,56.36,53.12,55.94,51.807,98.2,0.3674
8.2,FLT_002,15.81,3.28,8.0,-2.872,359.319,53.43,54.26,55.37,56.95,51.887,98.8,0.2393
8.3,FLT_002,17.3,3.32,8.0,-0.548,359.393,55.78,52.42,55.35,54.19,51.833,98.4,0.2242
8.4,FLT_002,17.06,3.36,8.0,2.112,359.581,57.4,55.31,55.95,54.13,51.781,98.5,0.2048
8.5,FLT_002,16.61,3.4,8.0,0.881,359.475,54.07,54.95,54.25,55.33,51.996,98.6,0.279
8.6,FLT_002,17.53,3.44,8.0,-1.852,359.452,54.55,54.97,55.97,55.03,51.687,98.0,0.331
8.7,FLT_002,17.19,3.48,8.0,-1.38,359.3,54.73,54.29,54.47,55.71,51.872,97.9,0.2632
8.8,FLT_002,17.88,3.52,8.0,3.794,359.253,54.86,54.04,54.6,55.83,51.781,97.9,0.2637
8.9,FLT_002,17.96,3.56,8.0,-0.998,359.304,54.68,52.43,55.91,54.75,51.826,98.2,0.2804
9.0,FLT_002,16.72,3.6,8.0,-2.174,359.33,55.79,54.59,55.48,55.57,51.666,98.3,0.2247
9.1,FLT_002,18.26,3.64,8.0,-0.576,359.275,54.26,53.67,53.86,55.2,51.661,97.9,0.2904
9.2,FLT_002,18.32,3.68,8.0,-1.139,359.262,54.85,54.98,55.43,54.68,51.741,98.0,0.4167
9.3,FLT_002,18.23,3.72,8.0,-1.713,359.064,54.55,54.18,55.37,56.7,51.764,98.4,0.2389
9.4,FLT_002,18.17,3.76,8.0,0.069,359.068,54.5,55.45,56.32,54.32,51.656,98.0,0.3249
9.5,FLT_002,18.9,3.8,8.0,2.533,359.224,56.76,54.07,55.55,53.89,51.71,98.1,0.3274
9.6,FLT_002,19.03,3.84,8.0,-2.641,359.069,55.53,54.34,52.69,56.39,51.792,98.6,0.2882
9.7,FLT_002,19.73,3.88,8.0,0.776,359.067,55.21,54.46,54.77,54.81,51.694,98.4,0.3151
9.8,FLT_002,19.53,3.92,8.0,1.976,359.203,54.64,54.61,54.86,56.99,51.917,97.8,0.3179
9.9,FLT_002,19.85,3.96,8.0,0.901,359.101,52.72,52.99,55.45,52.42,51.694,98.3,0.28
10.0,FLT_002,20.17,4.0,8.0,2.069,359.081,54.5,54.22,54.96,54.37,51.743,98.4,0.2998
10.1,FLT_002,19.97,4.04,8.0,1.075,359.198,54.85,54.22,53.74,54.73,51.722,98.5,0.3529
10.2,FLT_002,19.91,4.08,8.0,-1.395,359.458,55.51,55.63,55.18,56.28,51.619,98.4,0.3308
10.3,FLT_002,21.71,4.12,8.0,3.592,359.484,55.09,55.82,54.74,55.46,51.738,98.3,0.2563
10.4,FLT_002,20.77,4.16,8.0,1.04,359.518,56.96,55.18,56.2,55.01,51.656,98.2,0.3169
10.5,FLT_002,20.9,4.2,8.0,4.569,359.401,53.75,55.16,55.53,55.85,51.854,98.3,0.2611
10.6,FLT_002,21.91,4.24,8.0,-3.723,359.438,54.32,58.77,56.08,56.26,51.746,98.4,0.2745
10.7,FLT_002,22.35,4.28,8.0,4.78,359.406,55.88,54.16,54.58,55.56,51.717,98.1,0.412
10.8,FLT_002,22.33,4.32,8.0,1.727,359.44,53.15,54.53,54.5,55.61,51.696,97.9,0.3769
10.9,FLT_002,21.61,4.36,8.0,0.941,359.488,54.01,57.01,58.23,55.43,51.837,98.0,0.3535
11.0,FLT_002,22.18,4.4,8.0,-1.844,359.465,56.24,55.5,54.46,54.06,51.732,97.9,0.2578
11.1,FLT_002,22.5,4.44,8.0,1.483,359.595,55.34,54.33,56.01,54.36,51.614,98.0,0.3071
11.2,FLT_002,23.52,4.48,8.0,2.396,359.65,55.22,54.14,54.07,56.44,51.801,97.4,0.2784
11.3,FLT_002,22.81,4.52,8.0,-3.515,359.577,54.54,54.59,54.35,54.5,51.79,98.3,0.3581
11.4,FLT_002,23.04,4.56,8.0,1.14,359.454,54.89,52.98,55.81,55.39,51.625,98.0,0.2964
11.5,FLT_002,22.5,4.6,8.0,-1.293,359.599,55.88,56.3,55.15,55.1,51.679,98.3,0.3
11.6,FLT_002,22.58,4.64,8.0,1.155,359.711,55.6,53.68,54.64,55.98,51.922,97.6,0.3843
11.7,FLT_002,24.08,4.68,8.0,-2.06,359.739,55.86,57.2,54.92,56.22,51.738,98.1,0.2853
11.8,FLT_002,23.78,4.72,8.0,2.542,359.609,54.94,53.9,55.18,54.78,52.082,97.8,0.2036
11.9,FLT_002,24.03,4.76,8.0,-0.16,359.579,54.58,53.93,54.74,54.16,51.836,97.9,0.3205
12.0,FLT_002,24.54,4.8,8.0,1.5,359.631,56.98,55.91,53.83,54.4,51.951,98.1,0.3352
12.1,FLT_002,24.63,4.84,8.0,1.933,359.538,54.61,54.79,54.16,54.89,51.625,98.1,0.3386
12.2,FLT_002,24.77,4.88,8.0,0.598,359.727,56.02,54.63,53.81,52.98,51.94,97.7,0.3191
12.3,FLT_002,24.92,4.92,8.0,-1.738,359.606,53.04,55.28,55.13,54.8,51.57,97.7,0.3629
12.4,FLT_002,24.87,4.96,8.0,1.266,359.488,54.42,54.58,55.26,54.41,51.672,97.9,0.3382
12.5,FLT_002,25.11,5.0,8.0,-0.192,359.511,55.05,54.75,55.1,52.82,51.615,96.9,0.3277
12.6,FLT_002,25.66,5.04,8.0,0.38,359.637,55.81,55.28,54.53,54.68,51.691,98.0,0.2789
12.7,FLT_002,24.94,5.08,8.0,-0.73,359.384,55.53,54.87,55.61,55.11,51.744,97.8,0.173
12.8,FLT_002,25.08,5.12,8.0,-3.58,359.299,55.93,54.03,55.13,53.22,51.67,97.8,0.2875
12.9,FLT_002,25.85,5.16,8.0,0.117,359.026,54.03,53.65,54.84,54.66,51.708,97.8,0.4162
13.0,FLT_002,26.08,5.2,8.0,-1.197,359.157,54.39,53.66,53.33,53.86,51.646,97.2,0.2887
13.1,FLT_002,26.57,5.24,8.0,0.6,359.073,55.87,55.03,54.07,54.9,51.728,97.6,0.3184
13.2,FLT_002,26.29,5.28,8.0,-0.072,359.239,55.26,55.1,54.46,54.46,51.716,97.7,0.2658
13.3,FLT_002,26.22,5.32,8.0,-1.053,359.068,54.53,56.21,55.59,56.29,51.64,97.7,0.3432
13.4,FLT_002,27.11,5.36,8.0,4.267,358.961,55.12,54.01,56.29,54.67,51.642,98.3,0.2961
13.5,FLT_002,27.68,5.4,8.0,-0.625,358.924,53.89,54.03,55.69,55.14,51.54,97.5,0.3362
13.6,FLT_002,27.39,5.44,8.0,0.16,358.969,54.27,54.27,57.7,55.45,51.674,97.7,0.3289
13.7,FLT_002,26.68,5.48,8.0,3.757,358.975,54.82,55.45,53.1,54.04,51.706,97.1,0.2875
13.8,FLT_002,27.74,5.52,8.0,-2.017,358.909,54.19,56.32,53.02,54.05,51.752,97.2,0.3292
13.9,FLT_002,26.84,5.56,8.0,1.68,358.665,55.04,54.54,54.02,54.72,51.534,98.0,0.3431
14.0,FLT_002,27.99,5.6,8.0,-1.495,358.636,56.62,55.86,53.35,55.08,51.568,97.4,0.1986
14.1,FLT_002,27.2,5.64,8.0,-0.462,358.616,53.23,55.27,55.92,53.63,51.705,97.5,0.2965
14.2,FLT_002,28.19,5.68,8.0,0.793,358.567,55.38,56.52,52.82,55.1,51.703,97.6,0.3565
14.3,FLT_002,28.86,5.72,8.0,2.293,358.701,55.14,54.89,53.94,55.29,51.727,97.9,0.2945
14.4,FLT_002,28.66,5.76,8.0,-2.045,358.674,54.6,55.24,54.28,55.03,51.886,97.4,0.4408
14.5,FLT_002,29.58,5.8,8.0,0.512,358.819,57.65,53.45,52.1,55.13,51.518,97.2,0.2607
14.6,FLT_002,29.32,5.84,8.0,-1.486,358.869,54.68,54.8,53.96,55.38,51.564,97.2,0.3316
14.7,FLT_002,28.84,5.88,8.0,1.29,358.925,56.42,54.28,55.97,55.28,51.653,97.4,0.2977
14.8,FLT_002,30.06,5.92,8.0,1.939,359.01,55.41,55.17,54.55,55.67,51.639,97.6,0.2172
14.9,FLT_002,30.15,5.96,8.0,1.336,359.046,54.44,55.98,56.14,54.8,51.665,97.2,0.3316
15.0,FLT_002,30.64,6.0,8.0,-1.61,359.007,53.94,54.98,56.12,54.5,51.788,97.1,0.3204
15.1,FLT_002,30.56,6.04,8.0,-2.206,359.055,55.13,54.76,54.61,56.65,51.85,97.5,0.2921
15.2,FLT_002,30.64,6.08,8.0,-0.344,359.142,55.92,54.21,52.97,55.47,51.545,97.6,0.3597
15.3,FLT_002,30.11,6.12,8.0,-2.455,359.193,54.15,55.25,54.77,56.28,51.69,97.7,0.2268
15.4,FLT_002,31.21,6.16,8.0,1.028,359.045,54.83,55.21,57.19,56.18,51.764,97.3,0.2719
15.5,FLT_002,30.93,6.2,8.0,2.826,359.126,53.22,54.72,54.45,55.58,51.553,97.4,0.2756
15.6,FLT_002,31.61,6.24,8.0,-1.574,359.2,54.43,53.46,55.11,55.96,51.635,97.4,0.2961
15.7,FLT_002,32.52,6.28,8.0,1.046,359.285,54.85,54.78,54.91,54.24,51.575,96.6,0.3535
15.8,FLT_002,32.21,6.32,8.0,-1.585,359.253,54.77,54.7,55.6,56.19,51.449,97.6,0.3127
15.9,FLT_002,31.95,6.36,8.0,2.513,359.179,55.74,54.57,53.13,54.77,51.529,97.4,0.3757
16.0,FLT_002,32.04,6.4,8.0,2.024,359.175,55.64,55.97,54.76,54.42,51.584,97.3,0.2287
16.1,FLT_002,32.0,6.44,8.0,-0.16,359.269,53.79,55.81,53.47,55.89,51.741,97.2,0.2453
16.2,FLT_002,31.25,6.48,8.0,1.53,359.124,54.42,53.83,56.39,53.76,51.631,97.2,0.2097
16.3,FLT_002,32.63,6.52,8.0,1.675,359.128,53.56,56.98,55.59,55.4,51.626,97.7,0.35
16.4,FLT_002,32.55,6.56,8.0,-2.384,358.928,55.22,54.32,54.5,56.73,51.581,96.6,0.1887
16.5,FLT_002,33.17,6.6,8.0,0.99,358.787,54.91,54.34,56.34,54.25,51.613,96.9,0.2339
16.6,FLT_002,32.95,6.64,8.0,-1.244,358.896,55.47,56.38,54.82,52.82,51.618,97.1,0.2929
16.7,FLT_002,33.52,6.68,8.0,0.248,358.922,55.88,56.28,55.02,54.78,51.408,97.4,0.1752
16.8,FLT_002,34.23,6.72,8.0,-0.688,358.81,54.98,55.09,54.65,56.76,51.645,97.1,0.3075
16.9,FLT_002,33.89,6.76,8.0,0.058,358.874,55.2,55.02,55.78,54.58,51.575,96.8,0.3602
17.0,FLT_002,33.46,6.8,8.0,1.841,358.813,54.76,55.5,54.96,55.75,51.696,96.7,0.276
17.1,FLT_002,33.79,6.84,8.0,-2.287,358.854,54.69,55.42,55.81,56.02,51.482,97.0,0.3249
17.2,FLT_002,34.75,6.88,8.0,-3.498,358.898,53.02,55.3,55.84,54.04,51.738,96.8,0.3894
17.3,FLT_002,34.98,6.92,8.0,-0.895,358.965,56.08,55.21,54.57,55.43,51.483,97.6,0.3195
17.4,FLT_002,34.37,6.96,8.0,2.211,359.056,55.82,52.85,56.62,53.05,51.682,97.0,0.3591
17.5,FLT_002,34.99,7.0,8.0,-1.797,359.036,53.9,56.43,55.92,54.55,51.516,96.7,0.2764
17.6,FLT_002,35.66,7.04,8.0,-1.031,359.013,56.03,55.34,55.23,52.11,51.623,97.4,0.2791
17.7,FLT_002,36.27,7.08,8.0,2.334,359.147,53.97,54.63,52.65,55.77,51.69,96.6,0.3203
17.8,FLT_002,35.7,7.12,8.0,2.769,359.059,54.94,56.32,54.49,53.59,51.609,96.9,0.3221
17.9,FLT_002,35.71,7.16,8.0,1.385,359.111,54.01,55.31,56.1,55.03,51.527,96.6,0.3329
18.0,FLT_002,35.82,7.2,8.0,0.816,359.044,55.99,54.99,55.63,56.72,51.5,96.6,0.351
18.1,FLT_002,36.28,7.24,8.0,2.002,359.049,55.55,54.27,55.27,55.1,51.518,96.9,0.3544
18.2,FLT_002,37.1,7.28,8.0,-0.831,359.227,54.64,54.2,57.23,54.74,51.428,97.1,0.3804
18.3,FLT_002,36.68,7.32,8.0,1.385,359.103,52.66,54.36,54.23,54.75,51.564,97.0,0.3911
18.4,FLT_002,37.06,7.36,8.0,-1.595,358.96,53.5,54.45,55.25,53.66,51.668,96.5,0.2881
18.5,FLT_002,36.3,7.4,8.0,3.237,359.101,56.17,55.04,55.17,54.6,51.649,97.1,0.3094
18.6,FLT_002,38.0,7.44,8.0,2.086,359.125,55.22,55.77,55.24,56.13,51.663,96.8,0.3151
18.7,FLT_002,38.08,7.48,8.0,1.317,359.055,55.14,55.84,55.43,52.92,51.61,96.0,0.3513
18.8,FLT_002,37.46,7.52,8.0,-0.684,359.042,54.12,54.17,54.2,53.92,51.349,96.9,0.303
18.9,FLT_002,37.76,7.56,8.0,1.387,359.022,56.13,56.51,53.36,55.79,51.492,97.0,0.2588
19.0,FLT_002,38.6,7.6,8.0,-0.037,358.994,55.6,57.22,54.92,53.45,51.578,96.7,0.3205
19.1,FLT_002,39.68,7.64,8.0,-1.112,359.129,53.45,56.12,54.15,55.72,51.478,96.8,0.4119
19.2,FLT_002,37.57,7.68,8.0,1.17,359.038,54.97,55.89,53.45,55.07,51.488,97.2,0.2366
19.3,FLT_002,38.35,7.72,8.0,-3.805,359.016,55.79,55.69,55.96,53.32,51.541,95.8,0.3009
19.4,FLT_002,38.61,7.76,8.0,1.774,358.908,54.88,54.97,56.47,57.74,51.52,96.7,0.3285
19.5,FLT_002,39.53,7.8,8.0,-2.06,358.887,56.44,55.9,55.45,55.03,51.581,96.3,0.2555
19.6,FLT_002,39.39,7.84,8.0,1.466,358.822,56.26,55.2,54.53,54.94,51.433,96.9,0.3652
19.7,FLT_002,39.15,7.88,8.0,-2.98,358.853,54.3,53.14,53.29,55.04,51.254,96.4,0.2562
19.8,FLT_002,38.9,7.92,8.0,-0.827,358.839,52.95,53.84,55.47,54.25,51.399,96.6,0.3207
19.9,FLT_002,40.31,7.96,8.0,0.908,358.897,53.77,53.88,56.19,55.83,51.633,96.0,0.2697
20.0,FLT_002,39.91,8.0,8.0,1.741,359.031,54.17,55.49,55.11,55.82,51.511,96.7,0.3278
20.1,FLT_002,39.63,8.04,8.0,-1.382,358.914,56.28,53.27,55.42,55.04,51.467,96.1,0.2916
20.2,FLT_002,40.07,8.08,8.0,-1.85,358.929,56.1,53.28,53.72,55.1,51.628,96.3,0.273
20.3,FLT_002,40.4,8.12,8.0,2.044,358.77,54.72,55.35,53.36,56.19,51.349,96.8,0.3526
20.4,FLT_002,40.66,8.16,8.0,3.803,358.775,55.18,55.18,54.85,53.85,51.595,96.6,0.3495
20.5,FLT_002,40.49,8.2,8.0,-1.82,358.831,54.22,56.64,55.07,55.01,51.535,96.3,0.2819
20.6,FLT_002,40.69,8.24,8.0,-5.229,358.798,55.85,54.21,55.43,55.15,51.572,95.9,0.3907
20.7,FLT_002,42.59,8.28,8.0,3.041,358.837,54.72,54.51,55.66,55.55,51.531,96.3,0.3063
20.8,FLT_002,41.77,8.32,8.0,-0.295,358.869,54.24,55.47,53.88,54.31,51.569,96.2,0.3536
20.9,FLT_002,41.6,8.36,8.0,-1.811,358.927,55.38,55.26,53.92,55.35,51.53,96.1,0.2655
21.0,FLT_002,42.2,8.4,8.0,0.116,358.807,54.82,56.06,55.42,53.87,51.513,96.1,0.2706
21.1,FLT_002,42.29,8.44,8.0,3.889,358.915,55.18,54.23,55.08,55.39,51.518,96.1,0.2646
21.2,FLT_002,41.96,8.48,8.0,1.315,358.883,55.49,54.04,54.39,55.05,51.359,96.2,0.3203
21.3,FLT_002,41.65,8.52,8.0,1.561,358.718,54.56,54.58,53.93,55.37,51.39,96.8,0.2686
21.4,FLT_002,42.54,8.56,8.0,0.324,358.626,54.35,54.68,55.04,52.49,51.73,95.9,0.3012
21.5,FLT_002,42.92,8.6,8.0,0.954,358.5,53.4,56.59,53.44,55.92,51.391,96.5,0.2361
21.6,FLT_002,43.15,8.64,8.0,3.395,358.447,55.89,54.98,56.49,55.82,51.353,96.5,0.301
21.7,FLT_002,42.49,8.68,8.0,-1.805,358.361,55.2,55.39,55.95,55.4,51.417,95.5,0.3319
21.8,FLT_002,44.85,8.72,8.0,1.52,358.208,55.85,56.61,56.25,54.69,51.389,95.9,0.2313
21.9,FLT_002,45.01,8.76,8.0,-0.069,358.04,54.15,55.05,57.08,53.82,51.351,96.1,0.3962
22.0,FLT_002,44.23,8.8,8.0,-0.126,358.038,54.79,54.86,54.15,55.12,51.52,96.1,0.2741
22.1,FLT_002,44.22,8.84,8.0,-2.289,358.18,54.43,54.95,54.83,55.03,51.424,95.6,0.3261
22.2,FLT_002,44.13,8.88,8.0,0.842,358.194,54.04,54.49,54.84,54.97,51.321,96.0,0.1906
22.3,FLT_002,44.9,8.92,8.0,1.164,358.134,55.01,55.59,53.9,54.73,51.375,96.2,0.3117
22.4,FLT_002,44.75,8.96,8.0,-0.373,358.028,54.07,53.97,55.35,55.08,51.323,95.6,0.2929
22.5,FLT_002,45.64,9.0,8.0,2.894,357.9,54.46,54.41,53.69,56.05,51.396,96.0,0.3579
22.6,FLT_002,45.67,9.04,8.0,0.167,357.874,54.86,53.38,55.07,54.24,51.513,95.7,0.3175
22.7,FLT_002,44.98,9.08,8.0,-4.247,357.854,54.4,55.99,54.76,56.66,51.43,95.9,0.2879
22.8,FLT_002,45.27,9.12,8.0,1.1,357.909,58.0,56.37,53.94,56.4,51.478,95.7,0.3613
22.9,FLT_002,46.29,9.16,8.0,-2.325,357.874,54.43,55.5,56.38,53.88,51.458,95.8,0.3078
23.0,FLT_002,46.36,9.2,8.0,2.857,358.013,55.12,55.12,54.13,53.19,51.419,95.8,0.3228
23.1,FLT_002,45.65,9.24,8.0,3.752,357.883,55.72,53.59,55.65,54.81,51.447,96.4,0.2942
23.2,FLT_002,46.18,9.28,8.0,2.014,357.771,56.34,53.87,54.92,57.1,51.471,96.5,0.312
23.3,FLT_002,46.53,9.32,8.0,-0.001,357.812,54.29,56.64,54.22,55.16,51.311,96.5,0.3049
23.4,FLT_002,46.79,9.36,8.0,1.202,357.763,54.15,55.52,53.74,54.46,51.532,95.2,0.3337
23.5,FLT_002,46.97,9.4,8.0,-1.496,357.707,54.49,54.29,56.47,54.23,51.549,96.0,0.2235
23.6,FLT_002,47.66,9.44,8.0,1.225,357.629,55.12,56.86,55.25,52.51,51.34,95.7,0.3225
23.7,FLT_002,47.48,9.48,8.0,-1.59,357.49,57.03,56.12,56.29,56.34,51.47,95.5,0.2666
23.8,FLT_002,47.65,9.52,8.0,3.759,357.28,54.91,53.53,55.99,53.3,51.405,96.2,0.3191
23.9,FLT_002,47.43,9.56,8.0,-1.972,357.213,53.57,54.99,56.04,54.32,51.37,95.7,0.189
24.01,FLT_002,48.09,9.6,8.0,-3.277,357.099,54.39,57.55,55.93,55.45,51.595,96.0,0.2643
24.11,FLT_002,48.2,9.64,8.0,-0.329,357.129,56.48,55.6,53.88,53.79,51.353,96.0,0.2964
24.21,FLT_002,48.17,9.68,8.0,1.185,357.123,54.85,54.72,57.11,54.89,51.345,95.9,0.2833
24.31,FLT_002,48.03,9.72,8.0,4.635,357.058,56.75,55.38,55.83,52.05,51.396,95.6,0.2125
24.41,FLT_002,49.45,9.76,8.0,-1.447,357.007,57.37,54.24,56.11,53.42,51.359,95.6,0.3029
24.51,FLT_002,49.9,9.8,8.0,0.125,357.116,56.66,53.44,54.01,54.54,51.254,95.7,0.2782
24.61,FLT_002,49.33,9.84,8.0,-0.002,357.034,54.61,54.67,55.38,53.93,51.327,96.1,0.2589
24.71,FLT_002,50.13,9.88,8.0,-2.106,357.128,55.33,56.72,53.93,54.89,51.472,95.9,0.3329
24.81,FLT_002,49.73,9.92,8.0,-2.002,357.264,55.85,53.29,53.7,55.54,51.4,95.5,0.1658
24.91,FLT_002,49.12,9.96,8.0,-3.772,357.293,54.66,55.22,55.41,53.33,51.398,95.6,0.2615
25.01,FLT_002,50.16,10.0,8.0,3.055,357.255,56.74,54.89,54.93,54.81,51.479,96.1,0.361
25.11,FLT_002,50.04,10.04,8.0,-1.589,357.235,55.55,55.76,52.08,55.8,51.41,95.2,0.2507
25.21,FLT_002,50.65,10.08,8.0,-4.171,357.312,53.73,54.47,53.92,54.44,51.262,95.0,0.2609
25.31,FLT_002,51.4,10.12,8.0,-0.773,357.278,54.64,54.77,53.33,55.01,51.421,95.3,0.3428
25.41,FLT_002,50.56,10.16,8.0,2.437,357.517,55.46,54.9,54.42,54.05,51.367,96.1,0.2994
25.51,FLT_002,51.2,10.2,8.0,1.031,357.438,52.3,55.49,55.26,54.58,51.349,95.1,0.3139
25.61,FLT_002,51.64,10.24,8.0,1.022,357.508,53.31,54.79,54.42,56.33,51.408,95.2,0.3142
25.71,FLT_002,52.09,10.28,8.0,3.238,357.602,56.12,54.2,55.73,53.88,51.23,95.5,0.3589
25.81,FLT_002,52.1,10.32,8.0,2.084,357.438,56.27,55.18,57.08,54.3,51.313,95.5,0.3064
25.91,FLT_002,51.25,10.36,8.0,-5.234,357.458,56.25,56.46,54.53,53.63,51.321,95.8,0.3196
26.01,FLT_002,51.45,10.4,8.0,-0.955,357.428,55.75,54.01,54.65,54.18,51.503,95.8,0.353
26.11,FLT_002,52.59,10.44,8.0,0.869,357.396,56.9,55.05,55.34,55.0,51.299,95.3,0.3691
26.21,FLT_002,52.22,10.48,8.0,0.379,357.496,54.23,55.59,55.92,54.37,51.406,95.5,0.3186
26.31,FLT_002,52.12,10.52,8.0,1.112,357.474,55.09,56.05,53.82,54.83,51.294,95.4,0.2436
26.41,FLT_002,53.41,10.56,8.0,5.367,357.618,55.82,53.98,55.13,54.46,51.31,95.1,0.3782
26.51,FLT_002,52.83,10.6,8.0,-1.939,357.492,54.29,54.3,53.66,52.77,51.385,95.5,0.2664
26.61,FLT_002,54.03,10.64,8.0,-4.499,357.375,54.04,55.41,54.02,54.55,51.257,95.3,0.361
26.71,FLT_002,53.19,10.68,8.0,-4.867,357.344,53.62,55.14,56.73,55.56,51.202,95.4,0.2614
26.81,FLT_002,53.24,10.72,8.0,1.843,357.282,54.74,55.41,56.18,56.0,51.264,95.1,0.4057
26.91,FLT_002,53.78,10.76,8.0,-0.32,357.199,56.12,55.24,56.78,54.64,51.365,95.6,0.3247
27.01,FLT_002,54.39,10.8,8.0,-2.978,356.969,56.45,55.71,54.35,53.27,51.333,94.9,0.3638
27.11,FLT_002,54.36,10.84,8.0,-0.47,357.073,55.2,53.38,55.22,54.03,51.467,95.0,0.2814
27.21,FLT_002,55.36,10.88,8.0,-0.96,357.11,55.8,53.67,56.91,55.27,51.443,95.8,0.3049
27.31,FLT_002,54.7,10.92,8.0,-0.707,357.161,53.28,55.77,53.39,55.59,51.356,95.0,0.3513
27.41,FLT_002,54.72,10.96,8.0,-3.826,357.084,54.18,57.26,54.93,52.84,51.33,95.2,0.384
27.51,FLT_002,55.77,11.0,8.0,1.186,357.139,54.82,54.01,56.45,55.32,51.349,95.1,0.2819
27.61,FLT_002,55.51,11.04,8.0,1.435,357.356,54.57,55.42,55.86,55.79,51.262,94.8,0.3127
27.71,FLT_002,55.2,11.08,8.0,0.258,357.414,52.76,56.36,53.17,56.09,51.342,94.7,0.2529
27.81,FLT_002,55.73,11.12,8.0,-0.153,357.415,54.4,54.66,54.71,55.1,51.14,94.9,0.3471
27.91,FLT_002,55.92,11.16,8.0,0.358,357.425,56.26,56.3,55.19,55.83,51.314,95.0,0.3106
28.01,FLT_002,55.91,11.2,8.0,0.098,357.548,54.77,54.65,55.86,56.04,51.361,94.8,0.3068
28.11,FLT_002,56.3,11.24,8.0,-3.551,357.433,54.41,56.63,56.32,53.23,51.358,95.2,0.2073
28.21,FLT_002,55.77,11.28,8.0,-1.676,357.422,54.16,54.36,54.63,53.91,51.443,95.3,0.3342
28.31,FLT_002,56.43,11.32,8.0,0.428,357.426,54.84,55.21,56.73,56.08,51.21,95.1,0.2659
28.41,FLT_002,57.03,11.36,8.0,-1.471,357.463,57.37,53.7,55.13,54.86,51.473,94.8,0.2424
28.51,FLT_002,56.75,11.4,8.0,1.767,357.39,54.87,54.42,54.56,54.6,51.583,95.3,0.2961
28.61,FLT_002,56.77,11.44,8.0,-2.703,357.191,55.73,55.33,54.32,55.94,51.375,95.1,0.3257
28.71,FLT_002,57.39,11.48,8.0,4.697,357.197,53.45,55.81,55.5,53.99,51.458,95.4,0.2699
28.81,FLT_002,57.38,11.52,8.0,4.148,357.433,55.22,53.94,55.46,53.41,51.32,94.7,0.2977
28.91,FLT_002,57.15,11.56,8.0,-0.567,357.476,55.47,52.9,55.47,53.79,51.168,94.6,0.256
29.01,FLT_002,57.36,11.6,8.0,-2.994,357.359,55.2,55.98,53.81,52.39,51.123,95.1,0.3142
29.11,FLT_002,58.42,11.64,8.0,-1.072,357.31,53.57,54.48,53.78,53.13,51.055,94.8,0.292
29.21,FLT_002,58.46,11.68,8.0,2.427,357.283,53.89,56.16,56.45,53.55,51.334,94.9,0.2687
29.31,FLT_002,58.77,11.72,8.0,-0.678,357.441,55.51,55.43,54.02,57.29,51.344,95.5,0.2749
29.41,FLT_002,58.66,11.76,8.0,0.788,357.428,54.83,55.06,53.18,55.58,51.343,94.5,0.3974
29.51,FLT_002,58.26,11.8,8.0,0.103,357.538,53.15,55.17,54.44,54.31,51.313,94.9,0.2723
29.61,FLT_002,58.78,11.84,8.0,1.144,357.557,54.29,56.38,55.94,55.84,51.26,94.8,0.3523
29.71,FLT_002,59.25,11.88,8.0,1.002,357.566,54.93,54.06,54.41,54.31,51.115,95.1,0.368
29.81,FLT_002,59.83,11.92,8.0,-0.593,357.465,55.33,55.32,55.01,55.94,51.084,94.1,0.336
29.91,FLT_002,58.94,11.96,8.0,2.906,357.545,54.73,55.48,53.74,56.94,51.216,94.6,0.3142
30.01,FLT_002,58.86,12.0,8.0,1.018,357.491,55.98,54.21,55.89,55.84,51.097,94.9,0.2566
30.11,FLT_002,60.94,12.04,8.0,2.363,357.603,53.32,56.02,53.94,55.61,50.993,94.7,0.2773
30.21,FLT_002,60.71,12.08,8.0,-0.49,357.606,56.77,55.36,58.06,55.81,51.247,94.7,0.3252
30.31,FLT_002,60.17,12.12,8.0,-0.332,357.597,54.89,54.84,55.4,54.96,51.262,94.4,0.2094
30.41,FLT_002,60.7,12.16,8.0,5.361,357.522,53.29,54.62,54.2,55.81,51.213,94.8,0.337
30.51,FLT_002,60.8,12.2,8.0,-0.074,357.476,54.26,55.43,55.12,54.69,51.255,95.0,0.3548
30.61,FLT_002,61.36,12.24,8.0,2.507,357.43,54.36,55.09,55.07,54.23,51.082,95.1,0.3509
30.71,FLT_002,61.16,12.28,8.0,-2.912,357.434,54.74,54.71,55.48,55.03,51.303,94.6,0.3087
30.81,FLT_002,61.04,12.32,8.0,0.715,357.593,55.22,55.1,54.63,54.48,51.307,94.5,0.2653
30.91,FLT_002,62.06,12.36,8.0,-0.816,357.449,56.26,54.21,56.67,56.7,51.189,94.6,0.3311
31.01,FLT_002,62.92,12.4,8.0,3.078,357.462,54.34,55.58,55.56,55.75,51.001,94.3,0.2548
31.11,FLT_002,62.48,12.44,8.0,-1.351,357.639,55.43,54.03,56.46,56.68,51.149,94.4,0.3443
31.21,FLT_002,62.45,12.48,8.0,-0.858,357.521,54.47,54.26,52.97,55.48,51.26,94.2,0.3097
31.31,FLT_002,62.51,12.52,8.0,1.159,357.48,54.76,53.83,55.16,54.17,51.129,94.6,0.2692
31.41,FLT_002,62.42,12.56,8.0,-2.103,357.566,55.44,54.31,54.19,55.09,51.442,94.2,0.3667
31.51,FLT_002,62.81,12.6,8.0,0.255,357.445,54.63,53.55,56.17,54.62,51.278,94.4,0.3323
31.61,FLT_002,63.41,12.64,8.0,-1.204,357.597,55.86,55.28,53.12,55.52,51.255,94.4,0.3284
31.71,FLT_002,64.01,12.68,8.0,0.281,357.723,54.61,54.77,57.2,55.48,51.258,94.3,0.3212
31.81,FLT_002,64.23,12.72,8.0,-0.183,357.749,54.85,54.58,56.96,54.99,51.098,94.8,0.2983
31.91,FLT_002,63.9,12.76,8.0,3.671,357.454,56.02,55.34,55.16,56.02,51.21,94.6,0.3031
32.01,FLT_002,64.11,12.8,8.0,0.925,357.406,55.24,54.98,55.52,53.86,50.999,94.5,0.3105
32.11,FLT_002,64.24,12.84,8.0,-2.612,357.505,55.46,55.12,54.5,55.35,50.983,94.6,0.2335
32.21,FLT_002,64.7,12.88,8.0,-1.838,357.468,54.37,54.15,56.14,55.82,51.168,94.1,0.2803
32.31,FLT_002,64.64,12.92,8.0,-0.875,357.469,55.82,56.27,55.7,53.46,51.176,94.1,0.2941
32.41,FLT_002,64.85,12.96,8.0,-1.4,357.672,55.97,54.59,54.48,55.6,51.285,94.4,0.2725
32.51,FLT_002,64.58,13.0,8.0,2.839,357.704,56.0,55.48,54.84,55.9,51.072,94.0,0.3316
32.61,FLT_002,64.77,13.04,8.0,-1.116,357.727,55.24,55.4,54.0,53.72,51.185,94.0,0.3756
32.71,FLT_002,65.07,13.08,8.0,-0.075,357.689,54.67,54.01,56.35,53.53,51.129,94.2,0.2864
32.81,FLT_002,65.73,13.12,8.0,1.203,357.847,54.29,53.27,55.4,54.37,51.015,93.3,0.3163
32.91,FLT_002,65.66,13.16,8.0,5.581,357.95,56.67,55.38,54.71,55.25,51.138,93.9,0.3028
33.01,FLT_002,67.3,13.2,8.0,-0.292,357.902,55.44,55.79,56.0,54.61,51.077,94.4,0.3156
33.11,FLT_002,66.41,13.24,8.0,3.323,357.83,54.15,55.38,56.72,56.27,51.102,94.2,0.3157
33.21,FLT_002,67.2,13.28,8.0,-0.863,357.748,56.91,56.62,53.85,54.96,51.128,94.3,0.3324
33.31,FLT_002,67.36,13.32,8.0,1.952,357.702,54.88,55.11,55.18,56.09,51.382,94.3,0.3387
33.41,FLT_002,67.03,13.36,8.0,-1.674,357.624,53.29,55.8,55.59,55.6,51.238,93.8,0.3716
33.51,FLT_002,66.99,13.4,8.0,1.602,357.636,54.4,55.61,54.49,55.27,51.261,93.5,0.3215
33.61,FLT_002,66.76,13.44,8.0,-0.744,357.721,54.84,54.26,53.35,55.86,51.206,94.1,0.236
33.71,FLT_002,67.11,13.48,8.0,1.825,357.642,54.53,54.78,55.45,53.76,51.162,94.0,0.3981
33.81,FLT_002,68.03,13.52,8.0,1.612,357.572,55.62,55.27,53.67,54.37,51.25,93.8,0.4283
33.91,FLT_002,67.95,13.56,8.0,1.253,357.511,55.95,56.2,55.92,54.24,51.125,93.8,0.3791
34.01,FLT_002,67.69,13.6,8.0,0.856,357.544,54.43,53.87,55.73,53.75,50.997,94.3,0.2995
34.11,FLT_002,68.11,13.64,8.0,-0.955,357.443,56.74,54.94,54.7,54.52,51.135,93.7,0.3173
34.21,FLT_002,68.58,13.68,8.0,1.449,357.295,54.31,54.98,54.08,55.98,51.136,94.1,0.325
34.31,FLT_002,68.63,13.72,8.0,-3.203,357.27,55.84,55.22,55.85,54.15,51.369,94.1,0.3707
34.41,FLT_002,68.7,13.76,8.0,5.107,357.278,53.88,55.46,54.86,55.07,51.233,94.2,0.351
34.51,FLT_002,68.99,13.8,8.0,1.289,357.265,53.96,55.05,53.86,56.08,51.094,93.5,0.2963
34.61,FLT_002,68.01,13.84,8.0,1.084,357.254,54.95,56.4,55.18,54.25,51.115,93.8,0.3477
34.71,FLT_002,69.42,13.88,8.0,0.945,357.337,55.78,53.87,54.7,54.83,51.085,94.6,0.3222
34.81,FLT_002,69.09,13.92,8.0,-1.487,357.455,52.73,56.46,55.54,53.57,51.051,94.6,0.3126
34.91,FLT_002,70.0,13.96,8.0,-1.193,357.449,55.32,53.88,55.31,54.08,51.184,94.4,0.3262
35.01,FLT_002,70.08,14.0,8.0,0.482,357.461,55.07,55.4,55.26,54.68,50.898,94.0,0.3205
35.11,FLT_002,70.59,14.04,8.0,-0.973,357.644,54.34,54.73,56.01,55.48,51.116,93.9,0.2827
35.21,FLT_002,70.79,14.08,8.0,-2.37,357.619,55.76,54.97,56.02,56.49,51.032,93.5,0.2693
35.31,FLT_002,71.47,14.12,8.0,-0.161,357.577,53.64,53.94,56.08,56.73,50.942,93.2,0.2954
35.41,FLT_002,69.82,14.16,8.0,0.701,357.442,53.89,53.64,54.24,54.51,50.926,94.0,0.3491
35.51,FLT_002,70.95,14.2,8.0,-0.024,357.511,55.15,55.77,54.82,56.73,51.151,93.6,0.3359
35.61,FLT_002,70.19,14.24,8.0,2.105,357.367,54.95,54.31,54.05,54.57,51.279,93.3,0.3559
35.71,FLT_002,71.66,14.28,8.0,0.327,357.303,55.19,54.87,54.61,54.69,50.974,93.8,0.2883
35.81,FLT_002,71.53,14.32,8.0,3.171,357.202,54.21,55.23,56.99,54.69,51.188,94.5,0.2746
35.91,FLT_002,71.58,14.36,8.0,4.613,357.074,55.38,54.52,56.7,54.43,51.064,93.8,0.3171
36.01,FLT_002,72.15,14.4,8.0,-0.266,357.225,54.59,53.41,53.13,54.78,51.061,93.5,0.3327
36.11,FLT_002,71.69,14.44,8.0,-2.23,357.238,54.44,55.5,55.52,55.2,51.13,93.8,0.2924
36.21,FLT_002,73.34,14.48,8.0,-2.287,357.079,55.48,55.62,55.42,54.43,51.063,93.4,0.2818
36.31,FLT_002,72.49,14.52,8.0,-0.098,357.111,54.18,54.74,54.6,55.18,51.127,93.4,0.3156
36.41,FLT_002,72.85,14.56,8.0,1.604,357.212,56.0,54.67,55.18,56.97,51.198,93.7,0.2286
36.51,FLT_002,72.95,14.6,8.0,-0.696,357.259,55.33,55.5,56.66,54.8,51.102,93.1,0.2232
36.61,FLT_002,73.68,14.64,8.0,0.053,357.372,55.64,54.14,54.64,54.64,51.094,93.6,0.2972
36.71,FLT_002,72.81,14.68,8.0,-1.04,357.428,55.47,57.08,54.21,56.11,51.175,93.5,0.3364
36.81,FLT_002,74.03,14.72,8.0,-0.634,357.507,55.85,55.23,55.27,55.72,51.043,93.5,0.2373
36.91,FLT_002,73.56,14.76,8.0,0.218,357.498,55.03,54.57,56.12,54.86,51.185,93.3,0.3017
37.01,FLT_002,73.76,14.8,8.0,1.951,357.648,55.14,54.0,54.93,53.58,51.24,93.9,0.2546
37.11,FLT_002,74.66,14.84,8.0,1.866,357.73,55.15,53.57,53.26,53.55,51.174,93.1,0.2515
37.21,FLT_002,74.28,14.88,8.0,-4.471,357.758,55.46,54.03,54.87,54.36,51.112,93.3,0.2835
37.31,FLT_002,74.92,14.92,8.0,1.359,357.673,55.43,53.24,54.95,54.59,51.164,93.5,0.3561
37.41,FLT_002,75.13,14.96,8.0,1.296,357.779,55.73,55.61,52.86,56.17,51.014,93.8,0.3453
37.51,FLT_002,74.84,15.0,8.0,-0.176,357.898,56.03,55.46,53.61,55.51,51.147,93.0,0.1979
37.61,FLT_002,75.33,15.04,8.0,-0.674,358.113,55.7,54.68,55.94,56.69,51.037,93.5,0.1921
37.71,FLT_002,75.17,15.08,8.0,1.21,358.108,54.61,54.11,54.79,55.53,51.026,93.2,0.3412
37.81,FLT_002,75.61,15.12,8.0,0.263,358.148,54.99,54.04,56.16,54.83,51.011,94.0,0.4028
37.91,FLT_002,76.05,15.16,8.0,-0.458,358.187,55.6,55.64,54.82,55.62,51.182,93.5,0.2781
38.01,FLT_002,75.54,15.2,8.0,4.343,357.992,56.73,55.91,53.38,54.82,51.173,93.2,0.281
38.11,FLT_002,76.44,15.24,8.0,1.022,358.078,54.31,56.2,55.0,54.85,51.175,92.9,0.3403
38.21,FLT_002,76.57,15.28,8.0,-1.063,358.127,53.5,58.06,55.11,54.85,51.088,93.2,0.3155
38.31,FLT_002,75.87,15.32,8.0,1.493,358.083,53.49,55.17,54.94,55.13,50.831,93.2,0.3439
38.41,FLT_002,76.44,15.36,8.0,0.876,358.001,53.61,53.33,56.69,53.83,50.758,92.5,0.3045
38.51,FLT_002,76.67,15.4,8.0,0.76,357.888,55.52,54.72,56.0,55.19,51.069,93.2,0.3345
38.61,FLT_002,76.99,15.44,8.0,1.738,357.951,55.09,55.14,54.23,53.84,51.01,93.6,0.2927
38.71,FLT_002,76.94,15.48,8.0,-0.945,357.884,54.76,53.47,52.88,55.14,50.87,93.3,0.3081
38.81,FLT_002,78.09,15.52,8.0,0.527,357.936,54.73,55.98,55.84,55.52,51.05,93.1,0.2449
38.91,FLT_002,78.35,15.56,8.0,-1.693,357.928,55.5,54.21,55.47,54.39,50.986,93.1,0.3692
39.01,FLT_002,77.62,15.6,8.0,1.61,357.957,55.58,57.76,52.6,55.74,51.168,93.0,0.3431
39.11,FLT_002,77.64,15.64,8.0,0.035,358.089,55.07,54.38,55.75,53.74,51.019,92.9,0.2718
39.21,FLT_002,78.41,15.68,8.0,-1.622,358.142,57.05,56.06,54.45,53.07,50.971,93.2,0.2887
39.31,FLT_002,79.28,15.72,8.0,-0.099,358.186,54.37,56.43,56.92,54.76,50.882,92.9,0.2966
39.41,FLT_002,79.89,15.76,8.0,0.469,358.132,55.71,54.59,54.71,54.13,51.02,93.1,0.2827
39.51,FLT_002,78.68,15.8,8.0,1.805,358.183,56.4,54.29,55.4,55.17,51.096,93.2,0.2321
39.61,FLT_002,78.08,15.84,8.0,2.441,358.181,57.62,55.03,54.5,54.27,50.99,92.5,0.31
39.71,FLT_002,78.67,15.88,8.0,1.867,358.051,55.91,57.02,56.81,54.51,51.085,92.5,0.2278
39.81,FLT_002,78.73,15.92,8.0,1.078,358.035,55.81,53.96,54.98,53.63,51.004,92.7,0.349
39.91,FLT_002,80.03,15.96,8.0,1.48,358.158,55.05,53.99,54.93,56.33,51.081,92.8,0.3632
40.01,FLT_002,80.07,16.0,8.0,-0.527,358.069,54.15,54.6,55.96,54.62,51.004,92.7,0.2994
40.11,FLT_002,80.33,16.04,8.0,-2.183,358.104,53.8,54.58,55.03,55.62,50.856,92.7,0.2947
40.21,FLT_002,80.98,16.08,8.0,-1.331,358.094,53.2,55.57,55.2,52.9,51.118,92.6,0.2264
40.31,FLT_002,81.43,16.12,8.0,0.097,358.096,54.73,55.11,54.13,53.95,51.094,92.6,0.2833
40.41,FLT_002,81.24,16.16,8.0,-0.406,358.076,54.95,54.97,52.87,54.3,51.1,93.0,0.2249
40.51,FLT_002,81.38,16.2,8.0,-0.49,358.104,54.19,53.66,55.86,55.94,51.345,92.7,0.3296
40.61,FLT_002,80.48,16.24,8.0,0.543,358.003,53.54,54.82,55.43,55.99,50.975,93.1,0.2638
40.71,FLT_002,81.16,16.28,8.0,1.984,358.059,55.87,54.64,55.09,56.09,50.976,93.1,0.2897
40.81,FLT_002,82.31,16.32,8.0,0.565,358.015,54.59,54.08,56.13,53.95,50.965,92.9,0.25
40.91,FLT_002,81.54,16.36,8.0,-0.969,358.033,53.28,55.29,55.72,56.22,50.92,92.3,0.3189
41.01,FLT_002,82.57,16.4,8.0,-2.429,358.057,55.66,55.79,53.88,55.38,51.03,92.5,0.3028
41.11,FLT_002,82.28,16.44,8.0,-0.312,358.083,55.57,54.39,55.01,56.16,50.942,92.9,0.2081
41.21,FLT_002,82.81,16.48,8.0,-4.088,358.06,55.88,56.2,54.48,56.53,51.115,93.2,0.1786
41.31,FLT_002,82.18,16.52,8.0,2.18,357.935,54.46,53.54,54.88,54.9,50.973,92.1,0.2842
41.41,FLT_002,83.2,16.56,8.0,0.194,357.881,54.15,55.39,57.44,55.5,51.023,92.9,0.3152
41.51,FLT_002,82.7,16.6,8.0,3.54,357.845,55.86,55.74,54.4,53.96,51.007,92.4,0.2946
41.61,FLT_002,83.33,16.64,8.0,2.677,357.673,54.85,55.01,56.3,54.24,51.019,92.1,0.3188
41.71,FLT_002,83.4,16.68,8.0,1.101,357.619,55.03,55.0,54.71,55.54,50.865,92.8,0.3808
41.81,FLT_002,84.21,16.72,8.0,-1.001,357.73,55.24,56.38,55.15,53.07,51.083,92.2,0.2851
41.91,FLT_002,84.23,16.76,8.0,-0.741,357.627,53.98,54.47,52.53,53.93,51.001,92.2,0.3657
42.01,FLT_002,83.13,16.8,8.0,3.117,357.703,55.98,53.48,55.51,53.71,51.001,93.3,0.2727
42.11,FLT_002,83.81,16.84,8.0,0.964,357.648,54.98,55.0,55.26,53.56,50.994,92.0,0.2807
42.21,FLT_002,84.1,16.88,8.0,-2.627,357.59,56.01,54.55,54.08,55.46,50.708,92.2,0.2809
42.31,FLT_002,84.96,16.92,8.0,-0.666,357.571,54.98,54.28,54.59,52.15,50.953,92.5,0.2497
42.41,FLT_002,84.57,16.96,8.0,2.822,357.602,54.8,54.58,54.54,54.24,50.948,92.3,0.3433
42.51,FLT_002,84.47,17.0,8.0,2.205,357.558,55.61,55.42,55.28,53.95,50.964,92.6,0.3483
42.61,FLT_002,84.54,17.04,8.0,0.815,357.506,54.35,52.19,55.42,56.33,51.036,92.6,0.1961
42.71,FLT_002,85.78,17.08,8.0,2.728,357.644,52.92,55.99,56.17,54.1,51.024,92.1,0.2532
42.81,FLT_002,84.58,17.12,8.0,-2.485,357.657,57.63,54.06,54.52,54.75,51.029,93.1,0.3629
42.91,FLT_002,86.35,17.16,8.0,-1.186,357.516,55.53,54.16,54.51,53.65,50.831,91.9,0.2777
43.01,FLT_002,85.37,17.2,8.0,-0.217,357.306,55.11,56.34,54.79,55.68,50.937,92.3,0.3092
43.11,FLT_002,85.99,17.24,8.0,-1.003,357.45,54.64,56.51,55.07,53.94,50.766,92.3,0.2782
43.21,FLT_002,85.83,17.28,8.0,1.499,357.542,55.1,54.79,54.76,55.39,50.928,92.4,0.2465
43.31,FLT_002,86.16,17.32,8.0,1.602,357.56,53.44,54.81,56.08,56.31,50.805,92.5,0.2972
43.41,FLT_002,86.71,17.36,8.0,1.017,357.575,54.27,53.36,56.5,54.09,50.888,92.5,0.2129
43.51,FLT_002,86.95,17.4,8.0,-2.04,357.574,54.58,54.18,54.92,54.41,50.993,92.3,0.2752
43.61,FLT_002,86.44,17.44,8.0,3.539,357.584,55.84,55.7,53.69,53.47,51.123,92.6,0.3473
43.71,FLT_002,87.22,17.48,8.0,0.678,357.605,53.85,54.34,55.58,55.32,50.811,91.8,0.2945
43.81,FLT_002,87.67,17.52,8.0,-3.186,357.709,56.58,54.33,53.91,54.97,50.93,92.3,0.2689
43.91,FLT_002,88.05,17.56,8.0,-2.408,357.804,53.26,55.09,54.41,56.95,50.898,92.5,0.2543
44.01,FLT_002,87.0,17.6,8.0,-1.519,357.823,54.79,57.02,55.43,55.75,50.854,92.2,0.3204
44.11,FLT_002,87.98,17.64,8.0,3.305,357.845,55.42,53.46,56.37,55.79,50.926,92.1,0.3583
44.21,FLT_002,87.39,17.68,8.0,-1.746,357.929,55.08,53.6,53.31,54.73,50.925,92.1,0.3338
44.31,FLT_002,88.36,17.72,8.0,-2.12,357.987,55.88,55.08,55.33,56.51,50.901,92.2,0.2991
44.41,FLT_002,88.6,17.76,8.0,2.19,357.979,55.86,55.69,55.69,55.43,50.752,92.2,0.2975
44.51,FLT_002,89.33,17.8,8.0,1.79,357.698,55.6,55.5,55.56,58.56,50.891,92.3,0.2852
44.61,FLT_002,89.71,17.84,8.0,-1.117,357.768,54.89,52.76,53.92,56.12,50.948,92.3,0.2097
44.71,FLT_002,88.91,17.88,8.0,1.016,357.879,55.4,54.71,55.42,55.93,50.718,92.0,0.2669
44.81,FLT_002,89.77,17.92,8.0,-0.505,357.853,55.55,56.43,56.89,55.93,50.806,92.1,0.2586
44.91,FLT_002,90.15,17.96,8.0,1.239,357.742,54.94,56.35,54.27,53.83,50.786,91.9,0.2661
45.01,FLT_002,89.65,18.0,8.0,-0.611,357.836,53.83,54.75,53.93,55.33,50.858,91.5,0.3308
45.11,FLT_002,90.61,18.04,8.0,1.058,357.931,55.64,56.84,54.65,56.14,50.949,92.4,0.307
45.21,FLT_002,90.49,18.08,8.0,0.047,357.845,55.27,55.71,56.86,55.82,50.848,92.5,0.2554
45.31,FLT_002,90.48,18.12,8.0,-1.18,357.893,54.24,53.89,53.54,53.24,51.012,92.0,0.3468
45.41,FLT_002,90.89,18.16,8.0,1.862,357.847,54.57,55.21,55.03,54.38,50.897,91.9,0.3896
45.51,FLT_002,90.23,18.2,8.0,0.141,357.882,53.14,56.3,54.3,55.52,50.87,91.8,0.3319
45.61,FLT_002,91.29,18.24,8.0,1.964,358.021,53.97,53.38,54.53,55.56,50.864,92.4,0.43
45.71,FLT_002,91.0,18.28,8.0,1.024,358.068,53.31,54.68,54.88,54.58,50.678,91.7,0.3027
45.81,FLT_002,91.63,18.32,8.0,-0.081,358.006,53.75,54.85,54.3,53.54,50.844,91.7,0.3841
45.91,FLT_002,91.62,18.36,8.0,2.356,357.952,56.17,55.98,54.36,54.41,50.893,91.2,0.3362
46.01,FLT_002,92.16,18.4,8.0,0.513,358.15,54.9,55.85,56.31,53.53,51.036,92.0,0.3837
46.11,FLT_002,92.82,18.44,8.0,0.937,358.278,55.95,55.12,54.83,53.79,50.753,92.3,0.2759
46.21,FLT_002,92.48,18.48,8.0,-0.588,358.235,54.84,54.88,54.65,54.83,50.973,92.0,0.282
46.31,FLT_002,93.12,18.52,8.0,-0.917,358.224,56.07,55.31,55.96,53.57,50.904,91.6,0.3317
46.41,FLT_002,92.31,18.56,8.0,0.376,358.19,54.64,54.5,55.57,55.24,50.781,91.2,0.2527
46.51,FLT_002,93.74,18.6,8.0,-1.787,358.209,55.77,56.61,55.23,54.97,50.777,91.9,0.2261
46.61,FLT_002,92.71,18.64,8.0,0.309,358.288,54.74,53.26,53.75,53.38,50.967,91.8,0.2026
46.71,FLT_002,92.79,18.68,8.0,0.412,358.34,54.46,54.61,56.73,55.1,50.886,91.5,0.2953
46.81,FLT_002,93.48,18.72,8.0,-2.053,358.41,55.15,54.25,54.86,52.79,50.928,91.7,0.3692
46.91,FLT_002,93.6,18.76,8.0,2.58,358.34,55.64,54.59,53.78,54.83,50.791,91.9,0.3249
47.01,FLT_002,93.23,18.8,8.0,2.913,358.351,55.67,55.77,56.8,54.88,50.726,91.9,0.251
47.11,FLT_002,93.66,18.84,8.0,2.739,358.436,53.86,55.35,55.98,55.49,50.54,91.8,0.2738
47.21,FLT_002,92.62,18.88,8.0,-0.339,358.588,55.13,55.73,54.65,55.06,50.697,92.0,0.2927
47.31,FLT_002,93.94,18.92,8.0,0.359,358.374,55.27,52.36,54.33,53.74,50.75,91.7,0.2105
47.41,FLT_002,94.49,18.96,8.0,-0.677,358.42,53.61,53.59,55.1,55.54,50.896,91.8,0.3134
47.51,FLT_002,95.76,19.0,8.0,1.487,358.542,53.86,53.92,55.41,55.99,50.71,91.5,0.2932
47.61,FLT_002,95.58,19.04,8.0,-0.335,358.341,55.4,55.97,54.82,55.78,50.645,91.3,0.3175
47.71,FLT_002,95.58,19.08,8.0,0.442,358.478,54.67,55.35,53.86,56.42,50.75,91.7,0.2818
47.81,FLT_002,96.7,19.12,8.0,0.742,358.699,56.71,55.18,56.66,55.46,50.752,91.7,0.2762
47.91,FLT_002,94.92,19.16,8.0,-2.179,358.717,54.9,54.55,56.86,54.85,50.803,91.4,0.2109
48.01,FLT_002,95.99,19.2,8.0,-0.06,358.771,54.99,55.93,55.38,54.7,51.055,91.8,0.3467
48.11,FLT_002,97.24,19.24,8.0,1.845,358.674,55.94,53.42,54.91,55.03,50.83,91.4,0.3026
48.21,FLT_002,96.17,19.28,8.0,7.66,358.879,54.85,55.83,54.17,54.88,50.812,90.9,0.3311
48.31,FLT_002,96.21,19.32,8.0,-3.526,358.907,57.51,55.72,55.99,54.89,50.832,91.5,0.2421
48.41,FLT_002,97.23,19.36,8.0,-1.264,358.651,56.38,53.42,56.12,54.76,51.009,91.0,0.3427
48.51,FLT_002,96.74,19.4,8.0,-1.191,358.748,54.32,54.25,54.92,55.98,50.612,90.5,0.3278
48.61,FLT_002,97.85,19.44,8.0,-2.479,358.657,53.78,56.5,53.99,54.65,50.909,91.3,0.2724
48.71,FLT_002,97.84,19.48,8.0,3.926,358.607,54.44,55.04,54.35,54.42,50.867,91.6,0.3647
48.81,FLT_002,97.53,19.52,8.0,-0.068,358.636,53.79,55.13,53.66,54.7,50.631,91.2,0.2473
48.91,FLT_002,98.31,19.56,8.0,-0.323,358.638,54.0,53.92,54.25,54.14,50.707,91.4,0.3478
49.01,FLT_002,97.9,19.6,8.0,1.266,358.672,55.44,54.44,56.31,54.32,50.683,91.2,0.3229
49.11,FLT_002,98.29,19.64,8.0,-1.165,358.716,54.82,54.46,54.88,54.97,50.629,91.2,0.2956
49.21,FLT_002,98.71,19.68,8.0,1.477,358.851,54.95,55.64,55.06,55.25,50.717,90.8,0.3349
49.31,FLT_002,98.43,19.72,8.0,-1.148,358.716,56.19,54.7,56.28,55.16,50.634,90.6,0.3462
49.41,FLT_002,99.58,19.76,8.0,2.783,358.769,52.31,55.19,56.41,55.6,50.819,91.3,0.3239
49.51,FLT_002,99.06,19.8,8.0,0.281,358.786,54.88,54.46,56.63,55.08,50.907,91.1,0.3521
49.61,FLT_002,99.37,19.84,8.0,2.782,358.763,53.83,55.12,54.15,52.65,50.682,90.8,0.209
49.71,FLT_002,98.76,19.88,8.0,1.239,358.637,55.01,55.06,54.66,54.66,50.64,91.1,0.2892
49.81,FLT_002,99.3,19.92,8.0,-4.665,358.677,55.14,54.32,53.88,53.71,50.871,90.8,0.2895
49.91,FLT_002,99.9,19.96,8.0,-2.424,358.582,54.61,55.26,52.75,55.49,50.633,91.1,0.2554
50.01,FLT_002,100.46,20.0,8.0,3.297,358.413,54.7,54.41,56.47,56.16,50.591,90.3,0.3342
50.11,FLT_002,100.93,20.04,8.0,-0.619,358.394,55.53,53.96,56.2,53.97,50.68,91.5,0.2978
50.21,FLT_002,99.89,20.08,8.0,-3.532,358.453,54.69,55.24,52.9,55.25,50.819,91.4,0.2743
50.31,FLT_002,100.21,20.12,8.0,-0.978,358.381,54.16,54.54,53.81,56.06,50.766,90.8,0.3069
50.41,FLT_002,100.21,20.16,8.0,-0.702,358.195,54.65,55.0,56.62,55.96,50.849,91.2,0.3691
50.51,FLT_002,101.27,20.2,8.0,2.558,358.193,55.05,54.28,54.27,55.44,50.634,90.9,0.401
50.61,FLT_002,101.93,20.24,8.0,-1.645,358.313,54.07,53.12,54.22,55.4,50.827,91.7,0.3674
50.71,FLT_002,101.34,20.28,8.0,-0.208,358.241,54.38,56.03,54.35,54.81,50.712,90.6,0.2557
50.81,FLT_002,101.65,20.32,8.0,2.215,358.104,54.23,54.86,53.87,56.3,50.544,91.3,0.2587
50.91,FLT_002,101.89,20.36,8.0,-0.917,357.944,55.97,53.66,56.04,56.4,50.865,91.3,0.2945
51.01,FLT_002,101.79,20.4,8.0,-1.674,357.872,55.58,56.2,55.1,55.64,50.734,90.6,0.3197
51.11,FLT_002,101.61,20.44,8.0,0.763,357.875,55.49,54.07,55.86,55.37,50.865,91.3,0.3397
51.21,FLT_002,102.95,20.48,8.0,1.59,357.828,53.94,53.37,55.27,54.85,50.842,90.8,0.3102
51.31,FLT_002,102.7,20.52,8.0,-0.116,357.853,53.75,56.22,55.46,55.46,50.822,90.7,0.305
51.41,FLT_002,102.55,20.56,8.0,1.27,357.864,55.15,53.77,53.93,56.22,50.969,91.0,0.3333
51.51,FLT_002,104.52,20.6,8.0,-1.051,357.964,55.22,53.95,54.91,55.49,50.6,90.8,0.271
51.61,FLT_002,103.22,20.64,8.0,-3.929,357.95,54.47,55.21,56.03,56.75,50.92,90.9,0.3342
51.71,FLT_002,102.57,20.68,8.0,1.762,358.012,53.2,55.91,55.5,55.33,50.684,90.6,0.2947
51.81,FLT_002,103.95,20.72,8.0,-2.003,358.016,54.12,55.44,54.48,55.43,50.797,90.8,0.34
51.91,FLT_002,102.9,20.76,8.0,-1.199,358.034,55.45,56.26,55.81,53.09,50.715,91.1,0.2098
52.01,FLT_002,104.25,20.8,8.0,0.47,358.051,55.05,56.32,53.52,54.88,50.793,90.5,0.2854
52.11,FLT_002,104.44,20.84,8.0,1.945,357.949,55.33,52.74,55.34,54.38,50.687,90.9,0.3052
52.21,FLT_002,105.11,20.88,8.0,-0.156,357.94,55.17,55.23,54.75,54.99,50.854,90.6,0.3685
52.31,FLT_002,104.12,20.92,8.0,-1.0,357.877,53.95,54.88,54.43,55.37,50.773,90.5,0.351
52.41,FLT_002,104.68,20.96,8.0,2.974,357.794,55.04,53.94,54.21,54.21,50.576,91.4,0.2746
52.51,FLT_002,104.99,21.0,8.0,-0.608,357.833,54.92,55.12,54.9,55.13,50.732,91.2,0.3483
52.61,FLT_002,105.65,21.04,8.0,-0.507,357.883,54.45,54.19,53.63,54.63,50.752,90.5,0.3413
52.71,FLT_002,105.64,21.08,8.0,-3.147,357.82,54.37,57.3,57.03,55.48,50.754,90.5,0.3283
52.81,FLT_002,105.88,21.12,8.0,0.234,357.889,54.1,54.92,55.27,52.81,50.585,90.4,0.2724
52.91,FLT_002,106.43,21.16,8.0,2.897,357.844,54.97,53.67,54.66,54.14,50.651,90.9,0.334
53.01,FLT_002,105.91,21.2,8.0,-2.907,357.934,54.9,54.55,55.21,55.75,50.705,90.2,0.3474
53.11,FLT_002,106.95,21.24,8.0,-1.417,358.153,55.56,56.86,54.53,56.4,50.652,90.7,0.3293
53.21,FLT_002,106.38,21.28,8.0,-0.074,358.201,53.99,53.24,55.53,56.5,50.874,91.3,0.2674
53.31,FLT_002,107.07,21.32,8.0,1.079,358.19,54.19,55.53,54.21,56.09,50.654,90.6,0.3322
53.41,FLT_002,106.57,21.36,8.0,0.605,358.121,56.05,55.36,53.87,55.4,50.573,90.9,0.3604
53.51,FLT_002,107.32,21.4,8.0,0.079,358.141,53.32,55.0,54.2,55.1,50.651,90.8,0.3201
53.61,FLT_002,107.8,21.44,8.0,-1.322,358.044,55.04,55.15,53.46,53.82,50.507,90.4,0.3417
53.71,FLT_002,106.88,21.48,8.0,2.735,358.02,56.78,55.84,55.3,53.46,50.667,90.1,0.3895
53.81,FLT_002,108.09,21.52,8.0,-4.218,357.93,55.31,55.36,54.56,53.82,50.562,90.8,0.3449
53.91,FLT_002,107.91,21.56,8.0,2.274,358.014,54.34,56.01,55.76,55.98,50.569,90.8,0.2636
54.01,FLT_002,109.04,21.6,8.0,4.05,357.961,55.57,54.08,53.33,54.93,50.717,91.0,0.307
54.11,FLT_002,108.09,21.64,8.0,1.482,357.958,55.97,56.01,53.97,55.33,50.466,90.4,0.2834
54.21,FLT_002,108.57,21.68,8.0,-1.18,357.786,54.27,54.73,53.72,55.71,50.612,90.1,0.3087
54.31,FLT_002,108.54,21.72,8.0,0.577,357.752,55.51,53.82,54.68,53.45,50.767,90.4,0.3853
54.41,FLT_002,109.15,21.76,8.0,-2.321,357.715,53.3,53.69,55.02,54.49,50.532,90.1,0.2788
54.51,FLT_002,107.93,21.8,8.0,-1.912,357.623,55.04,54.46,55.78,54.64,50.633,90.6,0.2366
54.61,FLT_002,108.52,21.84,8.0,1.08,357.593,56.09,54.52,55.59,54.93,50.828,90.6,0.2936
54.71,FLT_002,109.76,21.88,8.0,1.166,357.345,53.76,56.55,56.76,54.92,50.754,90.5,0.2558
54.81,FLT_002,109.64,21.92,8.0,0.736,357.229,54.77,55.94,54.97,55.69,50.588,90.1,0.2926
54.91,FLT_002,108.82,21.96,8.0,-2.388,357.062,55.25,55.16,54.35,54.39,50.545,90.2,0.2925
55.01,FLT_002,109.71,22.0,8.0,4.701,357.138,56.05,56.45,55.16,56.27,50.687,89.8,0.331
55.11,FLT_002,110.03,22.04,8.0,1.143,357.135,54.22,55.53,54.75,55.02,50.587,90.0,0.2529
55.21,FLT_002,110.18,22.08,8.0,-0.235,356.878,54.76,54.79,52.39,53.71,50.791,90.0,0.3515
55.31,FLT_002,111.09,22.12,8.0,0.166,356.977,53.24,54.52,53.94,53.26,50.677,89.9,0.2415
55.41,FLT_002,111.45,22.16,8.0,-1.22,357.02,53.98,54.78,57.98,54.85,50.44,90.0,0.243
55.51,FLT_002,109.9,22.2,8.0,-1.722,357.009,54.62,53.6,53.91,55.87,50.469,90.2,0.2878
55.61,FLT_002,111.16,22.24,8.0,4.944,357.043,56.42,54.07,55.16,57.56,50.5,89.8,0.3406
55.71,FLT_002,111.48,22.28,8.0,-1.697,357.03,56.89,55.25,54.04,53.99,50.525,89.8,0.2061
55.81,FLT_002,110.88,22.32,8.0,-1.322,356.995,52.86,54.98,56.75,54.3,50.598,90.2,0.3125
55.91,FLT_002,112.45,22.36,8.0,-0.66,357.003,54.72,54.92,55.01,54.09,50.653,90.1,0.299
56.01,FLT_002,112.21,22.4,8.0,-1.422,357.009,54.85,55.31,55.47,55.34,50.475,90.2,0.2705
56.11,FLT_002,112.65,22.44,8.0,0.023,356.927,54.2,54.94,55.31,56.04,50.459,90.3,0.2699
56.21,FLT_002,112.2,22.48,8.0,-0.853,357.002,55.53,53.95,55.07,55.4,50.485,90.2,0.2838
56.31,FLT_002,112.23,22.52,8.0,-0.255,356.922,55.48,55.61,55.55,53.44,50.545,90.3,0.3633
56.41,FLT_002,112.54,22.56,8.0,-0.644,356.892,53.99,56.18,54.03,55.29,50.651,90.2,0.3968
56.51,FLT_002,112.97,22.6,8.0,-0.464,356.977,54.38,55.99,56.08,54.08,50.478,89.1,0.2744
56.61,FLT_002,113.01,22.64,8.0,-3.077,357.085,55.7,55.87,55.59,54.77,50.634,89.7,0.2915
56.71,FLT_002,113.88,22.68,8.0,-0.624,357.18,53.28,56.17,54.38,54.77,50.526,89.5,0.2917
56.81,FLT_002,114.96,22.72,8.0,-0.247,357.01,55.47,53.99,53.88,54.14,50.491,89.9,0.3233
56.91,FLT_002,114.11,22.76,8.0,-0.546,356.991,54.07,53.9,54.99,55.21,50.539,89.8,0.3834
57.01,FLT_002,113.05,22.8,8.0,-0.521,356.875,54.3,55.06,52.26,55.29,50.549,90.2,0.278
57.11,FLT_002,114.3,22.84,8.0,1.84,356.771,55.07,56.09,55.37,55.54,50.73,89.4,0.3212
57.21,FLT_002,113.83,22.88,8.0,-1.023,356.707,54.3,53.24,54.98,53.46,50.609,89.5,0.2976
57.31,FLT_002,114.42,22.92,8.0,2.025,356.678,55.06,55.48,54.89,54.02,50.451,89.7,0.2302
57.41,FLT_002,114.81,22.96,8.0,4.024,356.622,56.73,54.71,56.0,56.55,50.728,90.0,0.3508
57.51,FLT_002,114.89,23.0,8.0,-1.3,356.358,56.29,55.68,56.74,55.36,50.697,89.7,0.3332
57.61,FLT_002,114.71,23.04,8.0,0.752,356.384,56.01,55.21,54.15,55.18,50.451,90.0,0.3583
57.71,FLT_002,115.69,23.08,8.0,0.484,356.374,53.57,55.1,54.63,55.88,50.444,89.7,0.2439
57.81,FLT_002,114.63,23.12,8.0,0.105,356.498,56.36,53.92,55.4,55.41,50.491,89.8,0.3209
57.91,FLT_002,116.02,23.16,8.0,-3.234,356.489,56.33,55.9,56.12,55.39,50.424,89.8,0.344
58.01,FLT_002,115.57,23.2,8.0,1.776,356.3,53.79,54.28,55.43,53.74,50.623,89.1,0.3228
58.11,FLT_002,116.36,23.24,8.0,-0.751,356.164,54.49,54.64,54.9,55.39,50.619,89.9,0.3312
58.21,FLT_002,115.75,23.28,8.0,2.325,355.994,55.32,55.61,54.08,54.61,50.57,89.6,0.3693
58.31,FLT_002,116.74,23.32,8.0,-0.031,355.967,55.46,53.86,55.75,55.11,50.51,89.8,0.2444
58.41,FLT_002,117.51,23.36,8.0,2.27,356.125,53.69,55.84,55.23,56.81,50.567,90.2,0.3474
58.51,FLT_002,116.73,23.4,8.0,1.026,356.175,56.14,53.38,54.73,55.15,50.503,90.0,0.2988
58.61,FLT_002,116.92,23.44,8.0,1.528,356.189,55.28,54.07,55.08,54.72,50.493,89.6,0.2243
58.71,FLT_002,117.64,23.48,8.0,1.253,356.079,54.15,54.5,54.53,56.84,50.515,89.8,0.1872
58.81,FLT_002,117.73,23.52,8.0,-0.276,356.122,56.17,55.29,53.32,56.41,50.547,89.4,0.2697
58.91,FLT_002,117.13,23.56,8.0,-0.724,356.093,52.97,53.71,53.48,54.06,50.572,89.2,0.3541
59.01,FLT_002,118.58,23.6,8.0,0.899,356.12,56.68,55.78,55.26,55.01,50.419,89.2,0.3052
59.11,FLT_002,118.63,23.64,8.0,1.397,356.171,54.06,55.82,56.46,55.9,50.505,89.8,0.2944
59.21,FLT_002,119.07,23.68,8.0,-0.014,356.124,55.62,56.01,55.07,53.01,50.523,89.3,0.3288
59.31,FLT_002,118.9,23.72,8.0,1.557,356.152,56.14,53.96,55.03,56.82,50.511,89.5,0.3076
59.41,FLT_002,119.77,23.76,8.0,-1.477,356.337,54.98,56.64,55.15,54.16,50.326,89.5,0.2636
59.51,FLT_002,118.09,23.8,8.0,0.51,356.463,54.92,54.47,56.09,54.82,50.498,90.2,0.3502
59.61,FLT_002,119.99,23.84,8.0,2.29,356.554,55.72,55.39,53.16,54.26,50.468,89.0,0.2134
59.71,FLT_002,119.23,23.88,8.0,0.508,356.792,55.05,54.64,55.16,55.56,50.422,89.4,0.3661
59.81,FLT_002,119.35,23.92,8.0,-0.223,356.988,56.08,55.33,55.12,55.6,50.564,89.6,0.219
59.91,FLT_002,119.47,23.96,8.0,1.818,357.14,54.39,55.23,55.42,55.1,50.585,89.5,0.2824
60.01,FLT_002,124.8,24.76,-2.808,3.154,357.036,54.98,55.68,54.02,54.16,50.531,89.3,0.2351
60.11,FLT_002,124.94,24.76,0.678,1.192,356.917,54.79,56.07,53.58,56.01,50.38,89.2,0.2645
60.21,FLT_002,124.3,24.19,0.801,-3.161,356.79,56.42,55.22,53.95,53.34,50.396,89.6,0.2474
60.31,FLT_002,124.66,23.11,1.699,-1.537,356.876,57.11,53.79,54.49,53.17,50.628,89.0,0.3422
60.41,FLT_002,125.9,24.87,1.857,2.042,356.951,52.93,55.68,54.42,55.85,50.62,89.4,0.2904
60.51,FLT_002,124.18,22.56,0.743,-0.949,356.997,54.66,56.22,54.67,55.96,50.549,89.0,0.3134
60.61,FLT_002,124.31,23.38,-1.858,0.176,356.89,54.01,54.21,54.04,54.37,50.392,89.0,0.237
60.71,FLT_002,125.21,24.46,-0.169,-1.025,356.987,53.35,53.98,54.02,56.94,50.551,89.1,0.2707
60.81,FLT_002,123.7,23.67,-1.191,1.739,356.957,54.86,54.6,55.74,54.54,50.613,89.2,0.3467
60.91,FLT_002,124.6,23.21,-1.749,1.06,356.936,55.3,55.66,55.6,54.97,50.699,89.1,0.3159
61.01,FLT_002,123.27,25.11,2.095,-1.267,357.008,55.1,55.36,55.53,55.34,50.369,89.2,0.2444
61.11,FLT_002,123.78,24.91,-0.696,1.717,356.991,55.16,54.06,55.56,53.79,50.686,89.4,0.2814
61.21,FLT_002,123.86,24.85,2.984,1.829,356.982,55.03,55.14,53.53,54.27,50.28,89.3,0.3103
61.31,FLT_002,124.01,24.27,-0.577,1.202,356.84,56.28,54.18,55.58,53.81,50.612,89.2,0.3954
61.41,FLT_002,123.82,24.03,-1.071,0.486,356.688,53.61,55.75,56.11,55.01,50.418,89.1,0.3569
61.51,FLT_002,124.54,25.39,0.903,7.41,356.791,55.39,56.34,54.8,55.07,50.529,89.1,0.4086
61.61,FLT_002,125.13,25.15,-0.118,-2.82,356.823,54.77,54.25,53.49,54.13,50.348,89.1,0.3257
61.71,FLT_002,125.44,23.93,0.417,-0.568,356.731,56.16,56.63,53.92,55.74,50.566,89.1,0.2848
61.81,FLT_002,123.9,26.17,-0.809,0.017,356.766,54.76,56.52,54.97,54.34,50.367,88.6,0.3383
61.91,FLT_002,124.77,23.9,-0.809,2.545,356.768,55.2,53.52,55.15,54.7,50.362,88.6,0.3975
62.01,FLT_002,125.0,24.31,-0.734,-0.515,356.646,54.7,54.37,54.21,55.29,50.576,89.0,0.2511
62.11,FLT_002,124.45,25.11,-1.563,2.3,356.635,55.08,54.79,55.37,54.91,50.312,89.1,0.213
62.21,FLT_002,124.74,24.3,1.449,-1.123,356.662,54.76,54.31,56.08,57.27,50.367,88.4,0.1968
62.31,FLT_002,124.6,23.79,0.309,0.948,356.494,52.6,54.75,54.83,55.16,50.585,89.1,0.3854
62.41,FLT_002,124.59,24.31,0.23,1.771,356.583,57.78,55.06,54.65,55.61,50.478,88.7,0.3448
62.51,FLT_002,123.99,24.0,0.999,-1.193,356.604,55.83,54.39,54.91,54.96,50.504,89.1,0.3149
62.61,FLT_002,123.35,22.3,0.536,1.585,356.774,56.61,55.14,55.45,54.4,50.385,88.6,0.2714
62.71,FLT_002,124.17,24.8,3.396,2.915,356.901,55.46,54.85,54.74,54.42,50.297,89.5,0.3342
62.81,FLT_002,123.95,23.5,0.64,-0.149,357.062,55.21,54.85,54.03,54.09,50.415,89.0,0.3191
62.91,FLT_002,124.18,23.08,-3.077,-1.919,356.992,55.21,55.09,55.63,55.13,50.373,89.2,0.2951
63.01,FLT_002,124.8,24.96,-0.741,-0.566,357.051,53.91,55.57,54.14,56.03,50.372,88.8,0.2557
63.11,FLT_002,125.02,24.3,-1.398,-0.125,357.058,55.96,54.4,54.17,53.8,50.402,89.1,0.2714
63.21,FLT_002,124.37,24.54,0.701,1.974,357.213,53.7,56.63,54.19,54.6,50.454,89.0,0.3434
63.31,FLT_002,123.7,23.9,-0.62,-1.74,357.35,57.48,56.15,56.02,55.67,50.345,88.6,0.2931
63.41,FLT_002,124.09,24.18,0.752,1.339,357.518,56.04,52.65,54.87,54.31,50.46,88.7,0.3727
63.51,FLT_002,123.89,23.76,-1.026,1.174,357.494,53.43,53.54,54.84,53.59,50.533,89.2,0.3494
63.61,FLT_002,124.33,23.31,0.291,1.006,357.371,54.78,54.55,56.62,55.65,50.459,89.1,0.2679
63.71,FLT_002,124.02,24.55,-0.79,2.47,357.281,55.87,53.92,56.28,55.59,50.542,88.3,0.2775
63.81,FLT_002,124.7,24.19,-0.509,0.584,357.323,54.91,53.55,55.39,54.69,50.505,89.0,0.3496
63.91,FLT_002,123.81,25.38,0.339,-1.065,357.201,54.32,55.24,54.62,54.89,50.498,88.6,0.3583
64.01,FLT_002,125.32,22.21,0.677,-0.07,357.222,53.77,53.44,56.46,53.79,50.341,88.6,0.3116
64.11,FLT_002,123.48,24.94,2.143,0.141,357.202,53.84,54.39,55.84,54.34,50.494,88.5,0.2502
64.21,FLT_002,124.36,23.69,1.697,-0.953,356.974,54.84,54.09,56.15,52.9,50.395,88.9,0.2882
64.31,FLT_002,123.4,23.61,1.415,-2.869,356.999,55.23,56.92,54.72,54.07,50.54,89.0,0.2552
64.41,FLT_002,124.72,24.47,0.648,0.265,357.067,52.83,55.35,55.92,56.13,50.555,88.8,0.3751
64.51,FLT_002,124.21,23.29,-0.732,0.515,357.188,56.48,55.77,53.38,56.21,50.476,88.5,0.3073
64.61,FLT_002,124.28,23.64,0.933,-0.074,357.133,54.15,54.59,55.72,55.34,50.408,88.6,0.2882
64.71,FLT_002,123.72,24.48,1.791,0.108,357.028,54.15,55.37,52.28,55.88,50.418,88.4,0.2683
64.81,FLT_002,124.7,23.57,1.792,-1.785,356.989,54.52,56.98,54.67,56.23,50.403,88.1,0.1938
64.91,FLT_002,124.47,23.44,0.024,-4.79,356.869,55.91,55.79,55.8,55.5,50.298,88.6,0.2791
65.01,FLT_002,123.86,23.43,-0.516,-0.508,356.924,55.65,55.74,54.74,54.36,50.279,88.9,0.3007
65.11,FLT_002,124.12,24.28,1.188,-2.671,356.935,54.51,54.69,55.2,55.76,50.437,88.8,0.2555
65.21,FLT_002,123.67,23.04,-3.653,0.733,356.815,55.08,55.95,55.01,57.18,50.302,88.3,0.3396
65.31,FLT_002,123.62,24.6,2.395,-2.138,356.772,55.08,54.95,54.33,56.13,50.393,88.4,0.241
65.41,FLT_002,123.79,25.69,1.842,-0.087,356.929,56.06,56.59,56.31,55.05,50.328,88.4,0.3087
65.51,FLT_002,123.95,24.0,-0.42,-0.589,356.922,53.83,55.19,56.05,54.93,50.266,88.4,0.3279
65.61,FLT_002,124.08,24.35,-0.497,-1.475,356.85,54.57,54.7,56.28,54.65,50.291,88.2,0.2887
65.71,FLT_002,124.05,24.21,3.114,2.005,356.797,55.69,55.91,55.59,54.36,50.581,88.5,0.2477
65.81,FLT_002,123.63,23.25,-1.552,-2.272,356.815,54.73,53.41,54.62,53.27,50.286,88.1,0.2934
65.91,FLT_002,124.43,24.25,-0.393,-4.709,356.997,56.03,53.72,53.93,54.71,50.286,88.4,0.2467
66.01,FLT_002,124.59,24.18,2.628,-2.439,356.892,54.47,56.95,56.18,54.76,50.259,88.7,0.2939
66.11,FLT_002,124.49,25.42,-1.61,3.055,357.035,56.56,55.44,54.97,54.08,50.369,88.1,0.3138
66.21,FLT_002,124.37,24.2,0.243,-0.538,357.004,54.4,57.18,55.47,54.76,50.319,88.3,0.2963
66.31,FLT_002,122.76,24.99,-0.358,2.17,357.133,55.08,55.14,54.95,52.54,50.171,88.3,0.261
66.41,FLT_002,123.5,24.34,3.091,-0.03,357.017,55.85,56.78,55.29,55.45,50.492,88.5,0.2715
66.51,FLT_002,123.25,23.59,-0.815,2.407,357.172,54.18,54.62,55.38,55.18,50.108,88.0,0.3771
66.61,FLT_002,123.1,23.05,-2.035,-1.645,357.35,54.83,56.05,55.18,55.57,50.239,87.7,0.3773
66.71,FLT_002,124.54,24.25,0.363,0.569,357.537,54.47,55.87,53.96,55.0,50.3,88.8,0.2856
66.81,FLT_002,124.81,24.61,-0.815,1.593,357.536,55.37,54.58,55.04,55.68,50.406,88.4,0.2687
66.91,FLT_002,123.95,23.93,0.896,-2.533,357.537,55.7,54.98,54.59,55.42,50.262,87.9,0.2932
67.01,FLT_002,124.18,23.49,0.651,-2.059,357.463,57.1,55.58,56.7,55.22,50.256,87.6,0.2379
67.11,FLT_002,123.75,25.13,-1.755,-0.501,357.365,55.32,52.75,54.83,55.99,50.338,88.0,0.2648
67.21,FLT_002,124.5,23.65,2.76,0.954,357.455,55.28,54.92,55.05,56.75,50.272,88.2,0.3417
67.31,FLT_002,124.05,23.08,-0.916,-1.587,357.457,54.37,56.03,56.63,55.69,50.183,87.8,0.3541
67.41,FLT_002,123.64,23.95,-0.756,2.278,357.505,54.12,55.63,55.54,56.53,50.433,88.2,0.3564
67.51,FLT_002,124.17,24.06,0.867,1.906,357.547,54.85,52.86,54.03,54.81,50.373,88.1,0.2279
67.61,FLT_002,123.79,23.41,2.449,-0.125,357.418,55.01,55.81,54.9,54.46,50.398,88.1,0.3164
67.71,FLT_002,123.97,23.93,-1.929,0.893,357.296,54.19,54.84,55.18,55.26,50.326,88.6,0.3156
67.81,FLT_002,124.2,22.64,-0.693,1.46,357.375,55.68,55.29,53.5,53.67,50.294,88.4,0.2708
67.91,FLT_002,125.73,24.34,1.435,1.704,357.418,54.61,54.65,56.43,54.13,50.442,87.7,0.3585
68.01,FLT_002,124.73,23.16,-0.859,1.004,357.406,55.54,56.61,55.69,55.97,50.225,87.6,0.409
68.11,FLT_002,123.9,23.69,0.236,-1.165,357.446,56.47,55.44,55.82,55.09,50.348,87.7,0.2859
68.21,FLT_002,123.34,23.46,-0.621,-3.295,357.591,56.89,55.38,54.29,54.17,50.313,87.7,0.3755
68.31,FLT_002,122.68,25.12,0.742,0.318,357.683,54.51,53.46,56.48,56.48,50.302,88.2,0.2435
68.41,FLT_002,124.43,23.76,-1.872,2.495,357.71,55.93,55.06,53.96,54.44,50.14,87.8,0.2896
68.51,FLT_002,124.34,23.33,0.475,2.661,357.754,55.51,54.61,55.0,53.71,50.191,87.8,0.3072
68.61,FLT_002,123.46,25.67,0.728,0.638,357.902,54.02,54.45,56.11,55.23,50.469,88.3,0.383
68.71,FLT_002,123.72,25.44,1.022,-0.912,357.861,54.25,54.64,56.4,55.72,50.343,87.9,0.2311
68.81,FLT_002,123.85,24.67,-0.786,1.845,357.884,54.0,55.15,55.14,55.77,50.163,88.0,0.3852
68.91,FLT_002,124.04,24.45,2.172,-2.196,357.881,53.85,54.54,56.03,55.77,50.107,87.4,0.2224
69.01,FLT_002,124.55,23.31,-3.149,-1.234,357.818,54.41,55.47,54.55,55.38,50.161,87.8,0.3478
69.11,FLT_002,123.06,24.87,-0.995,-2.863,357.798,55.78,54.28,54.64,55.1,50.183,87.6,0.307
69.21,FLT_002,124.04,24.29,3.666,1.996,357.696,54.51,54.39,55.36,56.08,50.336,87.4,0.358
69.31,FLT_002,123.8,23.49,0.043,-3.273,357.802,54.42,54.25,54.16,54.91,50.08,87.6,0.3053
69.41,FLT_002,123.43,24.11,1.687,0.817,357.759,56.34,54.6,56.32,54.52,50.429,87.5,0.3116
