timestamp_s,flight_id,altitude_m,airspeed_ms,pitch_deg,roll_deg,yaw_deg,motor1_temp_c,motor2_temp_c,motor3_temp_c,motor4_temp_c,battery_v,battery_pct,vibration_g
0.0,FLT_001,0.25,0.0,8.0,0.644,359.933,53.02,53.95,54.41,55.15,52.069,100.0,0.2515
0.1,FLT_001,0.13,0.04,8.0,-1.563,359.861,56.02,55.69,53.82,54.63,51.966,100.0,0.415
0.2,FLT_001,0.72,0.08,8.0,1.383,0.004,55.08,54.74,54.73,53.28,52.017,100.0,0.3523
0.3,FLT_001,1.36,0.12,8.0,-1.181,0.19,53.85,54.6,51.91,55.64,51.942,99.6,0.3275
0.4,FLT_001,0.68,0.16,8.0,1.499,0.098,53.63,55.69,55.6,54.46,51.907,99.9,0.2721
0.5,FLT_001,0.88,0.2,8.0,-0.548,0.031,56.0,55.74,54.69,54.58,51.926,100.0,0.3619
0.6,FLT_001,1.99,0.24,8.0,-3.442,0.145,56.1,55.23,56.04,52.61,52.223,100.0,0.3441
0.7,FLT_001,1.78,0.28,8.0,-1.965,0.198,55.1,53.42,54.97,55.71,51.948,99.7,0.2947
0.8,FLT_001,1.37,0.32,8.0,-0.861,0.266,56.74,54.06,54.47,54.9,52.084,100.0,0.3544
0.9,FLT_001,2.07,0.36,8.0,2.736,0.356,54.03,55.98,54.93,55.12,52.19,100.0,0.3523
1.0,FLT_001,1.77,0.4,8.0,1.802,0.332,55.62,54.93,54.18,54.94,52.058,99.6,0.3137
1.1,FLT_001,1.97,0.44,8.0,3.248,0.365,54.14,55.11,56.0,53.83,51.899,99.3,0.2427
1.2,FLT_001,2.52,0.48,8.0,3.307,0.39,53.47,55.05,54.23,55.03,51.902,100.0,0.2489
1.3,FLT_001,1.64,0.52,8.0,-1.07,0.304,55.32,52.86,55.69,53.83,51.986,99.9,0.2208
1.4,FLT_001,1.94,0.56,8.0,-0.377,0.335,54.98,54.34,54.45,56.69,52.198,99.7,0.3662
1.5,FLT_001,2.72,0.6,8.0,-0.823,0.459,55.32,55.9,55.15,55.62,52.112,99.6,0.227
1.6,FLT_001,2.69,0.64,8.0,-1.343,0.426,55.42,55.25,56.11,55.16,52.022,99.8,0.3017
1.7,FLT_001,3.56,0.68,8.0,-3.683,0.441,57.29,55.96,53.86,54.82,51.946,100.0,0.2205
1.8,FLT_001,3.15,0.72,8.0,-0.029,0.462,55.4,55.04,55.69,55.8,52.002,99.3,0.3842
1.9,FLT_001,3.09,0.76,8.0,-2.571,0.433,53.64,56.28,54.5,54.4,51.981,99.6,0.2419
2.0,FLT_001,4.73,0.8,8.0,-0.068,0.501,54.4,55.81,54.73,54.34,51.978,100.0,0.3161
2.1,FLT_001,4.09,0.84,8.0,4.232,0.433,54.58,53.21,54.16,53.76,51.87,99.9,0.2216
2.2,FLT_001,4.43,0.88,8.0,-1.019,0.566,54.73,55.66,55.55,56.26,51.867,99.9,0.3435
2.3,FLT_001,3.89,0.92,8.0,0.39,0.629,56.03,54.47,55.02,54.97,51.987,99.8,0.3542
2.4,FLT_001,4.53,0.96,8.0,1.813,0.535,52.85,53.78,54.83,54.83,51.836,99.8,0.3009
2.5,FLT_001,5.06,1.0,8.0,0.561,0.705,55.51,55.46,53.23,55.52,51.887,99.5,0.2967
2.6,FLT_001,4.63,1.04,8.0,0.585,0.722,55.18,55.62,56.07,54.86,51.951,99.5,0.3405
2.7,FLT_001,5.59,1.08,8.0,-0.725,0.649,56.25,54.11,54.05,55.43,51.979,99.9,0.2695
2.8,FLT_001,5.3,1.12,8.0,-0.464,0.76,54.63,55.26,56.99,55.39,52.056,99.4,0.3544
2.9,FLT_001,5.66,1.16,8.0,-1.92,0.809,55.21,54.13,53.3,54.93,51.817,99.7,0.3148
3.0,FLT_001,5.7,1.2,8.0,1.692,0.632,56.07,54.68,55.4,56.43,51.815,99.6,0.2213
3.1,FLT_001,7.13,1.24,8.0,-3.483,0.58,56.4,55.43,55.17,53.48,52.069,100.0,0.3923
3.2,FLT_001,6.39,1.28,8.0,1.942,0.607,54.37,54.72,54.15,55.25,52.104,99.5,0.3092
3.3,FLT_001,6.07,1.32,8.0,-2.807,0.392,56.91,56.52,55.24,55.78,51.83,99.9,0.2831
3.4,FLT_001,7.21,1.36,8.0,1.925,0.4,54.27,56.46,53.44,55.91,51.847,99.7,0.3083
3.5,FLT_001,6.39,1.4,8.0,-0.708,0.416,55.5,54.24,54.79,53.87,51.985,99.5,0.2641
3.6,FLT_001,7.31,1.44,8.0,-2.464,0.297,53.91,53.41,55.77,56.21,51.933,99.1,0.2924
3.7,FLT_001,6.42,1.48,8.0,1.159,0.325,52.84,56.84,54.99,55.29,51.932,99.5,0.3395
3.8,FLT_001,6.94,1.52,8.0,1.858,0.325,53.53,56.32,55.2,56.14,51.846,99.7,0.3344
3.9,FLT_001,7.9,1.56,8.0,-0.876,0.206,56.22,56.33,54.35,54.79,51.994,99.1,0.331
4.0,FLT_001,8.37,1.6,8.0,1.441,0.298,54.39,55.9,55.33,56.07,51.896,99.7,0.2699
4.1,FLT_001,8.29,1.64,8.0,-4.57,0.382,56.11,53.27,56.35,55.95,51.891,99.8,0.257
4.2,FLT_001,8.34,1.68,8.0,-2.641,0.353,54.63,55.35,54.88,55.62,51.803,99.4,0.3194
4.3,FLT_001,8.45,1.72,8.0,2.585,0.333,54.63,55.48,55.07,54.57,51.993,99.7,0.3385
4.4,FLT_001,8.06,1.76,8.0,-0.447,0.406,55.19,57.71,54.31,54.75,51.876,99.4,0.2634
4.5,FLT_001,8.64,1.8,8.0,-3.724,0.386,54.33,54.44,55.82,55.72,51.905,99.5,0.2886
4.6,FLT_001,8.97,1.84,8.0,-1.398,0.193,54.99,56.03,55.79,54.84,52.027,99.8,0.3196
4.7,FLT_001,9.93,1.88,8.0,-1.847,0.241,53.47,55.83,55.17,55.02,51.801,98.9,0.2952
4.8,FLT_001,9.77,1.92,8.0,-0.332,0.16,54.53,55.74,55.35,54.76,51.895,99.1,0.3579
4.9,FLT_001,8.92,1.96,8.0,-0.742,0.121,53.77,56.07,55.6,55.26,51.746,99.7,0.2346
5.0,FLT_001,10.16,2.0,8.0,0.358,0.267,52.34,54.96,54.76,54.38,51.848,99.7,0.2274
5.1,FLT_001,10.01,2.04,8.0,-0.139,0.253,55.75,55.71,55.44,56.04,52.027,98.9,0.3548
5.2,FLT_001,10.06,2.08,8.0,2.719,0.253,53.98,54.55,55.07,54.38,51.742,99.7,0.3309
5.3,FLT_001,10.91,2.12,8.0,0.849,0.304,55.73,54.48,56.3,54.07,51.918,98.5,0.3045
5.4,FLT_001,11.32,2.16,8.0,0.915,0.355,57.13,57.03,54.91,56.15,52.052,99.4,0.2833
5.5,FLT_001,11.47,2.2,8.0,2.33,0.263,54.6,56.01,54.82,53.71,51.945,99.3,0.3235
5.6,FLT_001,10.78,2.24,8.0,-0.778,0.257,51.47,54.73,55.28,56.33,51.83,99.0,0.3094
5.7,FLT_001,11.25,2.28,8.0,-2.524,0.261,55.04,56.0,54.55,54.66,51.775,99.0,0.315
5.8,FLT_001,11.77,2.32,8.0,2.414,0.288,56.05,52.54,55.01,54.6,51.691,99.0,0.2966
5.9,FLT_001,12.29,2.36,8.0,0.272,0.317,56.36,54.47,55.52,55.92,52.038,99.1,0.3268
6.0,FLT_001,11.76,2.4,8.0,0.279,0.576,53.51,54.86,54.57,55.95,51.838,99.7,0.3459
6.1,FLT_001,12.11,2.44,8.0,-1.267,0.458,55.68,54.77,53.95,56.04,51.698,99.4,0.3452
6.2,FLT_001,11.85,2.48,8.0,-1.234,0.556,54.93,53.38,53.47,55.44,51.774,99.6,0.3229
6.3,FLT_001,12.0,2.52,8.0,1.693,0.674,53.72,56.86,54.06,55.0,51.766,99.0,0.2998
6.4,FLT_001,13.21,2.56,8.0,1.969,0.724,55.16,54.27,52.76,55.19,51.822,99.2,0.3222
6.5,FLT_001,13.68,2.6,8.0,1.568,0.659,54.25,55.12,54.88,55.26,52.109,98.8,0.3598
6.6,FLT_001,13.17,2.64,8.0,1.586,0.825,56.56,54.45,54.53,53.33,51.96,99.0,0.2923
6.7,FLT_001,13.9,2.68,8.0,1.138,0.606,54.8,55.41,54.52,55.42,51.914,98.9,0.2864
6.8,FLT_001,13.78,2.72,8.0,0.263,0.537,54.82,53.7,55.31,54.79,51.984,99.2,0.3247
6.9,FLT_001,13.48,2.76,8.0,-0.351,0.655,55.12,54.43,54.34,55.16,52.045,98.8,0.3369
7.0,FLT_001,14.18,2.8,8.0,2.421,0.618,54.77,56.72,55.8,55.55,51.913,98.8,0.295
7.1,FLT_001,14.97,2.84,8.0,-0.747,0.777,54.82,52.97,54.19,54.35,52.002,99.1,0.3225
7.2,FLT_001,14.38,2.88,8.0,0.74,0.626,54.73,54.97,55.66,55.27,51.792,99.0,0.258
7.3,FLT_001,15.38,2.92,8.0,-1.608,0.515,56.16,54.69,55.26,55.34,51.768,98.8,0.2995
7.4,FLT_001,13.49,2.96,8.0,-1.319,0.462,55.25,56.28,55.8,53.68,51.749,98.7,0.3776
7.5,FLT_001,15.41,3.0,8.0,-0.472,0.503,54.89,54.99,57.15,54.67,51.879,98.7,0.3304
7.6,FLT_001,15.25,3.04,8.0,-1.608,0.481,54.02,55.44,55.5,54.93,51.585,99.2,0.2676
7.7,FLT_001,15.25,3.08,8.0,1.596,0.432,54.78,55.95,54.15,54.66,51.978,99.0,0.2743
7.8,FLT_001,15.65,3.12,8.0,-2.696,0.574,54.48,56.09,55.29,53.94,51.795,98.7,0.2378
7.9,FLT_001,14.81,3.16,8.0,0.198,0.726,54.04,56.87,56.08,55.84,51.925,98.7,0.3812
8.0,FLT_001,15.89,3.2,8.0,0.265,0.684,55.01,56.51,53.9,55.75,51.701,98.5,0.2503
8.1,FLT_001,16.38,3.24,8.0,-3.622,0.513,54.56,54.75,55.73,54.86,51.949,98.7,0.1735
8.2,FLT_001,17.14,3.28,8.0,-0.882,0.297,54.57,54.5,53.01,55.76,51.974,98.9,0.2297
8.3,FLT_001,16.34,3.32,8.0,0.511,0.321,53.99,56.86,54.71,56.31,51.844,98.6,0.3027
8.4,FLT_001,16.4,3.36,8.0,0.857,0.387,53.19,55.73,55.99,56.3,51.885,99.5,0.2641
8.5,FLT_001,16.75,3.4,8.0,-0.409,0.393,53.47,54.3,55.58,55.15,51.727,99.0,0.3065
8.6,FLT_001,17.66,3.44,8.0,1.354,0.386,55.29,54.64,56.55,57.61,51.833,98.8,0.3171
8.7,FLT_001,17.57,3.48,8.0,-0.219,0.306,55.1,55.45,55.06,56.28,51.923,98.8,0.2688
8.8,FLT_001,17.34,3.52,8.0,0.027,0.371,55.83,53.93,54.39,53.99,51.794,98.3,0.254
8.9,FLT_001,18.06,3.56,8.0,0.503,0.539,57.69,55.64,54.4,54.32,51.975,98.4,0.3455
9.0,FLT_001,18.05,3.6,8.0,1.854,0.317,55.81,55.9,55.8,54.57,51.642,99.1,0.3149
9.1,FLT_001,18.69,3.64,8.0,-1.351,0.31,55.31,55.11,54.06,54.07,51.785,99.2,0.1662
9.2,FLT_001,18.05,3.68,8.0,-0.974,0.213,55.41,55.2,55.55,55.79,51.624,98.0,0.2231
9.3,FLT_001,18.44,3.72,8.0,-1.338,0.064,56.5,54.22,55.63,55.75,51.846,98.8,0.2104
9.4,FLT_001,18.61,3.76,8.0,-0.664,359.951,54.69,55.12,54.71,57.11,51.791,99.1,0.292
9.5,FLT_001,18.27,3.8,8.0,2.852,359.988,55.1,55.45,54.74,54.52,51.792,98.6,0.3101
9.6,FLT_001,19.35,3.84,8.0,1.145,0.029,53.7,56.1,55.77,54.7,51.882,99.1,0.2914
9.7,FLT_001,19.53,3.88,8.0,-2.262,0.175,54.1,55.18,54.5,54.78,51.778,98.9,0.2686
9.8,FLT_001,19.61,3.92,8.0,-1.201,0.176,53.74,55.22,55.24,56.09,52.085,98.7,0.3511
9.9,FLT_001,19.69,3.96,8.0,0.746,0.0,54.85,54.67,53.44,56.1,51.883,98.5,0.316
10.0,FLT_001,19.3,4.0,8.0,-1.813,359.976,55.89,55.03,53.67,53.79,51.803,98.6,0.2544
10.1,FLT_001,19.99,4.04,8.0,-1.451,359.838,54.45,55.97,55.29,53.51,51.73,98.4,0.2576
10.2,FLT_001,20.23,4.08,8.0,2.69,359.717,55.4,54.16,54.48,55.97,51.705,98.6,0.2619
10.3,FLT_001,20.2,4.12,8.0,-1.227,359.775,55.77,56.09,54.98,55.88,51.838,98.6,0.2826
10.4,FLT_001,20.72,4.16,8.0,1.909,359.794,54.41,54.74,54.67,55.02,51.739,98.4,0.3018
10.5,FLT_001,21.21,4.2,8.0,2.511,359.853,53.71,54.77,56.45,53.91,51.889,97.9,0.3207
10.6,FLT_001,22.15,4.24,8.0,-1.467,359.817,53.67,53.75,57.66,55.46,51.78,98.4,0.2588
10.7,FLT_001,21.49,4.28,8.0,-1.78,359.896,54.73,55.07,55.23,54.36,51.778,98.2,0.2322
10.8,FLT_001,21.73,4.32,8.0,-0.552,359.855,54.48,54.84,54.28,54.6,51.795,98.1,0.3197
10.9,FLT_001,21.77,4.36,8.0,-2.177,359.967,55.35,54.0,57.61,55.75,51.767,98.2,0.3414
11.0,FLT_001,21.04,4.4,8.0,0.242,0.001,53.73,52.52,54.31,55.68,51.808,98.7,0.3855
11.1,FLT_001,22.19,4.44,8.0,-0.411,359.981,55.49,54.89,54.4,54.1,51.985,98.1,0.3202
11.2,FLT_001,22.43,4.48,8.0,0.721,0.002,54.6,53.99,54.6,56.33,51.83,98.1,0.2635
11.3,FLT_001,23.84,4.52,8.0,2.794,360.0,54.23,55.61,55.76,53.92,51.816,98.6,0.3305
11.4,FLT_001,22.71,4.56,8.0,1.635,0.16,54.16,56.07,54.07,54.94,51.851,98.2,0.2925
11.5,FLT_001,23.15,4.6,8.0,0.978,0.184,57.04,55.98,55.09,55.84,51.759,98.0,0.2327
11.6,FLT_001,23.19,4.64,8.0,-3.932,0.184,54.94,56.02,52.95,54.86,51.672,98.6,0.2976
11.7,FLT_001,22.82,4.68,8.0,0.887,0.16,52.91,55.16,54.76,56.36,51.464,98.3,0.3141
11.8,FLT_001,24.18,4.72,8.0,3.445,0.244,55.71,54.47,54.59,55.38,51.559,98.3,0.3717
11.9,FLT_001,24.18,4.76,8.0,-6.021,0.315,54.43,54.97,56.32,54.17,51.837,98.2,0.3036
12.0,FLT_001,24.4,4.8,8.0,1.379,0.288,54.55,54.69,58.16,55.61,51.797,98.4,0.2592
12.1,FLT_001,23.75,4.84,8.0,-0.319,0.172,56.13,55.77,55.84,55.47,51.743,98.5,0.2057
12.2,FLT_001,25.11,4.88,8.0,-1.7,0.082,55.37,53.55,55.36,54.89,51.992,98.2,0.2385
12.3,FLT_001,23.9,4.92,8.0,1.602,0.064,55.55,54.93,55.76,55.94,51.751,97.8,0.2515
12.4,FLT_001,25.1,4.96,8.0,3.419,0.199,52.09,54.57,53.14,55.24,51.516,98.3,0.3833
12.5,FLT_001,26.1,5.0,8.0,1.55,0.174,54.7,56.36,55.21,54.51,51.825,98.1,0.2905
12.6,FLT_001,24.71,5.04,8.0,-0.742,0.114,55.94,54.68,54.5,55.39,51.864,98.5,0.2955
12.7,FLT_001,25.12,5.08,8.0,-1.887,359.938,56.61,55.85,55.57,57.75,51.818,97.9,0.3551
12.8,FLT_001,25.65,5.12,8.0,0.289,0.089,54.27,54.25,55.15,56.52,51.862,98.1,0.3301
12.9,FLT_001,25.55,5.16,8.0,1.746,0.146,54.06,56.75,53.56,54.88,51.566,97.7,0.2869
13.0,FLT_001,25.23,5.2,8.0,-0.774,0.226,55.17,54.12,54.38,55.8,51.749,98.4,0.3573
13.1,FLT_001,26.24,5.24,8.0,-0.581,0.322,56.44,52.89,55.18,54.89,51.655,98.5,0.2658
13.2,FLT_001,25.87,5.28,8.0,5.644,0.306,55.11,54.68,53.71,56.54,51.788,98.0,0.3142
13.3,FLT_001,26.84,5.32,8.0,2.157,0.314,56.16,54.9,54.51,54.39,51.886,98.1,0.2372
13.4,FLT_001,26.34,5.36,8.0,2.3,0.463,52.41,55.35,55.78,55.14,51.695,97.9,0.313
13.5,FLT_001,27.78,5.4,8.0,-2.921,0.481,54.91,55.13,54.15,54.5,51.795,97.9,0.3509
13.6,FLT_001,26.81,5.44,8.0,-1.414,0.54,54.83,55.7,56.38,54.77,51.64,98.3,0.3436
13.7,FLT_001,27.24,5.48,8.0,0.149,0.627,53.96,55.04,57.01,54.04,51.724,97.9,0.3451
13.8,FLT_001,28.01,5.52,8.0,-2.002,0.691,55.89,56.34,54.64,54.3,51.673,98.2,0.4444
13.9,FLT_001,27.19,5.56,8.0,3.201,0.678,55.57,55.35,55.69,57.07,51.902,98.0,0.2866
14.0,FLT_001,28.12,5.6,8.0,2.821,0.675,55.17,53.81,55.07,55.24,51.612,98.2,0.2548
14.1,FLT_001,28.86,5.64,8.0,-1.067,0.753,56.27,54.8,54.59,53.63,51.727,97.9,0.3228
14.2,FLT_001,27.6,5.68,8.0,3.568,0.83,55.55,58.35,54.78,55.45,51.853,98.3,0.256
14.3,FLT_001,28.7,5.72,8.0,-0.009,0.947,54.45,53.72,55.43,55.03,51.519,98.5,0.2434
14.4,FLT_001,28.93,5.76,8.0,5.179,1.002,52.61,56.61,55.42,55.07,51.755,97.4,0.2874
14.5,FLT_001,29.4,5.8,8.0,0.289,1.062,54.58,55.41,55.45,55.4,51.721,97.9,0.399
14.6,FLT_001,28.59,5.84,8.0,1.152,1.017,56.07,56.3,57.01,54.16,51.64,97.9,0.3345
14.7,FLT_001,28.74,5.88,8.0,2.8,0.959,54.43,55.36,54.22,54.38,51.828,97.7,0.319
14.8,FLT_001,29.87,5.92,8.0,2.555,1.037,55.48,55.9,56.28,54.81,51.876,98.0,0.2164
14.9,FLT_001,29.95,5.96,8.0,1.021,0.98,55.46,55.24,55.02,54.18,51.768,98.2,0.2689
15.0,FLT_001,30.13,6.0,8.0,-0.282,0.978,54.06,55.67,54.17,53.22,51.67,97.3,0.3716
15.1,FLT_001,30.38,6.04,8.0,1.028,1.115,54.97,56.46,52.21,54.71,51.553,97.2,0.2865
15.2,FLT_001,30.07,6.08,8.0,-1.632,1.238,55.68,53.18,54.79,53.86,51.714,98.3,0.4097
15.3,FLT_001,30.72,6.12,8.0,0.304,1.268,53.99,54.6,53.88,53.79,51.679,97.8,0.3224
15.4,FLT_001,30.95,6.16,8.0,-2.219,1.238,54.94,57.23,55.76,56.01,51.683,97.8,0.2925
15.5,FLT_001,30.65,6.2,8.0,-3.562,1.226,55.8,54.3,55.31,56.1,51.64,97.5,0.2843
15.6,FLT_001,32.14,6.24,8.0,0.101,1.313,55.83,55.19,55.52,57.46,51.629,97.8,0.2967
15.7,FLT_001,31.64,6.28,8.0,2.525,1.309,55.84,54.68,54.93,53.95,51.689,98.2,0.2274
15.8,FLT_001,31.01,6.32,8.0,1.852,1.253,57.35,56.6,55.08,57.18,51.561,97.9,0.3487
15.9,FLT_001,32.13,6.36,8.0,-0.164,1.375,55.63,54.57,55.91,55.4,51.786,97.8,0.3221
16.0,FLT_001,31.52,6.4,8.0,3.494,1.393,55.84,53.63,54.19,56.49,51.604,97.2,0.2872
16.1,FLT_001,32.6,6.44,8.0,-1.138,1.335,56.69,56.42,57.22,55.58,51.689,97.9,0.2944
16.2,FLT_001,32.98,6.48,8.0,-3.836,1.383,55.51,54.09,54.42,53.01,51.644,97.7,0.3405
16.3,FLT_001,32.2,6.52,8.0,-4.364,1.48,54.68,52.94,56.08,55.39,51.739,97.5,0.4015
16.4,FLT_001,33.29,6.56,8.0,-2.362,1.379,52.97,54.81,56.97,54.87,51.731,97.9,0.3766
16.5,FLT_001,33.21,6.6,8.0,1.633,1.359,54.0,53.21,53.24,55.54,51.721,97.4,0.3093
16.6,FLT_001,33.62,6.64,8.0,-1.27,1.335,54.57,54.65,54.57,54.86,51.551,97.8,0.2589
16.7,FLT_001,34.35,6.68,8.0,0.922,1.38,53.77,55.32,53.58,54.24,51.647,98.0,0.2233
16.8,FLT_001,33.48,6.72,8.0,3.293,1.443,56.01,55.38,55.69,57.15,51.824,97.7,0.3061
16.9,FLT_001,33.43,6.76,8.0,-2.2,1.388,54.94,55.02,54.74,54.56,51.628,97.5,0.2608
17.0,FLT_001,33.56,6.8,8.0,0.957,1.239,53.99,55.08,55.36,55.41,51.765,97.4,0.3078
17.1,FLT_001,33.8,6.84,8.0,1.078,1.342,55.06,55.93,55.03,54.59,51.657,97.7,0.3145
17.2,FLT_001,34.37,6.88,8.0,-1.721,1.23,54.07,53.45,56.46,54.3,51.625,97.4,0.3358
17.3,FLT_001,34.78,6.92,8.0,2.708,1.257,54.07,54.58,54.72,56.64,51.673,98.3,0.2414
17.4,FLT_001,34.94,6.96,8.0,-0.575,1.244,54.67,57.63,55.06,57.06,51.569,97.1,0.2556
17.5,FLT_001,35.42,7.0,8.0,-0.768,1.26,55.89,55.36,56.58,56.12,51.74,97.5,0.2843
17.6,FLT_001,35.21,7.04,8.0,4.223,1.425,55.63,57.32,54.5,54.01,51.563,97.6,0.313
17.7,FLT_001,36.13,7.08,8.0,1.046,1.729,54.32,56.75,56.45,54.47,51.701,97.5,0.3101
17.8,FLT_001,35.47,7.12,8.0,1.851,1.566,52.65,54.79,53.99,54.51,51.752,97.3,0.4289
17.9,FLT_001,37.17,7.16,8.0,2.71,1.664,53.95,53.39,56.88,54.32,51.685,97.8,0.187
18.0,FLT_001,36.32,7.2,8.0,-1.301,1.648,56.41,54.78,53.87,55.51,51.583,97.6,0.3555
18.1,FLT_001,35.78,7.24,8.0,2.5,1.753,54.61,54.79,55.14,54.19,51.657,97.7,0.3529
18.2,FLT_001,35.87,7.28,8.0,-1.004,1.849,53.38,54.95,55.96,54.1,51.563,97.2,0.2542
18.3,FLT_001,36.85,7.32,8.0,-1.089,1.99,55.15,56.51,54.91,55.09,51.613,97.3,0.2764
18.4,FLT_001,36.69,7.36,8.0,-0.544,2.018,55.06,54.32,54.01,54.01,51.58,97.5,0.3881
18.5,FLT_001,37.36,7.4,8.0,-1.244,1.929,55.37,55.76,55.81,54.62,51.554,97.0,0.2689
18.6,FLT_001,37.44,7.44,8.0,1.644,2.022,56.09,55.31,55.07,51.66,51.691,97.6,0.2697
18.7,FLT_001,37.37,7.48,8.0,0.534,2.034,54.18,53.48,55.63,55.1,51.724,97.3,0.306
18.8,FLT_001,37.18,7.52,8.0,-0.982,2.011,53.93,55.3,53.58,53.96,51.729,97.7,0.3256
18.9,FLT_001,37.05,7.56,8.0,1.349,1.963,54.29,55.54,56.4,54.41,51.646,97.2,0.3499
19.0,FLT_001,37.78,7.6,8.0,-0.55,2.064,56.32,55.05,55.24,54.94,51.767,97.9,0.352
19.1,FLT_001,38.63,7.64,8.0,-0.656,2.224,54.8,55.44,55.74,54.12,51.55,97.4,0.3391
19.2,FLT_001,38.51,7.68,8.0,0.097,2.104,54.81,56.67,55.18,55.29,51.744,97.4,0.2046
19.3,FLT_001,37.98,7.72,8.0,0.927,2.167,56.17,54.5,54.97,55.82,51.705,97.1,0.2979
19.4,FLT_001,38.89,7.76,8.0,0.78,2.129,56.24,52.63,54.26,54.0,51.616,97.3,0.3332
19.5,FLT_001,39.2,7.8,8.0,-0.726,1.983,54.88,54.08,55.66,55.17,51.632,97.1,0.3342
19.6,FLT_001,38.76,7.84,8.0,1.694,1.997,55.89,55.95,55.68,54.66,51.712,96.8,0.2645
19.7,FLT_001,39.48,7.88,8.0,-0.445,1.914,55.1,54.54,53.64,55.95,51.672,97.2,0.2489
19.8,FLT_001,39.64,7.92,8.0,-1.31,1.756,54.92,53.5,55.54,54.78,51.63,97.5,0.2454
19.9,FLT_001,39.24,7.96,8.0,-2.936,1.678,52.94,53.63,54.3,55.21,51.557,97.2,0.3233
20.0,FLT_001,40.19,8.0,8.0,1.966,1.575,55.79,55.75,55.6,54.97,51.508,97.1,0.3504
20.1,FLT_001,40.49,8.04,8.0,0.025,1.511,56.72,55.7,55.22,55.57,51.609,97.1,0.3071
20.2,FLT_001,40.95,8.08,8.0,0.422,1.378,54.6,54.94,52.92,54.61,51.481,97.8,0.2465
20.3,FLT_001,41.13,8.12,8.0,2.092,1.339,56.76,55.15,55.11,56.0,51.667,97.3,0.309
20.4,FLT_001,40.12,8.16,8.0,-0.955,1.267,55.36,54.21,55.02,53.86,51.415,96.6,0.2524
20.5,FLT_001,40.54,8.2,8.0,-2.749,1.305,55.18,54.16,55.93,54.49,51.621,96.9,0.2632
20.6,FLT_001,41.46,8.24,8.0,0.14,1.364,54.18,54.89,55.37,53.79,51.56,97.0,0.2816
20.7,FLT_001,41.66,8.28,8.0,0.616,1.39,54.48,55.11,56.34,52.47,51.542,96.9,0.2601
20.8,FLT_001,41.86,8.32,8.0,-0.526,1.367,55.62,54.62,54.51,54.32,51.556,97.1,0.2435
20.9,FLT_001,43.73,8.36,8.0,2.947,1.34,54.64,55.62,54.46,56.66,51.294,96.9,0.3775
21.0,FLT_001,42.29,8.4,8.0,-4.972,1.257,55.62,55.2,54.83,56.19,51.536,96.9,0.2056
21.1,FLT_001,42.77,8.44,8.0,2.24,1.175,56.34,53.84,54.3,55.63,51.491,97.1,0.2704
21.2,FLT_001,42.88,8.48,8.0,1.582,1.246,55.94,54.7,54.26,55.08,51.49,96.5,0.2892
21.3,FLT_001,42.93,8.52,8.0,0.914,1.07,56.48,55.04,53.74,55.11,51.886,96.3,0.3614
21.4,FLT_001,42.65,8.56,8.0,-6.672,1.062,55.78,54.9,56.26,55.87,51.433,97.3,0.3147
21.5,FLT_001,43.39,8.6,8.0,2.568,1.029,54.94,55.04,53.16,56.21,51.61,97.2,0.2859
21.6,FLT_001,42.82,8.64,8.0,-2.053,1.089,54.67,54.6,54.45,55.46,51.488,97.1,0.2629
21.7,FLT_001,43.29,8.68,8.0,-1.015,0.947,53.87,54.02,54.95,54.37,51.475,97.0,0.3574
21.8,FLT_001,43.36,8.72,8.0,-0.341,0.948,55.34,54.41,56.6,55.69,51.429,96.9,0.2597
21.9,FLT_001,43.85,8.76,8.0,0.815,0.982,55.68,54.4,57.41,54.56,51.675,97.8,0.3106
22.0,FLT_001,45.16,8.8,8.0,1.279,0.792,54.29,55.71,55.2,54.18,51.68,96.9,0.2915
22.1,FLT_001,43.27,8.84,8.0,1.786,0.684,57.2,55.98,55.0,57.4,51.496,97.7,0.324
22.2,FLT_001,44.75,8.88,8.0,1.632,0.675,55.81,54.99,57.28,55.66,51.647,97.5,0.3786
22.3,FLT_001,43.8,8.92,8.0,0.506,0.727,55.62,54.61,55.05,54.59,51.45,97.0,0.3353
22.4,FLT_001,44.57,8.96,8.0,0.832,0.745,56.44,53.39,56.37,54.12,51.512,96.8,0.2936
22.5,FLT_001,45.55,9.0,8.0,-2.182,0.801,54.94,54.7,54.48,55.69,51.618,96.8,0.3838
22.6,FLT_001,45.24,9.04,8.0,-1.502,0.693,54.99,54.33,55.15,54.3,51.448,96.7,0.379
22.7,FLT_001,44.87,9.08,8.0,1.791,0.534,54.46,53.5,54.55,55.49,51.472,96.9,0.357
22.8,FLT_001,45.25,9.12,8.0,1.674,0.543,55.04,56.82,57.61,54.54,51.546,97.0,0.3141
22.9,FLT_001,46.15,9.16,8.0,1.448,0.42,54.17,56.13,55.34,56.14,51.546,96.4,0.2614
23.0,FLT_001,45.64,9.2,8.0,-1.029,0.333,55.4,54.81,54.81,55.43,51.432,97.5,0.1817
23.1,FLT_001,46.32,9.24,8.0,1.821,0.426,54.79,56.22,53.7,56.21,51.761,96.5,0.3106
23.2,FLT_001,46.43,9.28,8.0,-2.322,0.445,53.13,55.15,54.67,53.48,51.452,95.9,0.3387
23.3,FLT_001,46.28,9.32,8.0,2.155,0.388,52.94,53.9,55.05,54.4,51.629,96.7,0.2331
23.4,FLT_001,47.88,9.36,8.0,-0.522,0.319,53.96,56.35,53.77,55.68,51.592,96.3,0.3208
23.5,FLT_001,47.32,9.4,8.0,3.368,0.381,54.11,53.88,54.4,55.62,51.449,96.7,0.2777
23.6,FLT_001,46.2,9.44,8.0,-3.043,0.402,53.63,55.29,54.04,54.22,51.574,96.7,0.3255
23.7,FLT_001,47.5,9.48,8.0,3.527,0.28,55.4,57.17,54.09,55.72,51.442,96.8,0.2692
23.8,FLT_001,47.28,9.52,8.0,-0.723,0.086,54.69,54.53,56.07,54.16,51.531,96.9,0.2637
23.9,FLT_001,48.23,9.56,8.0,-0.759,0.274,53.85,55.46,56.59,55.75,51.604,96.3,0.2969
24.0,FLT_001,47.61,9.6,8.0,0.39,0.152,53.59,54.38,55.98,56.58,51.464,96.5,0.2412
24.1,FLT_001,48.15,9.64,8.0,-1.394,0.204,55.23,54.42,56.65,54.93,51.559,96.8,0.3481
24.2,FLT_001,48.66,9.68,8.0,-0.145,0.355,54.39,54.23,53.8,57.83,51.458,96.4,0.301
24.3,FLT_001,49.04,9.72,8.0,-1.475,0.37,56.42,54.34,56.73,55.53,51.531,96.0,0.2428
24.4,FLT_001,48.21,9.76,8.0,-1.402,0.31,55.47,54.28,54.49,54.96,51.523,96.7,0.2692
24.5,FLT_001,48.84,9.8,8.0,0.974,0.168,53.03,54.51,55.0,56.31,51.473,96.4,0.3295
24.6,FLT_001,48.97,9.84,8.0,-1.803,0.024,54.38,55.81,52.94,56.17,51.325,96.3,0.2849
24.7,FLT_001,49.08,9.88,8.0,-1.536,0.061,54.1,55.13,55.41,55.21,51.584,96.5,0.3355
24.8,FLT_001,50.49,9.92,8.0,-2.746,0.206,54.89,53.76,54.11,56.0,51.703,96.5,0.2502
24.9,FLT_001,50.01,9.96,8.0,-1.008,0.167,54.4,54.9,53.51,55.86,51.516,96.8,0.286
25.0,FLT_001,49.38,10.0,8.0,2.623,0.111,53.68,55.92,53.94,56.01,51.439,96.1,0.2964
25.1,FLT_001,50.67,10.04,8.0,-1.692,0.181,55.01,54.44,56.6,54.93,51.519,97.1,0.4113
25.2,FLT_001,51.47,10.08,8.0,-1.463,0.112,54.64,55.91,53.52,52.47,51.611,96.0,0.2636
25.3,FLT_001,51.12,10.12,8.0,0.388,0.14,56.16,54.16,55.86,55.05,51.622,96.3,0.3313
25.4,FLT_001,50.05,10.16,8.0,-0.742,0.144,53.84,55.61,54.59,53.92,51.583,96.1,0.3236
25.5,FLT_001,50.77,10.2,8.0,4.456,0.103,53.95,53.27,55.4,54.06,51.534,96.4,0.3874
25.6,FLT_001,51.84,10.24,8.0,-0.325,0.101,54.97,54.82,54.06,53.48,51.555,96.4,0.368
25.7,FLT_001,51.05,10.28,8.0,0.67,0.278,57.53,54.95,56.82,56.16,51.498,96.4,0.2769
25.8,FLT_001,51.83,10.32,8.0,1.888,0.338,54.68,55.18,55.15,56.84,51.388,96.4,0.2475
25.9,FLT_001,52.2,10.36,8.0,1.849,0.447,55.83,54.19,55.35,55.8,51.444,96.7,0.2292
26.0,FLT_001,51.55,10.4,8.0,0.467,0.356,53.82,55.49,56.35,54.14,51.448,96.4,0.3118
26.1,FLT_001,52.18,10.44,8.0,-0.322,0.465,54.28,56.16,54.65,54.02,51.507,96.7,0.3507
26.2,FLT_001,50.79,10.48,8.0,4.048,0.529,55.88,55.58,55.09,56.12,51.3,95.8,0.3572
26.3,FLT_001,52.1,10.52,8.0,-0.2,0.379,56.2,54.92,56.97,56.58,51.525,95.6,0.2869
26.4,FLT_001,52.68,10.56,8.0,-0.883,0.433,53.02,53.97,52.74,54.68,51.271,96.3,0.3022
26.5,FLT_001,52.38,10.6,8.0,-1.292,0.382,53.79,54.19,56.09,53.25,51.511,96.3,0.3713
26.6,FLT_001,54.03,10.64,8.0,-3.454,0.227,55.13,55.12,54.92,55.13,51.585,96.1,0.2618
26.7,FLT_001,52.69,10.68,8.0,1.643,0.24,52.77,54.19,56.54,53.8,51.555,96.2,0.1762
26.8,FLT_001,53.39,10.72,8.0,-4.696,0.294,56.67,53.59,53.47,54.05,51.374,96.5,0.3577
26.9,FLT_001,53.87,10.76,8.0,-0.011,0.309,56.13,54.45,55.35,55.07,51.524,96.4,0.242
27.0,FLT_001,54.73,10.8,8.0,-0.41,0.298,54.95,56.27,55.77,53.86,51.53,96.1,0.2855
27.1,FLT_001,53.49,10.84,8.0,4.48,0.265,54.72,56.74,55.32,53.49,51.628,96.2,0.3228
27.2,FLT_001,54.99,10.88,8.0,-3.663,0.512,53.56,55.89,55.7,54.08,51.492,96.4,0.2769
27.3,FLT_001,54.61,10.92,8.0,-1.802,0.394,55.75,56.6,56.46,56.6,51.557,95.8,0.354
27.4,FLT_001,54.32,10.96,8.0,-0.272,0.481,55.56,54.82,54.6,54.98,51.408,95.9,0.4336
27.5,FLT_001,55.24,11.0,8.0,-0.395,0.483,54.12,54.64,56.28,53.39,51.365,96.4,0.2596
27.6,FLT_001,55.31,11.04,8.0,-1.099,0.397,53.46,55.83,54.65,53.07,51.534,95.6,0.3067
27.7,FLT_001,55.11,11.08,8.0,-0.162,0.392,54.94,54.8,54.57,55.69,51.534,95.7,0.3002
27.8,FLT_001,55.64,11.12,8.0,-2.519,0.253,53.67,55.01,54.79,55.04,51.38,95.7,0.3156
27.9,FLT_001,55.62,11.16,8.0,0.714,0.193,53.27,54.48,55.02,55.54,51.321,96.3,0.2698
28.0,FLT_001,56.07,11.2,8.0,-4.643,0.189,56.85,55.81,55.46,56.27,51.452,95.7,0.2675
28.1,FLT_001,56.54,11.24,8.0,-0.052,0.034,54.7,56.55,56.12,54.55,51.442,96.3,0.2687
28.2,FLT_001,57.2,11.28,8.0,-1.201,0.084,56.92,55.45,57.19,55.3,51.459,95.9,0.2769
28.3,FLT_001,55.99,11.32,8.0,2.033,359.988,54.44,54.23,54.64,54.43,51.522,96.5,0.2777
28.4,FLT_001,57.88,11.36,8.0,3.511,359.843,56.27,54.97,53.39,55.21,51.535,96.0,0.1747
28.5,FLT_001,56.03,11.4,8.0,-0.662,359.735,55.13,54.53,55.27,54.96,51.431,96.3,0.3044
28.6,FLT_001,57.13,11.44,8.0,2.781,359.952,55.63,55.57,55.36,53.7,51.328,96.1,0.2849
28.7,FLT_001,57.7,11.48,8.0,-0.632,359.754,57.12,53.44,54.87,53.91,51.353,95.8,0.2641
28.8,FLT_001,57.75,11.52,8.0,-1.932,359.798,55.4,55.14,54.83,56.52,51.364,95.9,0.3047
28.9,FLT_001,57.5,11.56,8.0,3.492,359.723,56.11,54.67,55.8,56.56,51.41,95.9,0.2997
29.0,FLT_001,57.91,11.6,8.0,1.042,359.688,56.1,54.86,53.41,55.32,51.368,95.8,0.2801
29.1,FLT_001,57.96,11.64,8.0,0.009,359.748,55.67,54.23,55.02,54.92,51.393,96.1,0.3004
29.2,FLT_001,58.12,11.68,8.0,1.374,359.804,56.39,56.85,56.18,54.91,51.423,96.6,0.2709
29.3,FLT_001,59.03,11.72,8.0,0.548,359.736,56.15,55.65,54.93,57.09,51.35,95.9,0.2416
29.4,FLT_001,58.99,11.76,8.0,-0.138,359.6,54.26,55.6,55.84,54.71,51.444,96.0,0.3981
29.5,FLT_001,58.66,11.8,8.0,-2.653,359.662,55.56,55.95,55.24,55.47,51.593,96.0,0.2752
29.6,FLT_001,59.66,11.84,8.0,-0.541,359.717,55.11,55.8,54.77,54.69,51.391,95.0,0.3133
29.7,FLT_001,59.56,11.88,8.0,1.247,359.689,55.02,56.18,53.25,54.09,51.338,95.9,0.4298
29.8,FLT_001,60.02,11.92,8.0,-0.246,359.733,57.28,55.28,54.59,55.79,51.435,95.9,0.2793
29.9,FLT_001,60.12,11.96,8.0,1.805,359.688,54.21,52.9,55.35,54.27,51.322,95.4,0.323
30.01,FLT_001,59.6,12.0,8.0,0.767,359.606,55.1,55.33,55.14,53.29,51.385,95.2,0.4163
30.11,FLT_001,59.93,12.04,8.0,-1.756,359.606,55.03,55.44,53.6,53.48,51.33,95.9,0.2175
30.21,FLT_001,60.78,12.08,8.0,-2.638,359.658,53.93,55.75,53.0,55.83,51.289,96.2,0.3667
30.31,FLT_001,60.92,12.12,8.0,-0.314,359.689,55.39,54.74,53.52,54.2,51.306,95.6,0.3111
30.41,FLT_001,60.8,12.16,8.0,-1.048,359.74,55.78,56.26,53.97,56.14,51.326,95.6,0.2747
30.51,FLT_001,61.07,12.2,8.0,0.673,359.664,55.69,54.99,54.26,54.42,51.286,96.4,0.3024
30.61,FLT_001,61.85,12.24,8.0,-1.436,359.822,56.82,55.18,56.33,55.24,51.516,95.9,0.2819
30.71,FLT_001,61.11,12.28,8.0,-1.231,359.788,54.55,55.58,57.16,54.36,51.429,95.3,0.3788
30.81,FLT_001,61.88,12.32,8.0,2.106,359.776,55.91,55.19,53.55,53.53,51.478,95.4,0.2992
30.91,FLT_001,61.71,12.36,8.0,0.296,359.644,54.55,55.35,55.88,53.43,51.246,96.3,0.3349
31.01,FLT_001,61.9,12.4,8.0,-1.405,359.625,55.65,54.88,55.0,55.59,51.351,95.4,0.2736
31.11,FLT_001,62.76,12.44,8.0,0.035,359.678,56.75,55.3,53.64,54.81,51.42,95.4,0.3146
31.21,FLT_001,62.82,12.48,8.0,2.758,359.754,55.85,55.89,55.67,54.49,51.541,95.8,0.2809
31.31,FLT_001,63.02,12.52,8.0,0.588,359.91,53.63,55.59,53.79,55.69,51.299,95.5,0.229
31.41,FLT_001,63.46,12.56,8.0,1.186,359.962,55.69,54.53,54.89,55.2,51.243,95.7,0.3654
31.51,FLT_001,63.02,12.6,8.0,-1.504,359.99,54.39,53.62,54.96,55.07,51.389,95.6,0.3174
31.61,FLT_001,63.55,12.64,8.0,2.053,359.945,56.36,54.22,56.07,53.85,51.301,95.5,0.3386
31.71,FLT_001,63.26,12.68,8.0,4.636,359.879,53.66,54.7,54.06,53.64,51.536,95.9,0.2636
31.81,FLT_001,63.77,12.72,8.0,-1.583,359.976,56.94,54.55,57.31,54.01,51.418,95.1,0.3592
31.91,FLT_001,63.75,12.76,8.0,-2.364,0.071,53.29,56.29,54.27,55.14,51.333,95.5,0.3234
32.01,FLT_001,64.06,12.8,8.0,0.351,359.964,53.64,54.96,53.63,54.93,51.332,95.3,0.3075
32.11,FLT_001,64.51,12.84,8.0,1.751,0.036,54.53,55.23,55.63,55.24,51.345,95.9,0.3515
32.21,FLT_001,64.0,12.88,8.0,-0.183,0.101,55.45,54.89,54.56,55.47,51.173,95.4,0.2835
32.31,FLT_001,65.66,12.92,8.0,-2.106,359.99,54.89,54.93,55.4,53.97,51.358,96.0,0.3647
32.41,FLT_001,64.31,12.96,8.0,-0.217,0.044,56.43,54.75,55.12,54.96,51.303,95.3,0.2669
32.51,FLT_001,64.4,13.0,8.0,1.196,359.939,55.65,55.34,54.95,56.45,51.413,95.4,0.3017
32.61,FLT_001,65.79,13.04,8.0,-0.814,359.696,51.8,56.24,55.92,53.16,51.258,95.7,0.2532
32.71,FLT_001,65.81,13.08,8.0,1.215,359.68,55.93,56.06,55.56,53.44,51.414,95.1,0.2426
32.81,FLT_001,65.92,13.12,8.0,2.329,359.706,55.68,56.01,54.43,55.44,51.398,95.8,0.2767
32.91,FLT_001,66.13,13.16,8.0,0.48,359.694,54.65,55.89,54.69,54.42,51.358,95.3,0.292
33.01,FLT_001,66.0,13.2,8.0,-0.056,359.981,54.96,53.66,54.86,55.36,51.465,95.4,0.3276
33.11,FLT_001,65.76,13.24,8.0,1.659,0.019,55.87,55.25,53.57,56.35,51.149,95.5,0.2678
33.21,FLT_001,66.45,13.28,8.0,-1.712,0.033,56.44,55.11,54.25,54.47,51.38,95.3,0.3293
33.31,FLT_001,66.27,13.32,8.0,-1.909,0.076,54.8,55.28,54.7,54.14,51.329,95.0,0.284
33.41,FLT_001,67.3,13.36,8.0,-0.533,0.032,56.02,55.26,53.95,55.29,51.324,95.3,0.2753
33.51,FLT_001,66.94,13.4,8.0,-0.984,0.125,55.16,54.28,56.2,55.13,51.232,94.6,0.3315
33.61,FLT_001,66.8,13.44,8.0,-1.607,0.161,54.78,54.92,55.44,54.93,51.186,94.8,0.2728
33.71,FLT_001,67.25,13.48,8.0,3.661,0.193,54.92,56.07,53.58,53.75,51.415,95.2,0.3913
33.81,FLT_001,67.82,13.52,8.0,4.344,0.13,55.78,57.42,55.88,56.86,51.403,95.7,0.3216
33.91,FLT_001,67.53,13.56,8.0,-0.707,359.974,54.57,54.36,55.46,55.95,51.502,95.7,0.2316
34.01,FLT_001,67.6,13.6,8.0,0.183,359.924,53.69,54.79,54.97,54.32,51.516,95.5,0.294
34.11,FLT_001,68.33,13.64,8.0,-0.376,359.952,54.44,55.84,55.47,55.8,51.163,94.7,0.2676
34.21,FLT_001,68.53,13.68,8.0,2.215,359.908,55.34,54.13,55.42,54.05,51.3,95.2,0.2179
34.31,FLT_001,68.36,13.72,8.0,2.611,359.937,54.69,53.96,54.39,55.09,51.339,94.9,0.3529
34.41,FLT_001,68.58,13.76,8.0,-3.555,359.913,54.54,54.12,56.14,54.88,51.408,95.1,0.354
34.51,FLT_001,69.13,13.8,8.0,0.952,359.957,54.47,53.92,53.13,54.78,51.453,95.4,0.2638
34.61,FLT_001,68.49,13.84,8.0,-2.614,359.859,53.62,55.71,55.03,56.56,51.205,95.3,0.3355
34.71,FLT_001,68.71,13.88,8.0,3.517,359.878,55.22,54.27,53.12,55.81,51.252,95.5,0.3438
34.81,FLT_001,69.25,13.92,8.0,0.88,359.814,53.7,54.59,56.67,55.61,51.441,94.6,0.2994
34.91,FLT_001,69.7,13.96,8.0,-1.647,359.66,55.39,55.94,55.91,56.58,51.135,94.7,0.3476
35.01,FLT_001,70.17,14.0,8.0,-0.483,359.644,54.4,54.62,54.08,54.97,51.192,95.5,0.3147
35.11,FLT_001,70.95,14.04,8.0,-0.578,359.797,54.87,53.25,54.35,56.44,51.342,95.5,0.3573
35.21,FLT_001,70.84,14.08,8.0,1.05,359.651,55.24,55.72,54.88,53.11,51.501,95.0,0.2414
35.31,FLT_001,70.53,14.12,8.0,2.084,359.663,54.87,56.04,53.81,55.75,51.126,95.0,0.3074
35.41,FLT_001,70.8,14.16,8.0,-2.296,359.743,53.3,55.02,55.54,54.69,51.298,95.3,0.3101
35.51,FLT_001,70.51,14.2,8.0,3.678,359.973,57.47,54.51,54.42,55.2,51.345,95.1,0.2422
35.61,FLT_001,71.2,14.24,8.0,3.211,359.924,54.25,53.56,53.9,55.76,51.435,95.1,0.247
35.71,FLT_001,71.27,14.28,8.0,-1.751,359.861,54.7,56.7,54.56,55.71,51.331,94.7,0.2208
35.81,FLT_001,71.77,14.32,8.0,0.146,359.744,55.51,54.54,54.12,53.27,51.1,95.3,0.3023
35.91,FLT_001,71.4,14.36,8.0,3.422,359.858,55.55,56.2,53.41,54.63,51.153,94.9,0.278
36.01,FLT_001,72.27,14.4,8.0,2.466,359.771,54.33,55.55,54.67,56.32,51.417,94.5,0.2355
36.11,FLT_001,72.98,14.44,8.0,-0.673,359.734,54.62,53.76,54.53,54.64,51.322,94.7,0.3609
36.21,FLT_001,72.36,14.48,8.0,1.629,359.549,55.53,54.63,55.44,54.21,51.163,94.7,0.32
36.31,FLT_001,72.81,14.52,8.0,5.994,359.638,54.71,54.21,54.15,56.27,51.323,95.3,0.2638
36.41,FLT_001,73.16,14.56,8.0,0.21,359.754,54.28,54.65,56.04,55.75,51.303,94.6,0.3102
36.51,FLT_001,72.81,14.6,8.0,-1.265,359.838,56.64,55.48,54.4,57.06,51.02,94.9,0.2881
36.61,FLT_001,73.32,14.64,8.0,0.345,359.678,55.58,54.85,55.06,55.18,51.058,94.2,0.2219
36.71,FLT_001,73.42,14.68,8.0,0.493,359.738,54.76,53.62,56.63,54.98,51.297,95.1,0.3137
36.81,FLT_001,73.66,14.72,8.0,-1.049,359.571,55.18,57.08,54.32,55.66,51.467,94.5,0.382
36.91,FLT_001,73.43,14.76,8.0,0.883,359.577,54.21,55.32,55.2,55.79,51.288,94.9,0.3706
37.01,FLT_001,74.02,14.8,8.0,-2.509,359.597,56.21,54.42,56.42,56.49,51.015,94.9,0.3052
37.11,FLT_001,74.46,14.84,8.0,-1.331,359.628,54.75,54.99,54.51,54.69,51.097,94.9,0.2782
37.21,FLT_001,75.14,14.88,8.0,1.516,359.682,53.8,55.78,52.95,54.3,51.318,94.8,0.3281
37.31,FLT_001,75.09,14.92,8.0,-3.51,359.681,54.95,56.3,54.45,55.43,51.327,95.3,0.3133
37.41,FLT_001,75.89,14.96,8.0,1.806,359.485,54.92,55.95,55.38,55.83,51.232,94.8,0.2931
37.51,FLT_001,74.63,15.0,8.0,-4.024,359.538,54.45,53.99,55.37,54.51,51.201,95.4,0.393
37.61,FLT_001,75.65,15.04,8.0,-3.463,359.548,55.03,55.32,56.24,55.79,51.327,94.9,0.2802
37.71,FLT_001,75.5,15.08,8.0,-0.998,359.458,54.32,53.85,56.71,53.42,51.356,94.7,0.3479
37.81,FLT_001,76.71,15.12,8.0,0.574,359.301,54.55,55.65,56.64,54.81,51.313,94.9,0.3072
37.91,FLT_001,75.41,15.16,8.0,2.651,359.455,55.03,54.12,55.13,53.85,51.146,94.7,0.3074
38.01,FLT_001,75.59,15.2,8.0,0.115,359.578,54.25,55.76,54.57,55.92,51.33,94.8,0.2175
38.11,FLT_001,75.91,15.24,8.0,-0.493,359.649,54.85,53.63,56.17,53.68,51.203,94.7,0.3551
38.21,FLT_001,75.35,15.28,8.0,1.159,359.581,54.4,54.8,56.01,54.47,51.176,94.7,0.3418
38.31,FLT_001,76.35,15.32,8.0,-1.742,359.329,54.07,55.16,54.79,54.53,51.17,95.2,0.3094
38.41,FLT_001,76.43,15.36,8.0,0.279,359.406,55.22,53.8,53.28,57.14,51.234,95.2,0.3517
38.51,FLT_001,77.09,15.4,8.0,-2.399,359.442,55.1,55.17,54.22,55.9,51.287,94.6,0.3208
38.61,FLT_001,77.38,15.44,8.0,0.165,359.405,54.47,52.21,54.43,54.72,51.026,94.9,0.2351
38.71,FLT_001,78.35,15.48,8.0,-0.26,359.517,54.83,54.8,54.36,54.26,51.153,94.9,0.2515
38.81,FLT_001,78.09,15.52,8.0,-1.609,359.602,54.7,53.35,53.04,55.1,51.178,94.8,0.297
38.91,FLT_001,77.52,15.56,8.0,0.33,359.62,55.11,55.88,54.74,53.81,51.326,94.7,0.2154
39.01,FLT_001,77.56,15.6,8.0,0.317,359.623,53.06,54.11,55.42,56.44,51.133,94.7,0.3561
39.11,FLT_001,78.46,15.64,8.0,2.351,359.628,55.05,53.79,54.12,54.15,51.185,94.6,0.2892
39.21,FLT_001,77.75,15.68,8.0,-3.211,359.696,54.59,56.12,56.2,54.83,51.297,94.2,0.3068
39.31,FLT_001,79.53,15.72,8.0,-0.152,359.611,55.18,54.2,53.29,56.79,51.218,94.4,0.2509
39.41,FLT_001,79.4,15.76,8.0,-1.521,359.653,52.68,53.16,56.8,55.02,51.365,94.1,0.3323
39.51,FLT_001,78.78,15.8,8.0,1.74,359.561,53.87,55.68,55.77,53.67,51.195,94.6,0.2929
39.61,FLT_001,78.36,15.84,8.0,1.508,359.695,54.47,55.88,54.18,55.28,51.396,94.5,0.2837
39.71,FLT_001,80.09,15.88,8.0,1.016,359.748,56.42,52.61,54.66,55.26,51.412,94.6,0.3705
39.81,FLT_001,79.56,15.92,8.0,-1.408,359.679,53.21,54.47,56.04,54.3,51.25,94.1,0.3655
39.91,FLT_001,80.43,15.96,8.0,1.771,359.687,53.52,56.13,55.44,54.93,51.244,94.6,0.3375
40.01,FLT_001,79.22,16.0,8.0,-3.06,359.602,54.9,56.03,55.29,55.65,51.256,94.5,0.3105
40.11,FLT_001,79.91,16.04,8.0,-3.471,359.752,54.31,53.08,55.62,56.1,51.28,95.0,0.2742
40.21,FLT_001,80.42,16.08,8.0,-2.552,359.915,54.78,55.89,54.66,54.91,51.208,94.5,0.2856
40.31,FLT_001,80.64,16.12,8.0,-0.067,359.984,56.75,54.71,54.65,53.13,51.311,94.1,0.2833
40.41,FLT_001,80.59,16.16,8.0,1.35,0.14,55.69,54.29,55.15,54.68,51.242,93.9,0.3196
40.51,FLT_001,81.32,16.2,8.0,-5.952,0.155,54.55,54.88,54.96,56.18,51.328,94.3,0.2984
40.61,FLT_001,80.68,16.24,8.0,2.645,0.232,56.52,55.65,56.27,55.85,51.043,93.9,0.2997
40.71,FLT_001,81.34,16.28,8.0,0.262,0.354,55.49,56.46,53.69,54.32,51.207,94.0,0.377
40.81,FLT_001,81.67,16.32,8.0,-3.136,0.353,54.18,54.7,55.69,53.88,51.285,93.9,0.3572
40.91,FLT_001,82.07,16.36,8.0,0.202,0.361,55.5,54.41,54.65,55.2,51.068,94.0,0.2609
41.01,FLT_001,82.37,16.4,8.0,2.185,0.454,56.68,54.29,54.92,53.92,51.223,94.6,0.3148
41.11,FLT_001,81.65,16.44,8.0,1.199,0.519,54.28,53.91,55.24,55.43,51.239,93.9,0.2612
41.21,FLT_001,81.65,16.48,8.0,2.198,0.443,55.69,54.25,55.51,55.11,51.349,94.0,0.3301
41.31,FLT_001,83.25,16.52,8.0,-2.732,0.224,54.94,53.76,55.15,55.18,51.14,93.7,0.3965
41.41,FLT_001,82.98,16.56,8.0,-0.828,0.207,55.1,55.4,55.69,53.9,51.193,93.6,0.2822
41.51,FLT_001,82.64,16.6,8.0,-1.849,359.997,54.78,55.52,54.73,55.96,51.114,94.0,0.3395
41.61,FLT_001,83.99,16.64,8.0,3.435,359.898,55.09,53.05,55.84,54.88,51.154,94.2,0.3807
41.71,FLT_001,83.47,16.68,8.0,1.279,359.811,53.23,54.75,53.73,55.75,51.328,93.7,0.2932
41.81,FLT_001,84.2,16.72,8.0,5.694,359.754,54.96,54.08,55.81,55.46,51.161,93.6,0.3247
41.91,FLT_001,83.85,16.76,8.0,-0.935,359.836,54.76,53.75,54.16,54.14,51.091,93.5,0.3857
42.01,FLT_001,85.04,16.8,8.0,-1.449,359.939,55.75,53.32,54.95,54.75,51.142,94.1,0.2532
42.11,FLT_001,85.09,16.84,8.0,-0.286,359.99,56.04,55.23,55.54,54.47,51.106,94.3,0.2482
42.21,FLT_001,84.29,16.88,8.0,2.757,0.054,53.77,54.67,55.78,55.77,51.112,93.6,0.2378
42.31,FLT_001,85.1,16.92,8.0,-0.732,0.119,54.57,54.14,53.94,54.86,51.1,93.8,0.3377
42.41,FLT_001,85.14,16.96,8.0,0.249,359.87,55.14,56.47,55.12,55.61,51.102,94.3,0.2493
42.51,FLT_001,85.7,17.0,8.0,0.193,359.871,54.22,55.04,55.14,54.86,51.031,93.9,0.328
42.61,FLT_001,84.73,17.04,8.0,0.079,359.691,54.98,55.13,55.48,56.17,51.155,93.9,0.368
42.71,FLT_001,85.76,17.08,8.0,-1.305,359.742,52.73,56.11,53.29,55.31,51.048,94.1,0.2669
42.81,FLT_001,86.14,17.12,8.0,-0.275,359.533,57.36,54.96,55.18,54.69,51.258,93.8,0.2619
42.91,FLT_001,84.93,17.16,8.0,-0.36,359.514,55.67,55.36,54.32,54.89,51.111,93.7,0.3335
43.01,FLT_001,85.42,17.2,8.0,-0.015,359.569,53.88,54.88,54.58,55.14,51.181,94.0,0.3024
43.11,FLT_001,85.19,17.24,8.0,1.887,359.457,54.29,54.79,55.01,55.08,51.179,93.5,0.1819
43.21,FLT_001,86.28,17.28,8.0,3.521,359.554,55.27,54.83,54.21,55.08,50.952,93.4,0.3766
43.31,FLT_001,86.97,17.32,8.0,-1.681,359.604,54.82,56.02,56.15,53.63,51.107,93.7,0.3276
43.41,FLT_001,87.57,17.36,8.0,-0.784,359.642,55.62,55.82,53.65,55.58,51.304,94.1,0.281
43.51,FLT_001,87.05,17.4,8.0,-1.65,359.712,55.9,54.05,54.76,55.19,51.052,94.2,0.279
43.61,FLT_001,88.03,17.44,8.0,0.374,359.676,55.57,54.01,56.16,52.97,51.355,93.7,0.335
43.71,FLT_001,86.72,17.48,8.0,-1.077,359.691,56.32,55.55,54.38,55.86,51.18,94.1,0.2978
43.81,FLT_001,86.76,17.52,8.0,0.48,359.692,53.95,55.11,55.24,55.24,51.176,94.2,0.3029
43.91,FLT_001,87.79,17.56,8.0,2.207,359.691,54.16,54.5,55.13,54.27,51.146,93.8,0.3075
44.01,FLT_001,88.21,17.6,8.0,-5.052,359.624,55.27,54.39,56.0,56.56,51.224,94.0,0.259
44.11,FLT_001,88.2,17.64,8.0,0.984,359.5,54.7,55.92,54.79,54.06,51.228,94.3,0.282
44.21,FLT_001,87.38,17.68,8.0,-0.92,359.466,54.57,55.09,53.21,55.63,51.114,93.5,0.2906
44.31,FLT_001,88.57,17.72,8.0,0.921,359.427,55.09,56.0,55.61,55.12,51.071,93.7,0.262
44.41,FLT_001,88.16,17.76,8.0,-1.793,359.353,54.64,56.52,57.17,54.66,50.969,94.2,0.3137
44.51,FLT_001,89.35,17.8,8.0,2.393,359.438,56.04,54.29,54.41,54.61,51.191,93.4,0.3242
44.61,FLT_001,89.4,17.84,8.0,1.827,359.321,55.68,53.93,56.55,55.94,51.114,93.7,0.3843
44.71,FLT_001,88.94,17.88,8.0,1.137,359.304,55.66,54.71,55.83,52.08,51.021,93.5,0.262
44.81,FLT_001,89.36,17.92,8.0,1.586,359.421,55.44,55.16,53.11,55.41,51.046,94.1,0.3445
44.91,FLT_001,89.29,17.96,8.0,-1.491,359.512,55.59,53.15,53.81,57.06,51.095,93.3,0.3712
45.01,FLT_001,89.98,18.0,8.0,-1.239,359.633,54.81,55.98,56.13,55.39,51.002,93.6,0.3475
45.11,FLT_001,90.69,18.04,8.0,1.505,359.574,56.02,52.89,54.77,51.92,51.103,93.3,0.2751
45.21,FLT_001,89.92,18.08,8.0,-1.535,359.653,53.25,54.45,54.33,55.04,50.934,93.2,0.2845
45.31,FLT_001,90.87,18.12,8.0,2.891,359.546,54.98,55.13,55.17,55.33,51.041,93.0,0.3759
45.41,FLT_001,90.55,18.16,8.0,-0.647,359.519,54.04,54.28,54.96,54.98,50.976,93.5,0.2907
45.51,FLT_001,90.62,18.2,8.0,1.004,359.5,53.92,56.08,55.72,54.14,51.11,93.7,0.2985
45.61,FLT_001,91.16,18.24,8.0,4.198,359.443,54.79,57.01,55.16,55.4,50.99,93.5,0.2757
45.71,FLT_001,90.9,18.28,8.0,-1.412,359.407,54.39,54.69,56.51,55.11,51.03,93.6,0.3387
45.81,FLT_001,91.34,18.32,8.0,0.138,359.357,54.93,55.01,57.55,55.04,51.31,93.4,0.177
45.91,FLT_001,91.22,18.36,8.0,2.108,359.259,54.17,54.34,55.78,53.57,51.168,93.8,0.2595
46.01,FLT_001,93.0,18.4,8.0,1.903,359.345,55.45,54.28,53.14,54.02,51.14,93.7,0.251
46.11,FLT_001,92.23,18.44,8.0,-0.656,359.327,55.03,56.4,55.91,54.71,51.208,93.5,0.3794
46.21,FLT_001,92.07,18.48,8.0,-1.033,359.347,55.97,54.64,53.53,55.02,51.127,93.5,0.3116
46.31,FLT_001,92.72,18.52,8.0,-0.466,359.363,53.49,55.79,55.81,54.12,50.933,93.3,0.2899
46.41,FLT_001,92.76,18.56,8.0,2.896,359.369,55.15,55.14,55.87,53.75,50.94,94.0,0.2898
46.51,FLT_001,92.91,18.6,8.0,-0.558,359.378,55.6,53.68,55.78,56.06,50.799,93.7,0.2309
46.61,FLT_001,93.52,18.64,8.0,0.156,359.347,54.33,56.22,53.43,56.1,51.088,93.4,0.3678
46.71,FLT_001,93.79,18.68,8.0,-0.854,359.489,56.44,55.35,54.8,55.31,50.96,93.3,0.2824
46.81,FLT_001,93.35,18.72,8.0,1.411,359.565,54.4,57.62,54.41,56.32,51.007,93.3,0.3297
46.91,FLT_001,93.53,18.76,8.0,0.311,359.567,54.26,56.6,57.01,55.39,51.03,93.3,0.2672
47.01,FLT_001,93.88,18.8,8.0,-2.007,359.522,55.29,54.04,53.92,55.3,50.999,93.4,0.297
47.11,FLT_001,93.06,18.84,8.0,-1.938,359.51,56.46,54.45,57.21,54.39,51.054,92.8,0.2541
47.21,FLT_001,93.66,18.88,8.0,-3.997,359.552,55.23,55.23,54.9,52.96,51.028,93.2,0.2876
47.31,FLT_001,95.3,18.92,8.0,-1.663,359.702,54.38,55.2,54.9,55.64,51.016,93.3,0.352
47.41,FLT_001,95.64,18.96,8.0,1.588,359.565,55.76,54.76,54.04,56.55,50.897,93.3,0.3053
47.51,FLT_001,94.89,19.0,8.0,2.648,359.631,53.64,54.4,54.15,55.75,51.074,93.3,0.3187
47.61,FLT_001,95.5,19.04,8.0,1.371,359.744,56.32,54.83,55.23,55.43,51.265,93.3,0.3031
47.71,FLT_001,95.57,19.08,8.0,1.109,359.595,56.8,53.23,55.74,55.38,51.073,93.4,0.3816
47.81,FLT_001,97.16,19.12,8.0,-0.253,359.577,54.63,55.33,55.74,55.58,51.271,93.2,0.2592
47.91,FLT_001,96.38,19.16,8.0,1.55,359.47,57.16,55.13,55.03,54.82,50.985,93.5,0.2931
48.01,FLT_001,95.95,19.2,8.0,0.573,359.513,55.55,54.97,55.01,55.02,51.015,93.4,0.3094
48.11,FLT_001,95.74,19.24,8.0,3.609,359.478,54.87,54.39,55.42,54.71,51.036,93.9,0.2502
48.21,FLT_001,95.61,19.28,8.0,-0.197,359.465,55.61,55.11,54.61,56.56,51.019,93.4,0.3063
48.31,FLT_001,96.72,19.32,8.0,2.686,359.423,54.9,55.62,54.3,52.97,51.15,92.9,0.3015
48.41,FLT_001,96.44,19.36,8.0,1.748,359.495,54.43,52.86,54.76,56.47,50.813,93.1,0.3057
48.51,FLT_001,96.31,19.4,8.0,1.471,359.518,54.09,52.89,56.5,54.52,50.984,93.0,0.3059
48.61,FLT_001,96.89,19.44,8.0,-4.023,359.541,54.98,55.79,55.52,55.75,51.194,93.1,0.2664
48.71,FLT_001,96.88,19.48,8.0,1.858,359.557,55.9,53.25,53.59,56.17,50.976,93.4,0.2188
48.81,FLT_001,98.46,19.52,8.0,-0.255,359.615,54.22,54.33,53.74,54.6,51.117,93.0,0.3092
48.91,FLT_001,98.26,19.56,8.0,-0.888,359.589,54.65,54.06,53.95,55.32,51.082,92.9,0.2553
49.01,FLT_001,98.01,19.6,8.0,-2.966,359.759,54.19,54.39,52.81,56.94,51.013,93.2,0.2954
49.11,FLT_001,98.96,19.64,8.0,-0.011,359.635,55.94,54.51,54.1,55.01,51.049,92.8,0.2626
49.21,FLT_001,98.46,19.68,8.0,0.067,359.463,54.98,53.72,52.45,54.47,51.007,92.8,0.226
49.31,FLT_001,98.19,19.72,8.0,-2.606,359.282,53.44,55.17,55.18,54.03,50.801,93.1,0.318
49.41,FLT_001,99.58,19.76,8.0,-2.947,359.074,54.47,56.76,55.78,54.55,51.058,92.5,0.335
49.51,FLT_001,99.29,19.8,8.0,0.973,359.141,57.29,53.8,54.19,54.89,50.948,92.8,0.3552
49.61,FLT_001,98.7,19.84,8.0,1.743,359.196,53.47,56.79,55.18,54.21,50.87,93.2,0.2776
49.71,FLT_001,99.32,19.88,8.0,0.381,359.317,55.45,55.15,54.7,53.79,51.045,92.4,0.302
49.81,FLT_001,99.18,19.92,8.0,2.302,359.211,53.56,57.19,53.65,56.7,51.036,92.4,0.317
49.91,FLT_001,99.13,19.96,8.0,-0.173,359.286,54.16,55.79,55.47,55.67,51.1,92.5,0.3511
50.01,FLT_001,100.48,20.0,8.0,-0.109,359.292,55.73,53.39,54.32,53.63,50.974,92.1,0.2125
50.11,FLT_001,101.17,20.04,8.0,-1.834,359.308,55.19,53.68,53.02,54.76,51.084,93.5,0.2266
50.21,FLT_001,99.72,20.08,8.0,-3.12,359.371,52.79,55.26,53.74,54.16,50.998,92.9,0.3694
50.31,FLT_001,100.9,20.12,8.0,3.709,359.295,52.72,56.65,53.54,54.64,51.028,92.7,0.2157
50.41,FLT_001,100.49,20.16,8.0,2.263,359.554,53.21,54.16,56.75,55.3,51.035,92.5,0.3459
50.51,FLT_001,100.77,20.2,8.0,-2.785,359.687,54.28,54.97,54.44,54.91,50.857,93.5,0.3666
50.61,FLT_001,100.92,20.24,8.0,0.312,359.634,55.74,54.67,55.22,55.24,51.026,93.0,0.3402
50.71,FLT_001,100.98,20.28,8.0,-0.2,359.525,54.67,54.26,54.47,55.7,50.996,92.8,0.2498
50.81,FLT_001,101.64,20.32,8.0,-0.548,359.516,55.78,53.86,54.74,54.25,50.957,93.2,0.2554
50.91,FLT_001,101.4,20.36,8.0,-0.818,359.534,55.8,54.53,57.2,55.22,50.993,92.9,0.2971
51.01,FLT_001,102.15,20.4,8.0,0.763,359.641,56.18,53.99,55.01,55.62,51.235,92.6,0.3876
51.11,FLT_001,102.19,20.44,8.0,1.636,359.524,53.97,55.02,56.05,54.67,50.786,92.6,0.3872
51.21,FLT_001,102.3,20.48,8.0,0.805,359.552,54.15,56.8,53.83,55.16,50.963,92.6,0.3149
51.31,FLT_001,102.16,20.52,8.0,-0.241,359.4,54.29,54.06,55.74,54.79,51.055,92.4,0.2203
51.41,FLT_001,102.53,20.56,8.0,-0.314,359.443,55.41,52.74,55.5,54.28,50.847,93.1,0.3081
51.51,FLT_001,103.39,20.6,8.0,1.874,359.432,53.12,56.88,55.6,55.23,51.007,92.5,0.2896
51.61,FLT_001,103.47,20.64,8.0,0.927,359.626,56.25,55.25,54.2,54.83,50.998,93.1,0.3011
51.71,FLT_001,102.93,20.68,8.0,0.145,359.471,54.32,54.5,53.74,54.03,50.807,92.4,0.2172
51.81,FLT_001,103.67,20.72,8.0,-0.072,359.609,55.89,55.33,54.5,53.97,50.905,92.5,0.3122
51.91,FLT_001,104.19,20.76,8.0,0.691,359.438,54.59,53.32,55.13,55.95,51.14,92.5,0.2248
52.01,FLT_001,103.18,20.8,8.0,-0.937,359.305,57.37,53.9,55.9,54.29,50.801,92.4,0.1735
52.11,FLT_001,104.49,20.84,8.0,1.643,359.138,53.87,53.87,55.14,54.07,50.914,92.4,0.3112
52.21,FLT_001,104.09,20.88,8.0,-2.152,359.163,54.39,54.56,54.26,54.19,50.939,92.8,0.3959
52.31,FLT_001,104.9,20.92,8.0,-0.823,359.045,52.57,55.09,55.07,54.2,50.954,93.0,0.2582
52.41,FLT_001,104.44,20.96,8.0,1.222,358.911,55.36,56.4,55.02,56.33,50.911,92.7,0.2764
52.51,FLT_001,104.12,21.0,8.0,-2.266,358.931,57.24,57.53,53.81,53.82,50.958,92.2,0.3448
52.61,FLT_001,104.4,21.04,8.0,-3.146,358.976,54.56,55.13,56.59,55.63,50.944,92.4,0.3581
52.71,FLT_001,105.44,21.08,8.0,0.126,358.98,53.8,54.39,54.96,53.51,51.017,92.4,0.3053
52.81,FLT_001,105.75,21.12,8.0,-3.393,358.964,55.01,53.81,53.35,54.05,51.028,93.0,0.2646
52.91,FLT_001,105.37,21.16,8.0,-2.598,359.147,55.41,55.4,55.1,55.99,50.986,92.8,0.3663
53.01,FLT_001,106.34,21.2,8.0,1.513,359.161,55.89,55.2,55.07,55.13,50.963,92.9,0.2385
53.11,FLT_001,105.39,21.24,8.0,-0.41,359.242,54.85,52.83,56.14,55.4,50.781,92.3,0.2739
53.21,FLT_001,106.38,21.28,8.0,2.571,359.256,53.78,56.43,54.41,54.89,50.947,92.1,0.3294
53.31,FLT_001,106.01,21.32,8.0,-2.41,359.146,56.02,55.22,56.34,54.65,51.045,92.6,0.2216
53.41,FLT_001,106.49,21.36,8.0,-0.188,359.201,56.69,54.22,56.32,52.73,50.771,92.3,0.3194
53.51,FLT_001,107.04,21.4,8.0,0.799,359.136,53.9,55.3,54.6,54.93,50.798,92.5,0.3569
53.61,FLT_001,106.79,21.44,8.0,-2.341,359.127,55.04,53.81,53.88,55.23,51.077,92.5,0.3838
53.71,FLT_001,107.23,21.48,8.0,2.064,359.157,54.33,56.34,54.81,55.72,50.776,92.3,0.2805
53.81,FLT_001,108.12,21.52,8.0,1.021,358.963,55.44,54.4,53.02,56.18,50.914,92.7,0.278
53.91,FLT_001,107.53,21.56,8.0,-3.219,358.802,54.02,54.6,54.85,54.95,50.867,91.9,0.3357
54.01,FLT_001,108.44,21.6,8.0,-0.075,358.893,55.96,55.01,54.87,56.02,51.063,92.4,0.2691
54.11,FLT_001,107.65,21.64,8.0,0.772,358.827,55.6,54.26,53.85,54.18,50.948,92.5,0.2846
54.21,FLT_001,108.68,21.68,8.0,-1.18,358.765,54.95,53.75,55.09,54.87,50.995,92.8,0.3161
54.31,FLT_001,109.34,21.72,8.0,-2.96,358.782,52.46,53.59,52.11,54.66,50.919,92.3,0.3186
54.41,FLT_001,107.58,21.76,8.0,0.557,358.743,56.07,53.11,53.68,54.84,51.111,92.7,0.2046
54.51,FLT_001,108.62,21.8,8.0,4.422,358.785,53.94,53.93,55.54,54.51,50.835,92.6,0.2417
54.61,FLT_001,109.51,21.84,8.0,-0.774,358.78,53.51,52.91,57.21,56.13,50.942,93.0,0.2083
54.71,FLT_001,109.32,21.88,8.0,3.138,358.8,54.55,55.09,54.51,55.51,51.032,92.3,0.2166
54.81,FLT_001,109.8,21.92,8.0,-1.505,358.729,54.15,54.46,55.46,56.45,51.052,92.9,0.2441
54.91,FLT_001,109.52,21.96,8.0,0.431,358.749,55.74,56.23,54.69,54.38,50.875,92.5,0.2889
55.01,FLT_001,110.06,22.0,8.0,1.543,358.859,53.06,55.07,55.38,54.7,50.697,91.7,0.2937
55.11,FLT_001,110.14,22.04,8.0,-0.017,358.803,54.22,56.24,55.63,56.31,50.859,92.2,0.1924
55.21,FLT_001,111.0,22.08,8.0,-0.595,358.894,54.05,54.29,56.2,54.95,51.07,91.9,0.2533
55.31,FLT_001,110.75,22.12,8.0,1.452,358.889,54.43,54.5,54.99,56.0,50.817,92.6,0.2241
55.41,FLT_001,110.99,22.16,8.0,3.783,358.962,54.84,55.79,55.47,54.12,50.921,92.2,0.29
55.51,FLT_001,110.81,22.2,8.0,0.601,358.975,54.12,54.55,53.66,54.49,50.859,91.7,0.2672
55.61,FLT_001,110.97,22.24,8.0,-1.032,358.972,56.51,54.97,54.23,56.92,50.881,92.4,0.3629
55.71,FLT_001,111.2,22.28,8.0,-0.38,359.007,54.07,54.04,56.23,55.66,51.017,92.5,0.293
55.81,FLT_001,111.82,22.32,8.0,5.039,359.128,54.87,55.83,55.3,53.81,50.909,92.0,0.2697
55.91,FLT_001,111.61,22.36,8.0,0.27,359.152,52.6,54.43,56.08,54.57,51.086,91.9,0.2869
56.01,FLT_001,112.16,22.4,8.0,-1.189,359.2,55.46,55.18,53.31,54.59,50.977,92.1,0.2678
56.11,FLT_001,113.26,22.44,8.0,-2.29,359.163,55.36,54.21,54.64,55.39,50.891,91.5,0.3671
56.21,FLT_001,112.85,22.48,8.0,-3.652,359.32,55.07,56.05,55.38,54.04,50.866,92.2,0.2832
56.31,FLT_001,112.46,22.52,8.0,0.727,359.384,54.52,55.02,56.34,54.53,50.907,92.5,0.3228
56.41,FLT_001,113.42,22.56,8.0,1.309,359.392,53.27,55.44,54.24,53.71,50.748,91.8,0.3395
56.51,FLT_001,112.81,22.6,8.0,-0.793,359.379,55.02,55.97,54.43,55.5,50.764,92.5,0.267
56.61,FLT_001,112.2,22.64,8.0,-0.03,359.477,55.68,55.79,54.27,53.88,50.944,92.3,0.2098
56.71,FLT_001,112.91,22.68,8.0,-2.341,359.417,54.02,55.79,55.67,54.04,50.958,91.9,0.276
56.81,FLT_001,112.68,22.72,8.0,0.266,359.238,57.13,53.92,56.0,56.52,50.732,92.1,0.3319
56.91,FLT_001,113.64,22.76,8.0,0.963,359.246,55.11,54.23,54.25,54.74,50.948,92.4,0.2152
57.01,FLT_001,114.03,22.8,8.0,-1.07,359.365,56.08,53.8,53.16,55.36,50.842,92.0,0.3126
57.11,FLT_001,115.06,22.84,8.0,3.381,359.524,55.58,56.97,53.62,54.87,50.775,92.0,0.342
57.21,FLT_001,114.58,22.88,8.0,-1.674,359.513,56.16,55.12,54.8,55.79,50.824,91.7,0.3696
57.31,FLT_001,114.51,22.92,8.0,0.567,359.517,54.4,55.85,53.75,53.48,50.943,91.8,0.3339
57.41,FLT_001,115.23,22.96,8.0,1.697,359.569,54.73,52.44,55.08,53.27,50.913,92.1,0.3146
57.51,FLT_001,113.91,23.0,8.0,-0.155,359.543,55.28,55.19,54.93,55.44,50.88,91.8,0.3093
57.61,FLT_001,115.34,23.04,8.0,-0.377,359.595,55.2,54.71,56.83,55.39,50.886,91.7,0.2396
57.71,FLT_001,115.8,23.08,8.0,-2.858,359.586,55.77,56.07,55.67,57.06,50.732,92.2,0.2527
57.81,FLT_001,114.88,23.12,8.0,2.715,359.687,55.17,54.99,54.35,54.74,50.898,92.0,0.2134
57.91,FLT_001,116.39,23.16,8.0,-0.34,359.759,54.27,55.68,54.09,55.07,50.796,91.7,0.3036
58.01,FLT_001,116.19,23.2,8.0,1.075,359.84,55.56,55.15,54.1,55.7,51.042,92.3,0.322
58.11,FLT_001,116.01,23.24,8.0,1.345,359.82,54.91,52.13,54.02,56.4,50.8,92.4,0.3059
58.21,FLT_001,116.74,23.28,8.0,-1.257,0.012,56.48,55.53,55.78,54.22,51.058,92.1,0.3142
58.31,FLT_001,117.75,23.32,8.0,-0.395,0.061,54.74,56.24,55.43,55.06,50.818,91.4,0.338
58.41,FLT_001,116.91,23.36,8.0,2.669,0.086,54.81,56.17,56.12,55.65,50.822,91.8,0.2336
58.51,FLT_001,117.14,23.4,8.0,-2.234,0.01,55.07,54.64,55.69,53.9,50.8,91.9,0.3031
58.61,FLT_001,116.99,23.44,8.0,4.256,360.0,54.11,53.55,56.24,54.28,50.702,91.2,0.3123
58.71,FLT_001,116.99,23.48,8.0,-1.49,0.011,55.4,54.87,57.9,55.44,50.958,92.0,0.2766
58.81,FLT_001,118.03,23.52,8.0,-2.359,359.932,53.14,56.18,54.61,54.8,50.834,91.7,0.1937
58.91,FLT_001,117.39,23.56,8.0,0.265,359.903,54.33,55.2,55.18,54.35,50.885,92.0,0.2488
59.01,FLT_001,118.06,23.6,8.0,4.417,359.887,54.49,55.1,52.66,53.56,50.981,91.5,0.2746
59.11,FLT_001,117.98,23.64,8.0,-3.822,359.892,56.67,55.33,54.48,53.3,50.805,91.8,0.3075
59.21,FLT_001,118.66,23.68,8.0,-0.282,359.716,54.94,55.99,57.64,56.89,50.807,91.8,0.3017
59.31,FLT_001,118.79,23.72,8.0,0.953,359.702,54.11,54.5,53.53,54.16,50.828,91.7,0.3962
59.41,FLT_001,119.34,23.76,8.0,0.067,359.665,54.79,54.63,57.05,53.68,50.684,91.7,0.3472
59.51,FLT_001,118.76,23.8,8.0,0.764,359.663,54.95,52.94,55.33,53.66,50.627,91.5,0.2988
59.61,FLT_001,119.08,23.84,8.0,-1.436,359.766,56.1,54.71,53.6,52.9,50.657,91.2,0.3061
59.71,FLT_001,118.93,23.88,8.0,-1.199,359.971,54.02,55.24,55.42,54.5,50.93,90.9,0.3635
59.81,FLT_001,119.4,23.92,8.0,-0.297,0.039,55.93,53.86,52.07,55.28,50.771,91.3,0.3655
59.91,FLT_001,120.01,23.96,8.0,-2.26,359.916,56.29,56.3,53.7,54.46,50.88,91.7,0.3167
60.01,FLT_001,124.92,22.97,1.878,-0.089,359.881,55.72,54.37,55.11,54.28,50.774,91.2,0.3867
60.11,FLT_001,124.08,24.05,-0.184,-0.777,359.941,53.91,54.1,55.96,55.01,50.64,91.8,0.2551
60.21,FLT_001,124.97,24.73,-0.55,-0.94,359.989,56.27,55.52,56.61,55.82,50.882,91.9,0.2986
60.31,FLT_001,125.2,24.34,-0.52,0.641,0.088,55.76,54.88,58.01,55.11,50.705,91.6,0.4583
60.41,FLT_001,124.72,23.95,1.288,-3.641,0.078,53.03,55.27,54.02,56.02,50.85,91.4,0.3355
60.51,FLT_001,125.45,22.64,0.548,-0.458,0.042,55.73,54.81,54.11,55.15,50.882,91.7,0.293
60.61,FLT_001,124.12,23.35,0.437,4.635,0.217,54.36,55.79,55.56,57.94,50.783,91.8,0.3052
60.71,FLT_001,123.87,24.15,1.193,-2.172,0.223,54.55,54.7,54.85,54.89,50.833,91.3,0.309
60.81,FLT_001,123.6,23.37,-3.077,2.571,0.121,56.03,54.72,56.97,55.58,50.641,91.4,0.3835
60.91,FLT_001,125.23,24.16,0.465,0.109,0.269,54.51,54.26,56.04,55.03,51.074,91.1,0.3402
61.01,FLT_001,124.8,24.55,0.328,-1.206,0.119,55.01,54.4,54.94,54.36,50.824,91.4,0.2961
61.11,FLT_001,124.44,24.77,2.503,-2.641,359.77,56.36,55.72,54.83,54.81,50.856,90.7,0.2162
61.21,FLT_001,124.6,23.02,-2.293,0.279,359.847,55.09,54.99,54.04,53.1,50.869,91.2,0.2637
61.31,FLT_001,123.89,25.76,2.336,2.907,359.938,54.2,54.87,54.26,55.82,50.76,91.1,0.303
61.41,FLT_001,125.67,24.61,0.113,-0.778,359.979,54.77,56.87,54.44,55.14,50.78,91.3,0.2935
61.51,FLT_001,124.5,24.0,0.733,-0.162,359.849,54.71,55.44,56.07,55.61,50.878,91.0,0.3548
61.61,FLT_001,124.48,24.87,2.514,2.021,359.843,52.97,55.5,53.99,54.69,50.731,90.7,0.2884
61.71,FLT_001,124.78,25.89,0.841,0.682,359.815,55.69,53.88,56.16,54.65,50.805,91.1,0.3419
61.81,FLT_001,124.65,22.85,0.601,-3.145,359.761,57.17,55.07,56.71,56.2,50.811,91.1,0.2264
61.91,FLT_001,124.52,23.82,0.363,0.198,359.903,54.39,53.7,55.11,54.42,50.688,91.5,0.2738
62.01,FLT_001,124.0,22.1,-0.725,3.024,359.798,56.58,54.75,54.7,53.6,50.804,91.0,0.3347
62.11,FLT_001,124.62,24.15,-0.043,-0.074,359.83,55.42,53.83,55.44,55.58,50.588,90.9,0.4034
62.21,FLT_001,125.32,24.29,-1.073,-5.483,359.949,54.25,55.96,54.73,53.53,50.848,90.8,0.2929
62.31,FLT_001,125.05,23.97,-0.067,0.776,359.987,56.55,54.08,55.51,55.43,50.911,91.5,0.3414
62.41,FLT_001,125.16,23.48,-3.504,-0.397,0.111,55.39,55.37,54.03,56.69,50.842,91.1,0.3668
62.51,FLT_001,124.1,22.36,0.644,-3.658,0.168,55.96,55.48,53.67,54.02,50.9,91.2,0.3477
62.61,FLT_001,123.85,24.3,-0.183,-3.358,0.211,55.66,53.0,55.34,53.67,50.672,90.7,0.3374
62.71,FLT_001,124.28,25.16,-0.504,1.95,0.247,54.13,53.59,55.25,56.12,50.723,90.6,0.2823
62.81,FLT_001,124.36,23.53,0.33,-1.465,0.309,55.35,55.46,55.17,55.68,50.756,90.8,0.376
62.91,FLT_001,124.87,24.35,-2.15,-1.815,0.27,55.47,52.28,55.91,55.8,50.755,91.6,0.2341
63.01,FLT_001,123.47,22.75,2.894,-0.071,0.14,54.64,53.03,55.24,55.33,50.696,90.7,0.2367
63.11,FLT_001,125.07,24.37,-0.154,-1.288,0.235,54.56,55.19,56.07,57.4,50.646,90.9,0.3934
63.21,FLT_001,124.22,23.69,-0.219,0.2,0.351,55.15,55.33,54.18,54.5,50.908,91.0,0.3181
63.31,FLT_001,124.08,23.39,-1.448,-0.405,0.377,54.86,56.18,55.82,56.93,50.65,90.8,0.2381
63.41,FLT_001,123.78,23.39,0.036,-2.4,0.322,53.51,53.68,56.1,56.45,50.897,91.2,0.2283
63.51,FLT_001,123.45,23.69,2.08,-1.022,0.166,55.03,50.53,54.26,55.34,50.779,90.8,0.2262
63.61,FLT_001,124.68,24.31,1.554,0.886,0.175,54.1,55.19,56.9,56.43,50.748,90.7,0.4017
63.71,FLT_001,124.29,22.95,1.282,0.084,0.04,55.81,54.94,54.51,55.76,50.78,91.8,0.2959
63.81,FLT_001,123.6,23.68,0.82,-0.164,359.891,55.03,55.06,53.45,54.29,50.876,90.7,0.2741
63.91,FLT_001,123.59,23.97,-0.538,3.875,359.889,55.75,53.9,55.27,55.41,50.459,91.2,0.3814
64.01,FLT_001,124.06,23.12,-2.175,1.462,359.812,55.47,55.56,55.63,54.38,50.756,90.6,0.3126
64.11,FLT_001,125.05,25.44,-0.302,1.705,359.847,53.53,54.13,55.73,53.8,50.733,90.5,0.2836
64.21,FLT_001,124.08,23.32,-0.354,-0.332,359.831,53.96,53.95,53.15,53.85,50.734,90.9,0.353
64.31,FLT_001,123.45,23.46,1.573,0.44,359.77,56.0,54.28,53.25,54.49,50.808,90.5,0.3299
64.41,FLT_001,124.07,23.22,0.464,-0.862,359.6,55.51,53.17,55.95,53.56,50.651,90.8,0.33
64.51,FLT_001,124.05,25.44,2.418,1.555,359.514,54.6,54.59,54.44,54.94,50.595,90.6,0.2865
64.61,FLT_001,122.83,24.44,1.796,-0.221,359.433,55.78,54.96,54.39,55.46,50.569,91.2,0.2552
64.71,FLT_001,124.14,23.25,-0.685,0.445,359.31,55.21,54.33,55.04,54.25,50.615,90.4,0.2495
64.81,FLT_001,124.04,24.88,-2.693,0.321,359.277,54.13,55.81,55.45,55.77,50.773,91.0,0.3051
64.91,FLT_001,124.49,24.16,2.078,-0.036,359.163,55.64,54.11,56.0,54.7,50.752,90.9,0.3004
65.01,FLT_001,125.06,24.21,2.039,5.876,359.146,55.93,54.87,55.31,55.34,50.788,90.7,0.3241
65.11,FLT_001,124.69,23.72,-2.049,-1.333,359.17,55.81,53.37,53.42,55.67,50.652,90.5,0.2788
65.21,FLT_001,123.98,23.4,2.264,-1.351,359.088,55.36,54.22,55.36,53.59,50.654,90.8,0.364
65.31,FLT_001,123.56,24.27,0.573,1.388,359.13,58.26,56.31,55.62,55.08,50.859,90.8,0.2337
65.41,FLT_001,125.39,23.56,0.241,-1.19,358.994,54.38,53.69,54.89,54.14,50.794,90.9,0.3209
65.51,FLT_001,124.12,25.45,2.422,-0.583,358.883,54.2,53.58,55.25,54.62,50.765,90.6,0.2545
65.61,FLT_001,124.09,22.98,2.017,-2.173,358.872,55.54,55.46,55.23,57.66,50.505,90.4,0.2878
65.71,FLT_001,124.06,25.23,0.977,0.983,358.94,55.82,53.74,55.46,54.95,50.882,91.0,0.254
65.81,FLT_001,124.16,23.91,0.71,1.009,359.027,53.66,53.58,55.45,55.7,50.675,90.7,0.2816
65.91,FLT_001,123.98,24.24,0.925,-0.63,359.188,53.95,55.97,55.28,56.2,50.699,90.5,0.2465
66.01,FLT_001,123.75,24.67,-0.6,1.43,359.151,56.09,54.84,56.64,53.88,50.725,90.3,0.25
66.11,FLT_001,123.76,23.5,-0.083,-3.716,359.138,57.39,54.12,54.95,54.43,50.694,90.9,0.3482
66.21,FLT_001,124.01,24.69,-1.353,-1.414,359.035,54.62,57.92,54.54,55.85,50.659,91.0,0.2305
66.31,FLT_001,123.74,21.83,-0.5,-0.34,358.909,54.76,55.94,54.46,55.26,50.688,90.8,0.3325
66.41,FLT_001,123.65,23.42,-0.55,-2.345,358.932,55.63,54.28,57.76,55.68,50.735,90.8,0.3426
66.51,FLT_001,124.04,23.26,-0.953,-3.497,358.855,54.77,54.3,55.09,53.78,50.755,90.9,0.3365
66.61,FLT_001,123.85,23.0,0.205,-0.616,358.978,56.78,55.43,54.91,56.05,50.79,90.5,0.2987
66.71,FLT_001,124.72,23.83,-0.486,1.388,358.832,54.28,53.84,54.87,55.13,50.556,91.2,0.2454
66.81,FLT_001,122.64,24.31,0.753,2.564,358.88,55.53,53.52,54.54,51.92,50.609,90.2,0.2227
66.91,FLT_001,124.5,24.56,-2.433,-1.095,358.78,53.82,55.72,55.96,53.86,50.747,90.4,0.241
67.01,FLT_001,124.56,24.19,-0.17,1.466,358.698,54.68,55.03,56.08,56.53,50.503,90.3,0.2413
67.11,FLT_001,122.89,23.47,0.197,1.273,358.751,55.15,54.74,53.56,55.11,50.674,90.5,0.3138
67.21,FLT_001,123.75,24.3,-0.466,2.437,358.684,57.07,56.29,55.17,55.3,50.577,91.0,0.2292
67.31,FLT_001,123.72,24.1,-0.259,-0.7,358.632,54.31,54.64,55.15,55.15,50.709,90.4,0.2897
67.41,FLT_001,123.2,24.75,-2.378,-3.597,358.551,56.01,55.96,55.52,54.0,50.567,90.6,0.302
67.51,FLT_001,123.5,24.62,0.535,0.14,358.73,54.04,54.11,55.24,52.97,50.614,89.6,0.2848
67.61,FLT_001,123.32,24.02,0.971,-2.028,358.668,54.99,56.41,55.67,54.65,50.619,90.6,0.2865
67.71,FLT_001,124.74,23.28,0.74,-1.447,358.673,54.3,55.81,55.31,54.75,50.67,90.7,0.3638
67.81,FLT_001,124.33,23.48,1.558,-0.602,358.653,54.41,55.08,54.7,55.78,50.74,90.4,0.325
67.91,FLT_001,124.48,23.56,0.302,-0.678,358.675,56.24,53.63,53.77,56.35,50.745,90.1,0.3352
68.01,FLT_001,124.2,23.75,0.718,0.283,358.613,55.17,53.87,55.98,55.34,50.66,90.0,0.2814
68.11,FLT_001,123.26,24.21,0.234,1.406,358.593,57.2,54.76,56.11,53.55,50.527,90.2,0.3392
68.21,FLT_001,123.55,24.57,1.031,-0.735,358.633,56.4,55.94,56.6,56.11,50.894,90.0,0.3152
68.31,FLT_001,124.05,23.96,-2.366,0.791,358.546,54.9,53.83,54.4,53.24,50.625,90.8,0.3105
68.41,FLT_001,123.18,24.01,-1.34,0.03,358.655,54.08,55.43,54.95,54.78,50.659,90.4,0.2804
68.51,FLT_001,124.14,24.11,2.38,1.871,358.774,54.21,53.23,55.18,55.38,50.654,90.7,0.3118
68.61,FLT_001,123.65,23.59,-3.691,-0.377,358.835,54.01,54.47,56.54,56.16,50.663,90.2,0.4054
68.71,FLT_001,123.57,23.26,-0.21,-0.158,358.842,53.52,54.92,56.45,54.78,50.541,90.0,0.3302
68.81,FLT_001,124.1,22.6,1.758,-0.749,358.543,54.73,56.09,55.99,55.94,50.668,90.0,0.3855
68.91,FLT_001,123.96,23.44,-0.14,-0.324,358.585,54.74,55.66,56.49,54.95,50.804,90.1,0.2057
69.01,FLT_001,123.55,24.38,-0.608,-1.567,358.546,54.6,56.23,57.05,57.12,50.419,90.1,0.3036
69.11,FLT_001,124.3,23.44,0.194,-1.765,358.521,54.63,54.73,53.97,55.12,50.621,90.6,0.341
69.21,FLT_001,123.16,23.81,-0.53,1.552,358.331,53.93,54.47,55.7,55.39,50.504,90.5,0.3193
69.31,FLT_001,124.0,24.37,0.046,-2.166,358.381,53.19,56.57,53.91,54.04,50.713,90.3,0.3258
69.41,FLT_001,123.98,24.42,-1.025,-0.638,358.236,53.76,54.34,54.1,54.13,50.726,89.7,0.2806
69.51,FLT_001,123.52,23.14,1.663,2.031,358.248,52.54,55.13,55.23,57.24,50.597,90.2,0.3606
69.61,FLT_001,123.82,24.8,2.135,-0.705,358.338,55.49,54.5,53.8,54.9,50.614,90.0,0.22
69.71,FLT_001,123.02,24.9,-0.2,1.657,358.291,55.45,54.5,55.06,56.9,50.518,90.5,0.2925
69.81,FLT_001,124.1,23.1,-2.08,-1.182,358.413,54.62,53.11,55.87,55.31,50.368,90.4,0.3062
69.91,FLT_001,123.53,23.34,-0.786,-2.102,358.338,53.29,55.43,54.0,55.44,50.575,90.1,0.2714
70.01,FLT_001,123.35,24.95,-0.276,-3.19,358.398,56.91,54.82,56.08,53.77,50.578,89.5,0.3014
70.11,FLT_001,124.13,23.88,0.758,2.625,358.268,53.48,57.02,55.31,55.64,50.602,90.0,0.2018
70.21,FLT_001,123.24,22.22,-1.512,-2.274,358.371,56.15,54.47,55.83,55.67,50.268,89.9,0.2352
