timestamp_s,flight_id,altitude_m,airspeed_ms,pitch_deg,roll_deg,yaw_deg,motor1_temp_c,motor2_temp_c,motor3_temp_c,motor4_temp_c,battery_v,battery_pct,vibration_g,altitude_ms_rate,airspeed_ms_rate,motor_max_temp,motor_temp_spread,motor_temp_zscore,vibration_zscore,phase,fault_flag,fault_reason
0.0,FLT_004,0.51,0.0,8.0,0.579,0.182,57.12,55.68,54.47,56.5,52.0,99.8,0.2665,,,57.12,2.6499999999999986,,,landing,False,
0.1,FLT_004,0.0,0.04,8.0,-1.781,0.221,56.57,56.9,55.87,56.49,51.974,100.0,0.3707,-5.1,0.4,56.9,1.0300000000000011,,,landing,False,
0.2,FLT_004,0.19,0.08,8.0,0.906,0.187,54.38,55.81,55.46,54.54,51.984,99.8,0.3433,1.9,0.4,55.81,1.4299999999999997,,,landing,False,
0.3,FLT_004,0.64,0.12,8.0,-3.102,0.266,56.57,55.1,55.83,56.68,51.965,100.0,0.262,4.5,0.3999999999999999,56.68,1.5799999999999983,,,landing,False,
0.4,FLT_004,0.98,0.16,8.0,0.463,0.344,55.16,55.04,54.45,55.12,51.955,99.9,0.2281,3.3999999999999995,0.4000000000000001,55.16,0.7099999999999937,-1.4261172563755555,-1.0989281908397297,landing,False,
0.5,FLT_004,1.32,0.2,8.0,-1.888,0.364,53.6,56.27,55.61,55.98,51.886,99.8,0.377,3.400000000000001,0.4000000000000001,56.27,2.6700000000000017,-0.07238816226610566,1.0876640870872045,landing,False,
0.6,FLT_004,0.39,0.24,8.0,-3.67,0.53,54.69,54.56,54.89,54.21,51.854,99.4,0.2955,-9.3,0.3999999999999998,54.89,0.6799999999999997,-1.4225739592669913,-0.183246025515752,landing,False,
0.7,FLT_004,1.5,0.28,8.0,-1.383,0.441,54.68,52.97,54.85,53.5,51.988,100.0,0.374,11.099999999999998,0.40000000000000036,54.85,1.8800000000000026,-1.21077855100354,1.0070896482669343,landing,False,
0.8,FLT_004,1.68,0.32,8.0,1.904,0.404,56.42,55.95,54.31,53.14,51.888,99.8,0.2638,1.7999999999999994,0.3999999999999998,56.42,3.280000000000001,0.4693635446723031,-0.7834001110270805,landing,False,
0.9,FLT_004,1.83,0.36,8.0,-0.464,0.398,54.84,55.35,53.04,53.56,51.945,100.0,0.2508,1.5000000000000013,0.3999999999999998,55.35,2.3100000000000023,-0.7020454024280309,-0.9121651903988415,landing,False,
1.0,FLT_004,2.76,0.4,8.0,2.892,0.489,53.9,54.8,55.78,55.12,52.08,100.0,0.2877,9.299999999999997,0.40000000000000036,55.78,1.8800000000000026,-0.18620376055765728,-0.2572646782894374,landing,False,
1.1,FLT_004,2.48,0.44,8.0,2.59,0.488,55.57,56.6,53.42,54.92,52.082,99.3,0.2957,-2.799999999999998,0.3999999999999998,56.6,3.1799999999999997,0.775406489248173,-0.10658063565877535,landing,False,
1.2,FLT_004,2.21,0.48,8.0,0.412,0.354,54.87,56.53,55.56,54.66,52.033,99.8,0.3203,-2.7,0.3999999999999998,56.53,1.8700000000000045,0.6496391944916889,0.3500698015969788,landing,False,
1.3,FLT_004,2.98,0.52,8.0,-3.776,0.285,54.35,56.07,55.21,55.47,51.961,99.6,0.2839,7.7,0.40000000000000036,56.07,1.7199999999999989,0.05287711753015913,-0.36037080971107166,landing,False,
1.4,FLT_004,2.42,0.56,8.0,1.806,0.385,57.71,55.52,55.72,55.63,51.996,100.0,0.2902,-5.6000000000000005,0.40000000000000036,57.71,2.1899999999999977,1.8725654324197667,-0.22280871283250325,landing,False,
1.5,FLT_004,3.49,0.6,8.0,-0.948,0.482,56.48,54.78,55.57,55.18,51.933,100.0,0.2645,10.700000000000003,0.39999999999999925,56.48,1.6999999999999957,0.38899012676546835,-0.734309900677572,landing,False,
1.6,FLT_004,3.23,0.64,8.0,0.22,0.364,55.76,54.61,55.44,54.29,52.034,99.7,0.3589,-2.6000000000000023,0.40000000000000036,55.76,1.4699999999999989,-0.479039623159092,1.2115697540929886,landing,False,
1.7,FLT_004,3.57,0.68,8.0,2.401,0.328,55.7,55.86,54.59,54.64,51.856,99.6,0.3409,3.3999999999999986,0.40000000000000036,55.86,1.269999999999996,-0.3423699121080701,0.7909062231598141,landing,False,
1.8,FLT_004,2.47,0.72,8.0,4.13,0.271,56.18,54.42,54.0,54.77,52.043,99.6,0.2668,-10.999999999999996,0.39999999999999925,56.18,2.1799999999999997,0.07010624776193336,-0.7678485616421716,landing,False,
1.9,FLT_004,3.5,0.76,8.0,-2.391,0.326,54.94,54.73,54.13,53.9,51.946,99.3,0.4546,10.299999999999997,0.40000000000000036,54.94,1.0399999999999991,-1.4508840249695,2.573047386887335,landing,False,
2.0,FLT_004,4.86,0.8,8.0,-1.636,0.284,55.15,56.28,53.24,54.13,52.088,99.5,0.2333,13.600000000000003,0.40000000000000036,56.28,3.039999999999999,0.26595031480228565,-1.2698000912852552,landing,False,
2.1,FLT_004,4.18,0.84,8.0,-0.476,0.278,54.73,55.31,54.89,54.67,51.888,99.5,0.3545,-6.800000000000006,0.39999999999999925,55.31,0.6400000000000006,-0.9662792001151569,0.8115247125799065,landing,False,
2.2,FLT_004,4.88,0.88,8.0,0.331,0.35,54.35,53.16,53.25,53.7,51.947,100.0,0.2824,7.000000000000002,0.40000000000000036,54.35,1.1900000000000048,-1.9724324449018844,-0.44380232506604067,landing,False,
2.3,FLT_004,5.06,0.92,8.0,0.325,0.361,55.95,56.19,54.92,54.51,51.952,99.5,0.335,1.7999999999999972,0.40000000000000036,56.19,1.6799999999999997,0.26264691960847764,0.48518588801204704,landing,False,
2.4,FLT_004,5.47,0.96,8.0,2.464,0.266,55.73,55.92,55.86,55.69,52.058,99.5,0.3755,4.100000000000001,0.39999999999999925,55.92,0.23000000000000398,-0.07162226266696187,1.1631325577324425,landing,False,
2.5,FLT_004,5.53,1.0,8.0,-1.647,0.12,53.39,54.69,52.36,56.27,51.96,99.6,0.2849,0.600000000000005,0.40000000000000036,56.27,3.9100000000000037,0.36487994972408583,-0.4607398834728903,landing,False,
2.6,FLT_004,5.11,1.04,8.0,-1.077,0.197,53.49,54.09,56.75,56.29,51.991,99.6,0.313,-4.199999999999999,0.40000000000000036,56.75,3.259999999999998,0.9499751954166019,0.053455856046902984,landing,False,
2.7,FLT_004,5.55,1.08,8.0,3.59,0.256,56.89,55.88,54.92,55.73,52.13,99.5,0.3711,4.399999999999995,0.40000000000000036,56.89,1.9699999999999989,1.086060549622678,1.0938700935006442,landing,False,
2.8,FLT_004,5.24,1.12,8.0,2.207,0.159,52.38,55.51,54.95,54.79,51.847,99.4,0.3225,-3.099999999999996,0.40000000000000036,55.51,3.1299999999999955,-0.6747744579255881,0.1861821015909399,landing,False,
2.9,FLT_004,5.78,1.16,8.0,0.464,0.08,56.57,55.73,56.75,55.15,51.791,99.9,0.2359,5.4,0.39999999999999813,56.75,1.6000000000000014,0.9096272403812651,-1.3807852246697383,landing,False,
3.0,FLT_004,5.1,1.2,8.0,-2.241,0.228,55.86,55.97,54.07,54.56,52.01,99.2,0.2436,-6.800000000000006,0.40000000000000036,55.97,1.8999999999999986,-0.10611832682209121,-1.1880876185046458,landing,False,
3.1,FLT_004,5.39,1.24,8.0,1.622,0.169,52.59,53.72,54.2,55.5,51.873,99.2,0.3133,2.9000000000000004,0.40000000000000036,55.5,2.9099999999999966,-0.7123517187358279,0.09697048570617306,landing,False,
3.2,FLT_004,6.11,1.28,8.0,-5.046,0.253,55.56,55.79,52.27,55.38,52.067,99.6,0.251,7.200000000000006,0.40000000000000036,55.79,3.519999999999996,-0.31930566822334333,-1.0375074344635342,landing,False,
3.3,FLT_004,6.68,1.32,8.0,-2.162,0.173,54.48,55.37,56.08,54.36,51.931,99.4,0.3037,5.699999999999994,0.40000000000000036,56.08,1.7199999999999989,0.07290193810464664,-0.04983623845672177,landing,False,
3.4,FLT_004,6.85,1.36,8.0,0.219,0.029,54.8,55.55,55.05,54.06,51.907,99.7,0.3806,1.6999999999999993,0.40000000000000036,55.55,1.4899999999999949,-0.6436793246631743,1.353672096120853,landing,False,
3.5,FLT_004,6.87,1.4,8.0,0.359,0.028,56.76,54.21,53.1,56.32,52.025,99.6,0.3561,0.20000000000000462,0.39999999999999813,56.76,3.6599999999999966,1.0074933020575219,0.871996378346778,landing,False,
3.6,FLT_004,6.41,1.44,8.0,-1.277,359.873,54.44,55.33,54.61,54.38,51.964,99.9,0.4099,-4.6,0.40000000000000036,55.33,0.9499999999999957,-0.9519343091771946,1.7740775811010165,landing,False,
3.7,FLT_004,6.95,1.48,8.0,-0.434,359.856,55.61,53.94,54.76,54.81,51.991,99.5,0.2768,5.4,0.40000000000000036,55.61,1.6700000000000017,-0.5532805085661553,-0.6375817704929602,landing,False,
3.8,FLT_004,7.95,1.52,8.0,-2.39,359.868,54.45,55.64,54.95,56.39,52.032,98.9,0.2649,10.0,0.40000000000000036,56.39,1.9399999999999977,0.5318947329355226,-0.8372256398068182,landing,False,
3.9,FLT_004,8.62,1.56,8.0,-1.378,359.802,56.74,54.53,54.55,56.53,51.87,99.3,0.3341,6.69999999999999,0.40000000000000036,56.74,2.210000000000001,1.001419097177285,0.43139300054752694,landing,False,
4.0,FLT_004,7.95,1.6,8.0,-0.447,359.784,55.0,54.16,55.49,52.92,51.857,98.8,0.2864,-6.69999999999999,0.40000000000000036,55.49,2.5700000000000003,-0.753153446372084,-0.4501723744871106,landing,False,
4.1,FLT_004,7.42,1.64,8.0,0.275,359.869,55.31,53.57,55.01,54.64,51.826,99.6,0.2312,-5.3000000000000025,0.39999999999999813,55.31,1.740000000000002,-0.9853311906520844,-1.4328050766100136,landing,False,
4.2,FLT_004,9.42,1.68,8.0,-1.948,359.944,55.03,55.04,55.66,55.42,51.862,99.7,0.2582,20.0,0.40000000000000036,55.66,0.6299999999999955,-0.4803254361606054,-0.911990392183276,landing,False,
4.3,FLT_004,8.28,1.72,8.0,-1.599,359.882,54.15,56.09,54.83,56.61,51.902,99.4,0.3031,-11.400000000000006,0.40000000000000036,56.61,2.460000000000001,0.8664462375916205,-0.07682266360773722,landing,False,
4.4,FLT_004,9.17,1.76,8.0,-2.062,359.708,56.07,54.88,56.09,53.7,51.93,99.4,0.3233,8.900000000000006,0.40000000000000036,56.09,2.3900000000000006,0.11621072718927,0.2993128942857484,landing,False,
4.5,FLT_004,9.11,1.8,8.0,-1.449,359.762,54.54,54.32,54.13,54.04,51.873,99.7,0.3425,-0.600000000000005,0.40000000000000036,54.54,0.5,-2.018346985804529,0.653768163655143,landing,False,
4.6,FLT_004,9.47,1.84,8.0,-1.192,359.792,57.39,55.72,55.42,55.48,51.918,98.8,0.2845,3.600000000000012,0.40000000000000036,57.39,1.9699999999999989,1.8817312429516329,-0.44933029496901533,landing,False,
4.7,FLT_004,9.11,1.88,8.0,-2.023,359.99,57.42,53.77,53.24,55.28,51.937,98.9,0.3123,-3.600000000000012,0.39999999999999813,57.42,4.18,1.8321721592662086,0.08593279575916289,landing,False,
4.8,FLT_004,9.44,1.92,8.0,-4.17,359.854,54.69,54.28,54.26,54.13,51.906,99.4,0.3163,3.3000000000000007,0.40000000000000036,54.69,0.5599999999999952,-1.7123688447064083,0.16221448679688047,landing,False,
4.9,FLT_004,9.84,1.96,8.0,-1.122,359.891,54.1,55.3,55.83,53.82,51.883,99.2,0.2782,4.0000000000000036,0.40000000000000036,55.83,2.009999999999998,-0.23130354669566322,-0.580292721564093,landing,False,
5.0,FLT_004,9.52,2.0,8.0,-0.294,359.745,54.25,56.52,53.51,54.61,52.004,99.3,0.2578,-3.200000000000003,0.40000000000000036,56.52,3.010000000000005,0.7003070417909255,-0.9782545380479516,landing,False,
5.1,FLT_004,10.6,2.04,8.0,-1.557,359.832,54.27,55.31,54.03,55.32,51.973,99.2,0.2829,10.8,0.40000000000000036,55.32,1.2899999999999991,-0.8635716552420685,-0.453946642672777,landing,False,
5.2,FLT_004,10.45,2.08,8.0,0.27,359.82,55.52,54.46,55.32,54.51,51.851,99.2,0.3296,-1.5000000000000036,0.40000000000000036,55.52,1.0600000000000023,-0.5853339448732993,0.4897920062444723,landing,False,
5.3,FLT_004,11.04,2.12,8.0,-0.314,359.834,55.18,55.03,55.41,53.74,51.842,99.4,0.3423,5.899999999999999,0.40000000000000036,55.41,1.6699999999999946,-0.7018832334548781,0.7149141720827575,landing,False,
5.4,FLT_004,10.71,2.16,8.0,1.871,0.003,55.35,55.59,55.37,54.69,51.769,98.7,0.3052,-3.299999999999983,0.40000000000000036,55.59,0.9000000000000057,-0.47558588719218137,-0.06653911703766208,landing,False,
5.5,FLT_004,11.18,2.2,8.0,2.638,359.977,53.92,53.67,55.29,54.1,51.91,99.3,0.3387,4.699999999999989,0.40000000000000036,55.29,1.6199999999999974,-0.8514518270514921,0.6548007319398798,landing,False,
5.6,FLT_004,11.11,2.24,8.0,-1.142,359.934,56.45,56.61,54.25,54.55,51.872,99.1,0.1811,-0.7000000000000028,0.40000000000000036,56.61,2.3599999999999994,0.8946693830320183,-2.452049099350414,landing,False,
5.7,FLT_004,11.3,2.28,8.0,-3.18,359.903,55.72,54.74,55.38,56.02,51.884,99.3,0.2525,1.9000000000000128,0.3999999999999959,56.02,1.2800000000000011,0.057956671059809416,-1.00396910504816,landing,False,
5.8,FLT_004,10.9,2.32,8.0,-0.166,359.949,53.71,54.38,53.73,55.44,51.831,99.5,0.3109,-4.0000000000000036,0.40000000000000036,55.44,1.7299999999999969,-0.7254558411591274,0.14086936060120436,landing,False,
5.9,FLT_004,12.17,2.36,8.0,2.141,359.906,54.45,55.67,53.62,53.59,51.995,99.5,0.3581,12.699999999999996,0.40000000000000036,55.67,2.0799999999999983,-0.41531206224180467,1.043869388015968,landing,False,
6.0,FLT_004,11.94,2.4,8.0,2.67,359.845,56.35,56.05,55.18,54.67,51.88,99.6,0.3302,-2.3000000000000043,0.40000000000000036,56.35,1.6799999999999997,0.5235642950554006,0.46727440316050334,landing,False,
6.1,FLT_004,12.86,2.44,8.0,-1.603,359.826,55.41,54.97,54.33,55.68,51.867,99.5,0.3905,9.2,0.40000000000000036,55.68,1.3500000000000014,-0.3930810884514926,1.5936972874173463,landing,False,
6.2,FLT_004,12.71,2.48,8.0,-3.801,359.885,54.29,55.22,54.29,54.75,51.824,99.2,0.3561,-1.4999999999999858,0.40000000000000036,55.22,0.9299999999999997,-1.0018293560773026,0.9017805613808746,landing,False,
6.3,FLT_004,12.05,2.52,8.0,-0.358,359.847,54.77,55.17,54.64,53.77,51.859,99.3,0.2296,-6.600000000000001,0.40000000000000036,55.17,1.3999999999999986,-1.0354943607975722,-1.4919860656610768,landing,False,
6.4,FLT_004,12.04,2.56,8.0,2.257,359.861,55.54,55.03,55.25,55.75,51.991,99.1,0.337,-0.10000000000001563,0.40000000000000036,55.75,0.7199999999999989,-0.18640445949129592,0.5231923896755073,landing,False,
6.5,FLT_004,13.37,2.6,8.0,0.526,359.915,56.09,55.16,55.95,56.9,51.713,98.5,0.2522,13.3,0.40000000000000036,56.9,1.740000000000002,1.4930905504181204,-1.0704750311192224,landing,False,
6.6,FLT_004,13.28,2.64,8.0,-0.62,359.949,54.51,55.15,56.06,55.72,52.045,99.1,0.2472,-0.8999999999999986,0.40000000000000036,56.06,1.5500000000000043,0.2504838612086645,-1.1181042408724555,landing,False,
6.7,FLT_004,13.48,2.68,8.0,-0.8,359.956,52.59,56.25,53.78,55.65,51.886,98.2,0.232,2.0000000000000107,0.40000000000000036,56.25,3.6599999999999966,0.5165682280586438,-1.3421235328377412,landing,False,
6.8,FLT_004,14.72,2.72,8.0,1.765,359.922,55.7,54.89,56.07,55.15,51.862,99.0,0.2993,12.400000000000002,0.40000000000000036,56.07,1.1799999999999997,0.25651698632938025,-0.11170390853854419,landing,False,
6.9,FLT_004,14.1,2.76,8.0,-2.487,359.972,56.07,55.23,54.6,53.98,51.888,99.1,0.2848,-6.20000000000001,0.3999999999999959,56.07,2.0900000000000034,0.2279686117685126,-0.3463065909485176,landing,False,
7.0,FLT_004,14.5,2.8,8.0,-1.782,0.044,56.46,53.77,53.51,55.63,51.879,98.8,0.267,4.0000000000000036,0.40000000000000036,56.46,2.950000000000003,0.8029991024092458,-0.7307518690916411,landing,False,
7.1,FLT_004,14.46,2.84,8.0,0.645,359.933,55.08,54.31,55.45,56.41,51.808,99.1,0.3176,-0.3999999999999915,0.40000000000000036,56.41,2.0999999999999943,0.6982122447743576,0.32669420249222036,landing,False,
7.2,FLT_004,14.82,2.88,8.0,-2.73,0.012,55.19,53.33,55.76,53.91,51.81,98.9,0.3183,3.5999999999999943,0.40000000000000036,55.76,2.4299999999999997,-0.3363402149441667,0.32651306488140047,landing,False,
7.3,FLT_004,14.22,2.92,8.0,2.604,359.977,55.58,54.83,57.09,55.68,51.903,98.5,0.2865,-5.9999999999999964,0.40000000000000036,57.09,2.260000000000005,1.6997191445786668,-0.31484586567743966,landing,False,
7.4,FLT_004,14.52,2.96,8.0,-0.734,359.808,55.0,53.89,56.25,55.76,51.781,98.7,0.2864,2.9999999999999893,0.40000000000000036,56.25,2.3599999999999994,0.3916863657761356,-0.28672056208882357,landing,False,
7.5,FLT_004,15.9,3.0,8.0,0.681,359.712,54.37,55.56,54.41,52.57,51.722,98.4,0.2863,13.800000000000008,0.40000000000000036,55.56,2.990000000000002,-0.6487961394618462,-0.28950822229458456,landing,False,
7.6,FLT_004,15.09,3.04,8.0,-1.084,359.68,56.34,55.36,55.23,55.06,51.821,98.8,0.2592,-8.100000000000005,0.40000000000000036,56.34,1.2800000000000011,0.5700200912140352,-0.8399098546136615,landing,False,
7.7,FLT_004,16.07,3.08,8.0,1.759,359.84,54.99,55.27,54.41,53.02,51.852,99.1,0.3363,9.800000000000004,0.40000000000000036,55.27,2.25,-1.0546042797842923,0.8258651488510926,landing,False,
7.8,FLT_004,15.33,3.12,8.0,0.055,359.768,54.0,55.66,53.56,55.2,51.84,98.4,0.3154,-7.400000000000002,0.40000000000000036,55.66,2.0999999999999943,-0.44775336367382224,0.37785799766014005,landing,False,
7.9,FLT_004,15.52,3.16,8.0,3.287,359.657,55.33,56.4,55.13,53.47,51.944,99.3,0.3056,1.899999999999995,0.40000000000000036,56.4,2.9299999999999997,0.7374761170646252,0.138224007841262,landing,False,
8.0,FLT_004,16.63,3.2,8.0,0.7,359.705,56.47,54.28,55.37,54.72,51.715,99.1,0.3316,11.099999999999994,0.40000000000000036,56.47,2.1899999999999977,0.8271540394157595,0.6803079051712878,landing,False,
8.1,FLT_004,15.93,3.24,8.0,3.018,359.846,55.32,53.78,55.72,54.99,51.843,98.5,0.2838,-6.999999999999993,0.40000000000000036,55.72,1.9399999999999977,-0.3678344074552841,-0.3721930892327446,landing,False,
8.2,FLT_004,16.2,3.28,8.0,-4.086,359.997,54.28,56.69,53.34,55.38,51.884,98.3,0.2962,2.6999999999999957,0.3999999999999959,56.69,3.3499999999999943,1.1296323310324274,-0.1174939004852065,landing,False,
8.3,FLT_004,16.43,3.32,8.0,7.211,359.973,53.6,56.33,54.99,55.36,51.887,98.8,0.3522,2.3000000000000043,0.40000000000000036,56.33,2.729999999999997,0.5556683137378996,1.109986208629635,landing,False,
8.4,FLT_004,17.01,3.36,8.0,-3.236,359.844,55.69,55.93,54.96,56.03,51.811,99.1,0.1982,5.8000000000000185,0.40000000000000036,56.03,1.0700000000000003,0.07193535716839679,-2.1948120449542787,landing,False,
8.5,FLT_004,16.75,3.4,8.0,1.307,359.769,55.09,53.88,56.99,54.64,51.984,98.4,0.2302,-2.6000000000000156,0.40000000000000036,56.99,3.1099999999999994,1.5565926052007448,-1.433622282902251,landing,False,
8.6,FLT_004,17.31,3.44,8.0,1.834,359.722,55.81,56.86,55.21,52.75,52.047,99.2,0.3441,5.599999999999987,0.40000000000000036,56.86,4.109999999999999,1.298028422626478,1.1284717303444893,landing,False,
8.7,FLT_004,17.81,3.48,8.0,1.996,359.629,54.37,54.66,55.0,55.83,51.874,98.5,0.3153,5.0,0.40000000000000036,55.83,1.4600000000000009,-0.30023091478344993,0.4501811578747982,landing,False,
8.8,FLT_004,17.73,3.52,8.0,-2.097,359.668,56.08,54.49,53.85,54.49,51.794,98.7,0.2377,-0.799999999999983,0.40000000000000036,56.08,2.229999999999997,0.09698486257808729,-1.2998131709371963,landing,False,
8.9,FLT_004,17.73,3.56,8.0,-1.502,359.927,55.82,55.91,55.48,54.8,51.732,98.2,0.358,0.0,0.40000000000000036,55.91,1.1099999999999994,-0.14329951774993754,1.3950259549199249,landing,False,
9.0,FLT_004,19.28,3.6,8.0,-0.674,359.769,54.0,53.53,52.3,55.31,51.563,98.8,0.3448,15.500000000000007,0.40000000000000036,55.31,3.010000000000005,-1.0766020690590568,1.061613727343888,landing,False,
9.1,FLT_004,18.97,3.64,8.0,1.374,359.792,54.79,56.88,55.18,54.19,51.758,98.9,0.3062,-3.1000000000000227,0.40000000000000036,56.88,2.690000000000005,1.3246453249546735,0.1792562752634676,landing,False,
9.2,FLT_004,18.58,3.68,8.0,2.133,359.714,54.66,54.9,53.65,55.13,51.859,99.3,0.2416,-3.9000000000000057,0.40000000000000036,55.13,1.480000000000004,-1.3600158099926636,-1.262299851571809,landing,False,
9.3,FLT_004,17.29,3.72,8.0,-0.714,359.546,52.12,57.3,57.57,56.35,51.637,98.6,0.3351,-12.899999999999991,0.40000000000000036,57.57,5.450000000000003,2.239974797798902,0.8129157650246127,landing,False,
9.4,FLT_004,19.2,3.76,8.0,1.122,359.685,55.63,55.76,54.35,54.36,51.87,99.1,0.2953,19.1,0.3999999999999959,55.76,1.4099999999999966,-0.3951685712403748,-0.06059132188897355,landing,False,
9.5,FLT_004,18.9,3.8,8.0,-0.289,359.66,55.44,55.27,53.87,55.13,51.749,98.5,0.3209,-3.000000000000007,0.40000000000000036,55.44,1.5700000000000003,-0.9272898887929837,0.5245069542725052,landing,False,
9.6,FLT_004,18.89,3.84,8.0,-1.162,359.623,53.64,56.16,54.18,56.89,51.818,98.1,0.2483,-0.0999999999999801,0.40000000000000036,56.89,3.25,1.3315137720268504,-1.079876736887292,landing,False,
9.7,FLT_004,19.55,3.88,8.0,2.432,359.841,55.57,54.57,53.82,54.36,51.726,98.3,0.2675,6.600000000000001,0.40000000000000036,55.57,1.75,-0.7071807780950473,-0.631108614189481,landing,False,
9.8,FLT_004,19.74,3.92,8.0,-1.16,359.777,54.31,55.84,55.05,53.47,51.924,98.5,0.2049,1.8999999999999773,0.40000000000000036,55.84,2.3700000000000045,-0.31800677431838914,-1.898442276647878,landing,False,
9.9,FLT_004,20.1,3.96,8.0,0.832,359.87,56.05,53.77,55.47,52.96,51.834,98.7,0.2837,3.60000000000003,0.40000000000000036,56.05,3.0899999999999963,0.035834443461743054,-0.2169269203636962,landing,False,
10.0,FLT_004,20.23,4.0,8.0,2.108,359.844,54.94,54.09,56.4,56.1,51.901,97.7,0.3269,1.29999999999999,0.40000000000000036,56.4,2.309999999999995,0.6449811095455904,0.6782971059122324,landing,False,
10.1,FLT_004,21.08,4.04,8.0,2.788,359.84,55.43,54.37,55.03,54.63,51.582,98.5,0.2109,8.499999999999979,0.40000000000000036,55.43,1.0600000000000023,-1.0397808240453157,-1.720657994605976,landing,False,
10.2,FLT_004,20.41,4.08,8.0,-2.681,359.817,55.31,55.58,53.29,55.28,51.841,98.3,0.233,-6.6999999999999815,0.40000000000000036,55.58,2.289999999999999,-0.7828712509255307,-1.2099844674779823,landing,False,
10.3,FLT_004,21.47,4.12,8.0,1.541,359.923,56.18,56.17,55.68,55.05,51.913,98.4,0.2486,10.599999999999987,0.40000000000000036,56.18,1.1300000000000026,0.23645889092397576,-0.8538692524469803,landing,False,
10.4,FLT_004,21.35,4.16,8.0,-0.964,0.039,55.22,57.64,55.53,53.2,51.786,98.4,0.3193,-1.1999999999999744,0.40000000000000036,57.64,4.439999999999998,2.557261518782662,0.5975760999938866,landing,False,
10.5,FLT_004,21.48,4.2,8.0,-0.476,0.177,54.8,55.01,53.97,57.12,51.628,97.7,0.2693,1.29999999999999,0.40000000000000036,57.12,3.1499999999999986,1.6245901136539553,-0.4063484259123634,landing,False,
10.6,FLT_004,21.55,4.24,8.0,-2.421,0.328,55.89,56.25,56.05,53.86,51.797,98.6,0.3309,0.7000000000000028,0.40000000000000036,56.25,2.3900000000000006,0.2197290217761092,0.8496373144857193,landing,False,
10.7,FLT_004,21.98,4.28,8.0,3.801,0.549,55.1,55.19,53.77,56.08,51.836,98.8,0.2783,4.299999999999997,0.40000000000000036,56.08,2.309999999999995,-0.06101278031193552,-0.3087013789388715,landing,False,
10.8,FLT_004,21.41,4.32,8.0,-1.067,0.501,54.51,54.12,55.1,54.42,51.751,97.8,0.3433,-5.700000000000003,0.40000000000000036,55.1,0.980000000000004,-1.6316861381961112,1.089765406963382,landing,False,
10.9,FLT_004,21.91,4.36,8.0,-1.543,0.504,53.67,54.43,52.59,55.3,52.125,97.9,0.2952,5.0,0.40000000000000036,55.3,2.7099999999999937,-1.2811677145784104,0.07581526451007092,landing,False,
11.0,FLT_004,21.3,4.4,8.0,-1.543,0.543,55.3,55.2,55.15,54.16,51.665,98.0,0.2235,-6.099999999999994,0.40000000000000036,55.3,1.1400000000000006,-1.2298465044013966,-1.443336119626477,landing,False,
11.1,FLT_004,23.03,4.44,8.0,-1.88,0.652,53.61,54.94,53.89,56.27,51.772,98.2,0.2011,17.300000000000004,0.40000000000000036,56.27,2.6600000000000037,0.2780450901089111,-1.8775191097098864,landing,False,
11.2,FLT_004,22.61,4.48,8.0,0.576,0.501,54.27,55.05,53.66,54.23,51.682,97.9,0.2785,-4.200000000000017,0.40000000000000036,55.05,1.3900000000000006,-1.6283511006473743,-0.13187408963924915,landing,False,
11.3,FLT_004,23.78,4.52,8.0,0.501,0.485,54.79,53.88,54.49,54.21,51.655,97.9,0.4466,11.700000000000017,0.3999999999999915,54.79,0.9099999999999966,-1.982147725483859,3.229030422377044,landing,False,
11.4,FLT_004,23.3,4.56,8.0,0.145,0.405,55.92,54.42,55.41,55.3,51.829,98.2,0.3162,-4.800000000000004,0.40000000000000036,55.92,1.5,-0.25534139327694644,0.5757653350561576,landing,False,
11.5,FLT_004,23.01,4.6,8.0,-0.262,0.467,55.78,56.52,54.67,55.93,51.842,98.4,0.2733,-2.8999999999999915,0.40000000000000036,56.52,1.8500000000000014,0.6860724825270332,-0.3173857172536577,landing,False,
11.6,FLT_004,23.47,4.64,8.0,0.736,0.399,54.16,52.59,53.84,55.74,51.631,98.7,0.2991,4.599999999999973,0.40000000000000036,55.74,3.1499999999999986,-0.5149188391186699,0.19610272858563332,landing,False,
11.7,FLT_004,23.56,4.68,8.0,-0.282,0.488,55.51,52.67,55.97,54.83,51.939,98.2,0.2572,0.8999999999999986,0.40000000000000036,55.97,3.299999999999997,-0.1498161010970495,-0.6942741899379835,landing,False,
11.8,FLT_004,24.15,4.72,8.0,-0.013,0.421,55.35,53.7,55.7,56.81,51.689,98.4,0.4004,5.899999999999999,0.40000000000000036,56.81,3.1099999999999994,1.1152497196317657,2.1637985719199233,landing,False,
11.9,FLT_004,23.3,4.76,8.0,0.177,0.435,55.64,54.35,55.19,55.81,51.657,98.0,0.28,-8.499999999999979,0.40000000000000036,55.81,1.4600000000000009,-0.4067643568103256,-0.24223165698323892,landing,False,
12.0,FLT_004,23.95,4.8,8.0,-3.946,0.326,54.85,54.62,54.04,53.19,51.708,98.1,0.2931,6.499999999999986,0.40000000000000036,54.85,1.6600000000000037,-1.7702913213450113,0.009260969154343272,landing,False,
12.1,FLT_004,24.19,4.84,8.0,-1.029,0.231,54.67,56.31,55.59,55.83,51.765,98.0,0.2448,2.40000000000002,0.40000000000000036,56.31,1.6400000000000006,0.39791812211748445,-0.9238569387409348,landing,False,
12.2,FLT_004,24.33,4.88,8.0,-1.726,0.221,56.08,54.61,55.71,56.2,51.579,98.3,0.2463,1.3999999999999702,0.40000000000000036,56.2,1.5900000000000034,0.22181931323715776,-0.8612085460617399,landing,False,
12.3,FLT_004,24.7,4.92,8.0,3.742,0.394,52.89,55.12,54.21,55.3,51.687,98.4,0.2879,3.70000000000001,0.40000000000000036,55.3,2.4099999999999966,-1.0772009304948003,-0.03707256123311852,landing,False,
12.4,FLT_004,25.56,4.96,8.0,-0.83,0.514,55.14,54.29,55.64,55.81,51.8,97.8,0.385,8.599999999999994,0.40000000000000036,55.81,1.5200000000000031,-0.295706908251916,1.7864215594801487,landing,False,
12.5,FLT_004,24.08,5.0,8.0,-1.57,0.627,54.0,56.05,55.44,54.95,51.762,97.8,0.2406,-14.800000000000004,0.40000000000000036,56.05,2.049999999999997,0.0514854128831602,-0.9531154780117704,landing,False,
12.6,FLT_004,24.56,5.04,8.0,-1.405,0.629,56.08,55.91,56.1,56.32,51.597,97.6,0.3303,4.800000000000004,0.40000000000000036,56.32,0.4100000000000037,0.46108148335036087,0.7208201024427044,landing,False,
12.7,FLT_004,25.82,5.08,8.0,-1.591,0.606,54.38,55.73,57.75,55.09,51.828,98.2,0.4004,12.600000000000016,0.40000000000000036,57.75,3.3699999999999974,2.4232774100179295,1.956388364942718,landing,False,
12.8,FLT_004,25.3,5.12,8.0,1.165,0.716,52.87,55.99,55.72,54.98,51.719,97.9,0.2648,-5.199999999999996,0.40000000000000036,55.99,3.1200000000000045,-0.11805556747817875,-0.5069455088375584,landing,False,
12.9,FLT_004,24.97,5.16,8.0,3.272,0.8,55.64,53.96,53.2,54.99,51.72,97.4,0.4261,-3.3000000000000185,0.40000000000000036,55.64,2.4399999999999977,-0.6003896225263763,2.2680695459513855,landing,False,
13.0,FLT_004,25.74,5.2,8.0,-0.308,0.815,55.33,55.02,54.88,53.01,51.738,98.1,0.2994,7.699999999999996,0.40000000000000036,55.33,2.3200000000000003,-1.0072499283003404,0.08879175053861824,landing,False,
13.1,FLT_004,26.9,5.24,8.0,1.861,0.821,54.97,55.03,55.3,53.56,51.697,97.6,0.2805,11.600000000000001,0.40000000000000036,55.3,1.7399999999999949,-1.028820299334313,-0.23815478779507948,landing,False,
13.2,FLT_004,26.14,5.28,8.0,-1.407,1.006,56.04,55.96,54.58,56.78,51.598,98.3,0.2954,-7.59999999999998,0.40000000000000036,56.78,2.200000000000003,1.0648965032458912,0.020760594121427223,landing,False,
13.3,FLT_004,26.46,5.32,8.0,-2.316,0.932,54.65,55.8,53.77,53.98,51.598,98.3,0.3261,3.200000000000003,0.40000000000000036,55.8,2.029999999999994,-0.3066844485380373,0.5668510834633567,landing,False,
13.4,FLT_004,25.98,5.36,8.0,3.032,0.995,54.78,56.34,55.28,55.78,51.645,98.2,0.4031,-4.800000000000004,0.40000000000000036,56.34,1.5600000000000023,0.4481855632354315,1.830118797185329,landing,False,
13.5,FLT_004,27.28,5.4,8.0,-1.516,1.068,54.78,55.46,56.41,54.44,51.705,97.8,0.4065,13.000000000000007,0.40000000000000036,56.41,1.9699999999999989,0.5728025732042724,1.791687343811182,landing,False,
13.6,FLT_004,27.08,5.44,8.0,-0.618,1.109,56.52,54.61,54.59,54.32,51.789,97.9,0.2804,-2.0000000000000284,0.40000000000000036,56.52,2.200000000000003,0.7479038847300877,-0.3358465907567621,landing,False,
13.7,FLT_004,27.39,5.48,8.0,-0.495,1.026,54.97,54.6,54.94,53.57,51.702,97.6,0.2291,3.1000000000000227,0.40000000000000036,54.97,1.3999999999999986,-1.444069186201612,-1.1678434855871875,landing,False,
13.8,FLT_004,27.97,5.52,8.0,-0.552,1.087,55.28,55.13,56.07,55.45,51.637,97.9,0.2778,5.799999999999983,0.3999999999999915,56.07,0.9399999999999977,0.11783530872015399,-0.3630756082608909,landing,False,
13.9,FLT_004,27.5,5.56,8.0,1.947,1.087,54.92,53.67,55.34,54.98,51.641,97.1,0.2501,-4.699999999999989,0.40000000000000036,55.34,1.6700000000000017,-0.8949178222997394,-0.8013443716157296,landing,False,
14.0,FLT_004,28.39,5.6,8.0,-0.173,1.1,54.87,55.65,56.12,56.12,51.591,98.3,0.2453,8.900000000000006,0.40000000000000036,56.12,1.25,0.1821149353008203,-0.8489485913435694,landing,False,
14.1,FLT_004,28.99,5.64,8.0,0.824,1.222,55.86,54.92,53.6,54.51,51.748,97.8,0.2491,5.999999999999979,0.40000000000000036,55.86,2.259999999999998,-0.16089650977625627,-0.7601461872166422,landing,False,
14.2,FLT_004,28.46,5.68,8.0,1.961,1.251,54.23,55.54,55.12,56.81,51.656,97.5,0.2821,-5.299999999999976,0.40000000000000036,56.81,2.5800000000000054,1.1641886675656465,-0.21464975658666333,landing,False,
14.3,FLT_004,28.71,5.72,8.0,0.57,1.224,56.16,55.57,53.99,54.23,51.712,97.8,0.3165,2.5,0.40000000000000036,56.16,2.1699999999999946,0.2800871245131251,0.38236268073708807,landing,False,
14.4,FLT_004,29.47,5.76,8.0,2.835,1.339,53.67,55.35,53.75,55.49,51.664,97.6,0.2632,7.59999999999998,0.40000000000000036,55.49,1.8200000000000003,-0.7327060519813837,-0.5214015812357842,landing,False,
14.5,FLT_004,29.17,5.8,8.0,-0.387,1.394,53.64,56.03,53.53,53.33,51.731,97.1,0.2898,-2.9999999999999716,0.40000000000000036,56.03,2.700000000000003,0.07171744212262829,-0.054876073057637885,landing,False,
14.6,FLT_004,28.77,5.84,8.0,-2.482,1.215,54.76,56.03,54.45,53.33,51.593,97.6,0.301,-4.000000000000021,0.40000000000000036,56.03,2.700000000000003,0.10009814269047862,0.12016431990107229,landing,False,
14.7,FLT_004,30.04,5.88,8.0,0.238,1.281,54.48,55.43,54.39,53.0,51.699,97.6,0.2683,12.699999999999996,0.40000000000000036,55.43,2.4299999999999997,-0.8312478232988536,-0.44538386218526327,climb,False,
14.8,FLT_004,29.93,5.92,8.0,1.264,1.199,54.04,55.73,56.8,54.63,51.603,97.7,0.3142,-1.0999999999999943,0.40000000000000036,56.8,2.759999999999998,1.2540575720230904,0.31794120177077706,landing,False,
14.9,FLT_004,28.96,5.96,8.0,2.769,1.118,54.39,54.33,54.68,55.96,51.769,97.6,0.2937,-9.699999999999989,0.40000000000000036,55.96,1.6300000000000026,-0.03160006080332337,-0.048733531443676675,landing,False,
15.0,FLT_004,30.73,6.0,8.0,-5.744,1.015,55.91,56.0,55.91,53.93,51.601,97.8,0.3241,17.699999999999996,0.40000000000000036,56.0,2.0700000000000003,0.04221268660495616,0.49124230821993087,climb,False,
15.1,FLT_004,30.26,6.04,8.0,0.256,1.124,54.05,56.54,53.23,54.9,51.627,97.8,0.2478,-4.699999999999989,0.40000000000000036,56.54,3.3100000000000023,0.8398813241375335,-0.8889859796432709,descent,False,
15.2,FLT_004,30.09,6.08,8.0,-0.388,1.153,53.87,54.62,54.37,53.79,51.671,97.6,0.3126,-1.700000000000017,0.40000000000000036,54.62,0.8299999999999983,-2.007322202486282,0.25343419666429734,descent,False,
15.3,FLT_004,29.85,6.12,8.0,-0.839,1.295,54.88,55.57,55.08,54.9,51.709,97.8,0.2798,-2.3999999999999844,0.40000000000000036,55.57,0.6899999999999977,-0.5810352709309796,-0.3597002909222235,landing,False,
15.4,FLT_004,30.96,6.16,8.0,-0.299,1.202,55.73,55.2,54.6,56.21,51.689,97.4,0.2986,11.099999999999994,0.40000000000000036,56.21,1.6099999999999994,0.4343377923210883,-0.006154533416756519,climb,False,
15.5,FLT_004,31.19,6.2,8.0,-2.133,1.232,54.67,56.77,54.91,56.19,51.838,97.4,0.2457,2.3000000000000043,0.40000000000000036,56.77,2.1000000000000014,1.3538549400548114,-0.9657470854640674,climb,False,
15.6,FLT_004,31.18,6.24,8.0,0.202,1.229,53.8,55.19,54.96,55.92,51.689,97.1,0.3887,-0.10000000000001563,0.40000000000000036,55.92,2.1200000000000045,-0.0019344371782284869,1.59274479799291,cruise,False,
15.7,FLT_004,31.17,6.28,8.0,-1.253,1.391,53.76,56.61,54.59,55.02,51.729,97.4,0.2751,-0.0999999999999801,0.40000000000000036,56.61,2.8500000000000014,1.0806415877331226,-0.4370174096283484,cruise,False,
15.8,FLT_004,31.22,6.32,8.0,-4.324,1.295,55.62,52.76,55.61,56.1,51.543,97.1,0.3504,0.4999999999999716,0.40000000000000036,56.1,3.3400000000000034,0.24043798358088225,0.9041573029611666,cruise,False,
15.9,FLT_004,32.7,6.36,8.0,-0.274,1.352,54.98,55.86,55.5,55.94,51.731,97.3,0.3017,14.80000000000004,0.40000000000000036,55.94,0.9600000000000009,-0.04038305432859488,0.033419148285242936,climb,False,
16.0,FLT_004,32.18,6.4,8.0,-0.469,1.339,55.14,55.95,54.74,55.2,51.528,97.1,0.3853,-5.200000000000031,0.40000000000000036,55.95,1.2100000000000009,-0.04587899771802935,1.462023563529687,descent,False,
16.1,FLT_004,32.41,6.44,8.0,-0.799,1.41,55.63,53.42,55.4,54.95,51.689,97.9,0.3304,2.2999999999999687,0.40000000000000036,55.63,2.210000000000001,-0.5561068632886033,0.4549311785998229,climb,False,
16.2,FLT_004,33.28,6.48,8.0,-0.426,1.378,55.3,54.45,53.07,54.95,51.666,97.3,0.3456,8.700000000000045,0.40000000000000036,55.3,2.229999999999997,-1.1251653244633368,0.7077613877217759,climb,False,
16.3,FLT_004,32.77,6.52,8.0,-2.189,1.334,55.47,54.61,55.45,53.97,51.895,97.4,0.2806,-5.09999999999998,0.3999999999999915,55.47,1.5,-0.8925348474638062,-0.45409029432112524,descent,False,
16.4,FLT_004,32.37,6.56,8.0,2.412,1.266,54.19,55.37,55.13,55.21,51.847,97.6,0.3212,-4.000000000000057,0.40000000000000036,55.37,1.1799999999999997,-1.035629095930982,0.3428743253396527,descent,False,
16.5,FLT_004,33.03,6.6,8.0,-3.049,1.217,54.75,53.6,55.58,54.57,51.627,97.4,0.3965,6.600000000000037,0.40000000000000036,55.58,1.9799999999999969,-0.645474451708541,1.7261641594838193,climb,False,
16.6,FLT_004,33.52,6.64,8.0,-2.292,1.195,52.36,54.61,55.85,53.57,51.651,97.5,0.3065,4.90000000000002,0.40000000000000036,55.85,3.490000000000002,-0.18298821379690394,0.0022569610338873543,climb,False,
16.7,FLT_004,34.23,6.68,8.0,-0.793,1.104,53.81,55.37,55.61,55.9,51.607,97.2,0.2219,7.0999999999999375,0.40000000000000036,55.9,2.0899999999999963,-0.09408037696112395,-1.5750079350029405,climb,False,
16.8,FLT_004,33.03,6.72,8.0,-0.229,1.063,54.96,53.89,54.08,56.69,51.619,97.4,0.252,-11.999999999999957,0.40000000000000036,56.69,2.799999999999997,1.2838257462897735,-0.9766072595882824,descent,False,
16.9,FLT_004,33.75,6.76,8.0,-5.553,0.963,55.59,56.51,54.7,53.79,51.462,97.5,0.2535,7.199999999999989,0.40000000000000036,56.51,2.719999999999999,0.9382254409054943,-0.9308690524268775,climb,False,
17.0,FLT_004,33.94,6.8,8.0,0.218,1.051,55.1,54.21,55.77,57.78,51.56,97.4,0.2943,1.8999999999999773,0.40000000000000036,57.78,3.5700000000000003,2.8687660389719922,-0.15112138148545484,climb,False,
17.1,FLT_004,34.7,6.84,8.0,4.436,0.977,54.98,55.44,54.01,53.91,51.552,96.9,0.2478,7.600000000000051,0.40000000000000036,55.44,1.5300000000000011,-0.9208157611243888,-1.0428626274495834,climb,False,
17.2,FLT_004,34.68,6.88,8.0,-0.314,0.984,54.71,56.63,55.33,55.0,51.621,97.6,0.3402,-0.20000000000003126,0.40000000000000036,56.63,1.9200000000000017,0.9879403381706359,0.6953722123169942,cruise,False,
17.3,FLT_004,34.95,6.92,8.0,-1.882,1.136,55.1,53.62,56.14,55.81,51.532,96.9,0.1748,2.7000000000000313,0.40000000000000036,56.14,2.520000000000003,0.17513192280880516,-2.312433073780689,climb,False,
17.4,FLT_004,33.9,6.96,8.0,5.852,1.156,54.1,55.14,54.77,55.87,51.687,97.4,0.3694,-10.500000000000043,0.40000000000000036,55.87,1.769999999999996,-0.2672688203761143,1.2443132984282812,descent,False,
17.5,FLT_004,34.65,7.0,8.0,-0.687,1.122,57.31,54.44,55.57,55.61,51.602,97.1,0.2856,7.5,0.40000000000000036,57.31,2.8700000000000045,1.9580604746133552,-0.3131706285535234,climb,False,
17.6,FLT_004,35.4,7.04,8.0,-1.7,1.206,54.82,54.47,55.43,54.66,51.55,98.0,0.2504,7.5,0.40000000000000036,55.43,0.9600000000000009,-0.949280252447474,-0.9311920426215485,climb,False,
17.7,FLT_004,35.65,7.08,8.0,2.356,0.981,55.22,56.2,54.11,54.43,51.566,97.5,0.2353,2.5,0.40000000000000036,56.2,2.0900000000000034,0.3187809674675483,-1.1742512775460758,climb,False,
17.8,FLT_004,35.67,7.12,8.0,-2.397,1.002,55.48,55.24,54.62,55.37,51.556,97.6,0.2598,0.20000000000003126,0.40000000000000036,55.48,0.8599999999999994,-0.8665276892906532,-0.7094229621144279,cruise,False,
17.9,FLT_004,36.56,7.16,8.0,1.14,0.886,56.57,55.69,55.05,55.36,51.466,97.3,0.2683,8.900000000000006,0.40000000000000036,56.57,1.5200000000000031,0.9142528940909342,-0.521404807828102,climb,False,
18.0,FLT_004,36.2,7.2,8.0,-1.745,0.649,53.25,54.3,55.67,55.38,51.538,96.9,0.2956,-3.5999999999999943,0.40000000000000036,55.67,2.4200000000000017,-0.5952304824625084,0.027386029593743734,descent,False,
18.1,FLT_004,35.46,7.24,8.0,1.422,0.699,55.5,55.17,54.59,56.53,51.52,97.1,0.3053,-7.40000000000002,0.40000000000000036,56.53,1.9399999999999977,0.8109496112005895,0.21197916417046872,descent,False,
18.2,FLT_004,36.58,7.28,8.0,-3.853,0.866,55.63,54.81,57.95,55.36,51.649,97.0,0.3306,11.199999999999974,0.40000000000000036,57.95,3.1400000000000006,2.9215670276706818,0.7016238797828,climb,False,
18.3,FLT_004,36.28,7.32,8.0,-1.797,0.966,56.62,54.66,57.11,55.5,51.508,96.9,0.2822,-2.9999999999999716,0.40000000000000036,57.11,2.450000000000003,1.5367644915986067,-0.24733294040479786,descent,False,
18.4,FLT_004,37.0,7.36,8.0,1.544,0.835,55.42,55.44,54.73,57.06,51.552,97.2,0.2853,7.199999999999989,0.40000000000000036,57.06,2.3300000000000054,1.4106529328302573,-0.14542174585009046,climb,False,
18.5,FLT_004,36.1,7.4,8.0,2.691,0.789,56.61,52.29,55.81,54.7,51.644,97.3,0.2787,-8.999999999999986,0.40000000000000036,56.61,4.32,0.7310492963748655,-0.24583909287003533,descent,False,
18.6,FLT_004,36.78,7.44,8.0,0.992,0.857,53.82,53.59,56.28,54.84,51.613,97.7,0.2269,6.799999999999997,0.40000000000000036,56.28,2.6899999999999977,0.24860930652177635,-1.3591081190008611,climb,False,
18.7,FLT_004,38.11,7.48,8.0,2.109,0.826,53.89,53.43,53.25,54.84,51.649,96.8,0.3654,13.299999999999983,0.40000000000000036,54.84,1.5900000000000034,-1.8804541702563835,1.6170430414183146,climb,False,
18.8,FLT_004,37.93,7.52,8.0,-2.664,0.925,55.37,54.75,53.81,55.38,51.574,96.4,0.3106,-1.7999999999999972,0.3999999999999915,55.38,1.5700000000000003,-1.0486668062355176,0.406524455110886,descent,False,
18.9,FLT_004,38.5,7.56,8.0,0.823,1.077,55.68,52.9,55.22,54.5,51.571,97.0,0.3386,5.700000000000003,0.40000000000000036,55.68,2.780000000000001,-0.6252243945905855,0.9771929631343722,climb,False,
19.0,FLT_004,37.92,7.6,8.0,1.934,1.308,55.21,55.06,55.45,53.94,51.713,97.5,0.2839,-5.799999999999983,0.40000000000000036,55.45,1.5100000000000051,-0.9362626651182199,-0.23337323443847657,descent,False,
19.1,FLT_004,38.91,7.64,8.0,1.096,1.223,55.72,55.98,55.24,53.72,51.358,97.2,0.3449,9.899999999999949,0.40000000000000036,55.98,2.259999999999998,-0.1648202882571383,1.0661263996471286,climb,False,
19.2,FLT_004,38.09,7.68,8.0,0.157,1.088,54.78,55.61,54.91,54.09,51.661,96.9,0.269,-8.199999999999932,0.40000000000000036,55.61,1.519999999999996,-0.6758889702468928,-0.5954336478768694,descent,False,
19.3,FLT_004,38.78,7.72,8.0,-1.723,1.196,53.76,55.02,55.89,53.82,51.624,96.8,0.3316,6.899999999999977,0.40000000000000036,55.89,2.1300000000000026,-0.2551389141607582,0.767589225754409,climb,False,
19.4,FLT_004,38.97,7.76,8.0,3.97,1.081,55.43,55.13,54.12,55.08,51.793,97.1,0.3217,1.8999999999999773,0.40000000000000036,55.43,1.3100000000000023,-0.9295047577132394,0.5271997901367714,climb,False,
19.5,FLT_004,39.77,7.8,8.0,-0.757,1.125,54.97,55.13,53.59,53.8,51.55,96.6,0.239,8.000000000000043,0.40000000000000036,55.13,1.5399999999999991,-1.3196811822677377,-1.241431909104597,climb,False,
19.6,FLT_004,38.04,7.84,8.0,-1.318,1.182,57.25,56.02,54.47,54.32,51.608,97.1,0.3693,-17.30000000000004,0.40000000000000036,57.25,2.9299999999999997,1.6565959665200625,1.5007124833586023,descent,False,
19.7,FLT_004,39.57,7.88,8.0,-1.473,1.018,54.68,56.08,54.94,55.12,51.511,96.7,0.2819,15.300000000000011,0.40000000000000036,56.08,1.3999999999999986,-0.0019793710376931214,-0.3448994283142588,climb,False,
19.8,FLT_004,40.16,7.92,8.0,0.242,1.119,55.18,54.45,56.21,54.48,51.532,96.6,0.373,5.899999999999963,0.40000000000000036,56.21,1.759999999999998,0.20058704926073587,1.5166412219005356,climb,False,
19.9,FLT_004,39.29,7.96,8.0,-0.816,1.18,53.99,55.77,54.89,56.31,51.485,96.8,0.2606,-8.699999999999974,0.40000000000000036,56.31,2.3200000000000003,0.3331540118017774,-0.7816734500416864,descent,False,
20.0,FLT_004,39.75,8.0,8.0,1.907,1.015,54.55,54.43,53.95,55.38,51.568,97.0,0.2747,4.6000000000000085,0.40000000000000036,55.38,1.4299999999999997,-0.9671848314368421,-0.4728361553844309,climb,False,
20.1,FLT_004,39.47,8.04,8.0,-2.41,0.913,55.94,53.92,55.49,55.58,51.428,96.7,0.3468,-2.8000000000000114,0.3999999999999915,55.94,2.019999999999996,-0.15931615579405456,0.9653972871302873,descent,False,
20.2,FLT_004,40.65,8.08,8.0,4.011,1.097,54.87,54.93,55.39,55.03,51.455,96.5,0.2689,11.799999999999997,0.40000000000000924,55.39,0.5200000000000031,-0.9960095923018432,-0.6131619989312379,climb,False,
20.3,FLT_004,40.4,8.12,8.0,4.123,1.103,54.25,53.47,56.4,54.89,51.583,96.2,0.2555,-2.5,0.3999999999999915,56.4,2.9299999999999997,0.4657489543894702,-0.8717154995690191,descent,False,
20.4,FLT_004,40.63,8.16,8.0,2.285,1.242,55.3,54.64,54.86,55.24,51.449,96.8,0.3107,2.30000000000004,0.40000000000000924,55.3,0.6599999999999966,-1.1153837816099195,0.24506997579504844,climb,False,
20.5,FLT_004,41.68,8.2,8.0,-1.843,1.232,54.01,54.72,55.53,53.94,51.663,96.6,0.4147,10.499999999999972,0.3999999999999915,55.53,1.5900000000000034,-0.7482460920068951,2.1972450653999633,climb,False,
20.6,FLT_004,41.32,8.24,8.0,0.486,1.283,55.38,55.65,55.81,55.44,51.552,96.7,0.3106,-3.5999999999999943,0.40000000000000924,55.81,0.4299999999999997,-0.3349065643540638,0.2039486915049041,descent,False,
20.7,FLT_004,40.47,8.28,8.0,1.275,1.196,56.41,54.33,54.17,55.45,51.496,96.7,0.3192,-8.500000000000014,0.3999999999999915,56.41,2.239999999999995,0.5507065039200149,0.35955019639315866,descent,False,
20.8,FLT_004,41.75,8.32,8.0,1.532,1.114,54.53,54.34,55.03,54.26,51.501,97.0,0.278,12.800000000000011,0.40000000000000924,55.03,0.7700000000000031,-1.4142007156931606,-0.4440783751075849,climb,False,
20.9,FLT_004,41.33,8.36,8.0,-3.597,0.996,55.17,56.1,54.53,55.79,51.512,97.0,0.3965,-4.200000000000017,0.3999999999999915,56.1,1.5700000000000003,0.11961944636769861,1.8519948001111948,descent,False,
21.0,FLT_004,41.54,8.4,8.0,-0.851,1.043,55.08,55.92,56.52,55.19,51.452,96.8,0.295,2.1000000000000085,0.40000000000000924,56.52,1.4400000000000048,0.703491954087438,-0.10010348456209237,climb,False,
21.1,FLT_004,41.61,8.44,8.0,-2.132,1.093,55.2,55.12,55.77,54.67,51.672,96.6,0.2591,0.7000000000000028,0.3999999999999915,55.77,1.1000000000000014,-0.37406715783206346,-0.7915250532476368,climb,False,
21.2,FLT_004,42.45,8.48,8.0,2.034,1.108,57.65,55.0,55.16,55.15,51.623,97.1,0.2964,8.400000000000034,0.40000000000000924,57.65,2.6499999999999986,2.165098666709991,-0.023614647199246504,climb,False,
21.3,FLT_004,42.32,8.52,8.0,0.744,1.196,53.65,53.85,55.59,54.32,51.511,96.4,0.3509,-1.3000000000000256,0.3999999999999915,55.59,1.9400000000000048,-0.6771524863242876,1.041027358068923,descent,False,
21.4,FLT_004,42.57,8.56,8.0,0.948,1.312,55.82,52.81,56.69,56.32,51.476,96.7,0.3286,2.5,0.40000000000000924,56.69,3.8799999999999955,0.8079358707083667,0.5900754889475687,climb,False,
21.5,FLT_004,43.31,8.6,8.0,-4.308,1.41,54.17,56.7,55.54,53.73,51.533,96.7,0.3,7.40000000000002,0.3999999999999915,56.7,2.970000000000006,0.7899954935396394,0.05860968240678233,climb,False,
21.6,FLT_004,43.76,8.64,8.0,-1.547,1.37,55.0,54.0,54.48,53.61,51.539,96.4,0.3025,4.499999999999957,0.40000000000000924,55.0,1.3900000000000006,-1.5049055020904072,0.11245148779457637,climb,False,
21.7,FLT_004,42.69,8.68,8.0,0.489,1.48,57.03,54.03,55.16,54.56,51.507,96.8,0.3062,-10.700000000000003,0.3999999999999915,57.03,3.0,1.1941889217586106,0.1585472015740268,descent,False,
21.8,FLT_004,42.33,8.72,8.0,1.037,1.556,54.69,54.73,54.89,53.89,51.541,96.5,0.2947,-3.5999999999999943,0.40000000000000924,54.89,1.0,-1.5791459050423122,-0.10711111698472058,descent,False,
21.9,FLT_004,43.96,8.76,8.0,0.041,1.466,53.87,55.06,53.63,54.88,51.393,96.5,0.2582,16.300000000000026,0.3999999999999915,55.06,1.4299999999999997,-1.2996786344224418,-0.9007299415842505,climb,False,
22.0,FLT_004,43.13,8.8,8.0,-0.262,1.354,54.22,53.07,55.59,55.65,51.45,96.9,0.2916,-8.299999999999983,0.40000000000000924,55.65,2.5799999999999983,-0.51060506851416,-0.17537137191235513,descent,False,
22.1,FLT_004,43.52,8.84,8.0,0.669,1.43,53.1,54.11,54.68,56.35,51.405,96.4,0.3872,3.9000000000000057,0.3999999999999915,56.35,3.25,0.4143256055272873,1.7975393960788069,climb,False,
22.2,FLT_004,44.16,8.88,8.0,-0.094,1.425,56.38,54.34,55.75,54.54,51.358,96.5,0.3354,6.399999999999935,0.40000000000000924,56.38,2.039999999999999,0.4639619256792964,0.7016352972759896,climb,False,
22.3,FLT_004,45.02,8.92,8.0,1.242,1.582,53.68,56.96,53.68,55.63,51.407,96.6,0.3095,8.600000000000065,0.3999999999999915,56.96,3.280000000000001,1.2150698884256501,0.10214206107287248,climb,False,
22.4,FLT_004,45.43,8.96,8.0,4.259,1.578,55.27,53.35,54.04,55.71,51.692,96.9,0.347,4.099999999999966,0.40000000000000924,55.71,2.3599999999999994,-0.46152040804375927,0.9912636826403277,climb,False,
22.5,FLT_004,44.7,9.0,8.0,2.861,1.539,54.98,55.34,54.62,56.85,51.603,96.2,0.4549,-7.299999999999969,0.3999999999999915,56.85,2.230000000000004,1.1014797069409763,3.0836739553876047,descent,False,
22.6,FLT_004,44.83,9.04,8.0,0.11,1.686,54.22,53.07,54.6,55.6,51.556,96.4,0.3631,1.2999999999999545,0.3999999999999915,55.6,2.530000000000001,-0.614387395144215,1.1118348753626728,climb,False,
22.7,FLT_004,44.85,9.08,8.0,0.412,1.555,55.05,55.23,54.01,57.21,51.565,96.2,0.3137,0.20000000000003126,0.40000000000000924,57.21,3.200000000000003,1.5289206936264352,0.040284679610691605,cruise,False,
22.8,FLT_004,45.61,9.12,8.0,-1.516,1.646,54.47,55.28,56.58,52.46,51.465,96.8,0.3376,7.59999999999998,0.3999999999999915,56.58,4.119999999999997,0.6573140367806525,0.5286658326692415,climb,False,
22.9,FLT_004,45.68,9.16,8.0,0.259,1.663,55.23,55.18,54.21,55.13,51.516,96.7,0.2934,0.7000000000000028,0.40000000000000924,55.23,1.019999999999996,-1.1081133844959747,-0.4511870061304889,climb,False,
23.0,FLT_004,45.57,9.2,8.0,1.666,1.523,55.11,54.7,55.68,54.92,51.549,96.0,0.3208,-1.0999999999999943,0.3999999999999915,55.68,0.9799999999999969,-0.5099738761796926,0.1411530207931848,descent,False,
23.1,FLT_004,46.88,9.24,8.0,0.486,1.468,55.57,55.97,56.12,54.19,51.4,96.2,0.2619,13.100000000000023,0.40000000000000924,56.12,1.9299999999999997,0.08653381467314653,-1.1237548948300617,climb,False,
23.2,FLT_004,45.01,9.28,8.0,2.2,1.385,55.17,53.7,54.06,54.69,51.535,96.9,0.3562,-18.700000000000045,0.3999999999999915,55.17,1.4699999999999989,-1.172847196103464,0.9109390228770503,descent,False,
23.3,FLT_004,46.35,9.32,8.0,-1.86,1.429,55.0,54.12,54.41,54.72,51.43,96.3,0.4045,13.400000000000034,0.40000000000000924,55.0,0.8800000000000026,-1.3625251529337519,1.8423962141697823,climb,False,
23.4,FLT_004,47.4,9.36,8.0,0.172,1.449,54.16,56.61,56.79,53.41,51.495,95.8,0.2563,10.499999999999972,0.3999999999999915,56.79,3.3800000000000026,1.2057288263972283,-1.2333647092402489,climb,False,
23.5,FLT_004,46.54,9.4,8.0,2.411,1.218,56.61,53.41,54.86,54.94,51.323,96.2,0.329,-8.599999999999994,0.40000000000000924,56.61,3.200000000000003,0.946741727648421,0.2514666621654598,descent,False,
23.6,FLT_004,48.07,9.44,8.0,1.88,1.273,54.68,54.19,54.59,53.8,51.503,96.3,0.343,15.300000000000011,0.3999999999999915,54.68,0.8800000000000026,-1.7315566332539498,0.5121523023492817,climb,False,
23.7,FLT_004,47.19,9.48,8.0,0.337,1.328,55.73,53.35,55.27,53.22,51.587,96.3,0.2757,-8.800000000000026,0.40000000000000924,55.73,2.509999999999998,-0.2970283666476639,-0.9013030567318784,descent,False,
23.8,FLT_004,47.9,9.52,8.0,-1.002,1.273,55.45,54.52,55.09,54.52,51.471,95.8,0.4248,7.1000000000000085,0.3999999999999915,55.45,0.9299999999999997,-0.7003311621387747,2.156602210571425,climb,False,
23.9,FLT_004,47.99,9.56,8.0,0.225,1.242,53.93,55.65,53.91,54.3,51.472,96.0,0.2844,0.9000000000000341,0.40000000000000924,55.65,1.740000000000002,-0.413013382031103,-0.7003004965986958,climb,False,
24.0,FLT_004,48.2,9.6,8.0,-1.966,1.332,55.05,55.17,55.44,53.65,51.526,96.6,0.3474,2.1000000000000085,0.3999999999999915,55.44,1.7899999999999991,-0.7131095764625157,0.5632795208562866,climb,False,
24.1,FLT_004,48.32,9.64,8.0,-1.862,1.306,55.25,57.03,55.87,55.95,51.436,96.3,0.2622,1.1999999999999744,0.40000000000000924,57.03,1.7800000000000011,1.4957573649424976,-1.1362886798312781,climb,False,
24.2,FLT_004,47.73,9.68,8.0,1.831,1.191,53.95,53.82,56.18,53.87,51.48,96.1,0.2964,-5.900000000000034,0.3999999999999915,56.18,2.3599999999999994,0.29274397572172584,-0.4579526146810735,descent,False,
24.3,FLT_004,48.66,9.72,8.0,1.543,1.207,57.15,53.46,56.39,54.54,51.465,96.0,0.3003,9.299999999999997,0.40000000000000924,57.15,3.6899999999999977,1.5729094784660778,-0.36519869080567346,climb,False,
24.4,FLT_004,49.29,9.76,8.0,-0.893,1.246,53.37,55.18,53.94,54.89,51.406,96.5,0.3298,6.300000000000026,0.3999999999999915,55.18,1.8100000000000023,-1.0982543284601054,0.23390867624479852,climb,False,
24.5,FLT_004,49.7,9.8,8.0,1.63,1.208,55.95,52.28,54.87,55.68,51.496,96.2,0.3166,4.100000000000037,0.40000000000000924,55.95,3.6700000000000017,-0.07885007479558345,-0.06915755617241229,climb,False,
24.6,FLT_004,49.48,9.84,8.0,0.525,1.143,54.07,54.77,53.74,53.93,51.345,95.8,0.3535,-2.2000000000000597,0.3999999999999915,54.77,1.0300000000000011,-1.635961308486152,0.7164480516679884,descent,False,
24.7,FLT_004,48.09,9.88,8.0,1.129,1.249,55.05,55.43,55.36,55.68,51.473,96.2,0.2696,-13.899999999999935,0.40000000000000924,55.68,0.6300000000000026,-0.3711725885245426,-1.0452594868714393,descent,False,
24.8,FLT_004,49.34,9.92,8.0,1.463,1.163,54.2,54.75,54.83,54.5,51.614,96.1,0.3391,12.5,0.3999999999999915,54.83,0.6299999999999955,-1.470325489272872,0.43468208025209915,climb,False,
24.9,FLT_004,49.56,9.96,8.0,0.19,1.191,53.48,54.82,56.87,56.01,51.387,96.0,0.3001,2.1999999999999886,0.40000000000000924,56.87,3.3900000000000006,1.2439107824175502,-0.4171780726865084,climb,False,
25.0,FLT_004,49.05,10.0,8.0,-1.119,1.326,53.46,54.69,55.65,56.03,51.511,95.9,0.3229,-5.100000000000051,0.3999999999999915,56.03,2.5700000000000003,0.11164559411999647,0.054270277320250054,descent,False,
25.1,FLT_004,50.38,10.04,8.0,2.67,1.267,54.48,53.65,55.54,55.97,51.495,96.1,0.264,13.300000000000054,0.3999999999999915,55.97,2.3200000000000003,0.030715614743170312,-1.1790540987670248,climb,False,
25.2,FLT_004,50.66,10.08,8.0,-1.668,1.104,54.43,55.29,54.65,56.39,51.608,95.5,0.2979,2.7999999999999403,0.40000000000000924,56.39,1.9600000000000009,0.5662828489579528,-0.46610842419659326,climb,False,
25.3,FLT_004,51.09,10.12,8.0,-2.305,1.086,53.81,56.93,54.51,54.1,51.387,95.9,0.2136,4.300000000000068,0.3999999999999915,56.93,3.1199999999999974,1.2582230911314098,-2.207190826247642,climb,False,
25.4,FLT_004,50.6,10.16,8.0,-2.134,1.03,55.93,54.76,55.5,54.97,51.44,96.2,0.2331,-4.90000000000002,0.40000000000000924,55.93,1.1700000000000017,-0.08019734274757218,-1.7101241654463608,descent,False,
25.5,FLT_004,50.95,10.2,8.0,0.364,1.035,54.64,54.21,55.82,53.3,51.237,95.9,0.2843,3.500000000000014,0.3999999999999915,55.82,2.520000000000003,-0.2352513143657787,-0.6369486614901875,climb,False,
25.6,FLT_004,51.41,10.24,8.0,-1.626,1.098,55.23,56.66,55.06,54.52,51.593,96.0,0.3435,4.5999999999999375,0.40000000000000924,56.66,2.1399999999999935,0.8587032097065822,0.6023368962585581,climb,False,
25.7,FLT_004,51.12,10.28,8.0,1.846,0.999,56.46,55.17,57.13,53.7,51.521,96.2,0.341,-2.8999999999999915,0.3999999999999915,57.13,3.4299999999999997,1.4357798904537034,0.5387122043946735,descent,False,
25.8,FLT_004,50.54,10.32,8.0,-0.854,0.976,53.91,54.6,55.44,56.33,51.398,96.3,0.3933,-5.799999999999983,0.40000000000000924,56.33,2.4200000000000017,0.36616776551449254,1.5611257115135202,descent,False,
25.9,FLT_004,51.57,10.36,8.0,-1.334,0.993,55.84,54.69,54.81,56.17,51.22,95.4,0.3132,10.300000000000011,0.3999999999999915,56.17,1.480000000000004,0.1524728330058278,-0.06095237872848044,climb,False,
26.0,FLT_004,51.46,10.4,8.0,2.017,0.949,54.37,54.46,55.34,55.1,51.298,96.0,0.3031,-1.0999999999999943,0.40000000000000924,55.34,0.970000000000006,-0.9105069101333333,-0.2794032251884208,descent,False,
26.1,FLT_004,52.25,10.44,8.0,3.644,1.062,56.12,54.71,54.62,55.23,51.329,96.1,0.2773,7.8999999999999915,0.3999999999999915,56.12,1.5,0.10787385613796278,-0.8430309935374253,climb,False,
26.2,FLT_004,52.91,10.48,8.0,0.533,0.867,54.68,56.08,55.91,54.04,51.445,95.9,0.3475,6.599999999999966,0.40000000000000924,56.08,2.039999999999999,0.10141076634615694,0.6396587000307689,climb,False,
26.3,FLT_004,51.82,10.52,8.0,1.041,1.034,54.75,53.53,55.7,56.59,51.396,96.3,0.2704,-10.899999999999963,0.3999999999999915,56.59,3.0600000000000023,0.7780257430754779,-0.9716879766650396,descent,False,
26.4,FLT_004,52.32,10.56,8.0,-1.411,1.178,53.34,54.27,53.91,54.7,51.525,96.4,0.2863,5.0,0.40000000000000924,54.7,1.3599999999999994,-1.7364305980331725,-0.612944803711572,climb,False,
26.5,FLT_004,53.61,10.6,8.0,-0.985,1.237,56.15,53.91,54.92,55.28,51.272,95.3,0.276,12.899999999999991,0.3999999999999915,56.15,2.240000000000002,0.23691892783106916,-0.8166645290277208,climb,False,
26.6,FLT_004,53.48,10.64,8.0,1.427,1.215,53.24,55.13,54.61,56.43,51.595,96.1,0.3552,-1.3000000000000256,0.40000000000000924,56.43,3.1899999999999977,0.5880513269426922,0.8278621262206074,descent,False,
26.7,FLT_004,53.73,10.68,8.0,3.058,1.21,55.72,54.71,54.47,53.34,51.68,95.9,0.3287,2.5,0.3999999999999915,55.72,2.3799999999999955,-0.36440984566748974,0.26246395019692825,climb,False,
26.8,FLT_004,53.78,10.72,8.0,0.287,1.391,54.93,54.77,54.9,55.86,51.362,95.4,0.3295,0.5000000000000426,0.40000000000000924,55.86,1.0899999999999963,-0.1992009190499684,0.26501194364862035,climb,False,
26.9,FLT_004,53.89,10.76,8.0,1.073,1.473,55.2,55.26,55.68,54.79,51.545,95.6,0.2952,1.0999999999999943,0.3999999999999915,55.68,0.8900000000000006,-0.48553932888163415,-0.47729451936377565,climb,False,
27.0,FLT_004,53.7,10.8,8.0,-5.17,1.644,54.64,53.74,56.8,55.64,51.454,95.9,0.2636,-1.8999999999999773,0.40000000000000924,56.8,3.059999999999995,1.1160781988451514,-1.1265628008665913,descent,False,
27.1,FLT_004,53.78,10.84,8.0,1.682,1.616,54.33,55.97,56.37,54.95,51.308,95.6,0.2985,0.799999999999983,0.3999999999999915,56.37,2.039999999999999,0.4894923338115199,-0.3615703073393679,climb,False,
27.2,FLT_004,54.33,10.88,8.0,1.127,1.552,55.63,54.8,53.85,54.02,51.404,95.3,0.2924,5.499999999999972,0.40000000000000924,55.63,1.7800000000000011,-0.565061784449477,-0.47425529708424846,climb,False,
27.3,FLT_004,55.8,10.92,8.0,-2.688,1.576,55.72,54.55,53.14,55.06,51.3,96.0,0.3383,14.699999999999989,0.3999999999999915,55.72,2.5799999999999983,-0.4054388177924099,0.5003925189516626,climb,False,
27.4,FLT_004,54.59,10.96,8.0,-2.596,1.533,56.4,55.24,54.74,54.8,51.207,95.6,0.2481,-12.099999999999937,0.40000000000000924,56.4,1.6599999999999966,0.5800880897337668,-1.3735368369705576,descent,False,
27.5,FLT_004,54.45,11.0,8.0,1.209,1.595,54.15,55.24,55.85,55.33,51.305,95.7,0.3164,-1.4000000000000057,0.3999999999999915,55.85,1.7000000000000028,-0.20668967653638418,0.14422929253632474,descent,False,
27.6,FLT_004,56.0,11.04,8.0,0.234,1.465,55.98,54.31,55.39,54.59,51.227,95.8,0.3467,15.499999999999972,0.3999999999999915,55.98,1.6699999999999946,-0.022912889271482505,0.8701994622603857,climb,False,
27.7,FLT_004,55.46,11.08,8.0,-1.389,1.589,54.66,55.47,55.61,55.76,51.418,95.1,0.3694,-5.3999999999999915,0.40000000000000924,55.76,1.1000000000000014,-0.32194024351601025,1.3544730821758433,descent,False,
27.8,FLT_004,56.0,11.12,8.0,0.76,1.583,54.86,54.06,56.18,55.69,51.539,95.3,0.3343,5.3999999999999915,0.3999999999999915,56.18,2.1199999999999974,0.3492120313807171,0.5418620095795758,climb,False,
27.9,FLT_004,55.87,11.16,8.0,2.385,1.646,55.72,55.95,53.19,55.11,51.278,95.9,0.2533,-1.3000000000000256,0.40000000000000924,55.95,2.760000000000005,-0.03607922734222196,-1.2999377645813623,descent,False,
28.0,FLT_004,56.34,11.2,8.0,2.994,1.543,54.94,55.08,55.19,54.45,51.391,95.5,0.3333,4.70000000000006,0.3999999999999915,55.19,0.7399999999999949,-1.217302247261008,0.5217645255232725,climb,False,
28.1,FLT_004,57.46,11.24,8.0,-0.558,1.465,56.34,55.47,55.1,55.33,51.534,95.3,0.2668,11.199999999999974,0.40000000000000924,56.34,1.240000000000002,0.5855026829316282,-0.999495872685238,climb,False,
28.2,FLT_004,55.74,11.28,8.0,-0.112,1.452,54.38,55.62,55.79,55.91,51.376,95.8,0.292,-17.19999999999999,0.3999999999999915,55.91,1.529999999999994,-0.1149563102895738,-0.3979317901214495,descent,False,
28.3,FLT_004,57.22,11.32,8.0,1.209,1.497,55.47,56.2,54.04,55.16,51.424,95.5,0.3364,14.799999999999969,0.40000000000000924,56.2,2.1600000000000037,0.3176553014731021,0.6910340905796825,climb,False,
28.4,FLT_004,56.34,11.36,8.0,-3.312,1.414,55.88,54.92,53.36,57.39,51.34,95.2,0.3596,-8.799999999999955,0.3999999999999915,57.39,4.030000000000001,2.170992237147246,1.2044259813560658,descent,False,
28.5,FLT_004,57.44,11.4,8.0,2.073,1.532,56.13,55.18,54.42,54.69,51.376,96.3,0.2779,10.999999999999943,0.40000000000000924,56.13,1.7100000000000009,0.19412080632363352,-0.7495490915945046,climb,False,
28.6,FLT_004,56.58,11.44,8.0,4.508,1.711,52.22,56.41,54.37,55.02,51.381,95.0,0.2583,-8.599999999999994,0.3999999999999915,56.41,4.189999999999998,0.6129866926470512,-1.173489287725444,descent,False,
28.7,FLT_004,57.57,11.48,8.0,-1.503,1.678,56.43,54.74,54.73,53.99,51.341,95.2,0.2774,9.90000000000002,0.40000000000000924,56.43,2.4399999999999977,0.6222647242844078,-0.7166120468239673,climb,False,
28.8,FLT_004,57.86,11.52,8.0,-0.479,1.737,54.01,53.56,55.03,54.78,51.424,95.4,0.2353,2.8999999999999915,0.3999999999999915,55.03,1.4699999999999989,-1.6672793524709522,-1.7342331104967754,climb,False,
28.9,FLT_004,57.52,11.56,8.0,3.188,1.615,53.63,55.49,54.42,54.02,51.351,95.1,0.1692,-3.399999999999963,0.40000000000000924,55.49,1.8599999999999994,-0.9053276175759922,-3.027341690261999,descent,False,
29.0,FLT_004,57.69,11.6,8.0,2.426,1.622,54.43,54.66,55.27,55.29,51.356,95.5,0.3272,1.699999999999946,0.3999999999999915,55.29,0.8599999999999994,-1.21972977228942,0.6113903982486133,climb,False,
29.1,FLT_004,58.78,11.64,8.0,3.168,1.692,54.05,55.3,54.65,55.13,51.205,95.2,0.2856,10.900000000000034,0.40000000000000924,55.3,1.25,-1.1626187219905977,-0.3639035155956248,climb,False,
29.2,FLT_004,58.06,11.68,8.0,-0.352,1.708,55.53,53.86,54.3,55.32,51.263,95.8,0.2381,-7.199999999999989,0.3999999999999915,55.53,1.6700000000000017,-0.75950501800677,-1.4126928062270907,descent,False,
29.3,FLT_004,58.03,11.72,8.0,-3.52,1.715,53.61,54.34,54.41,55.18,51.227,95.5,0.2888,-0.30000000000001137,0.40000000000000924,55.18,1.5700000000000003,-1.2936871056856825,-0.2513568907714042,cruise,False,
29.4,FLT_004,58.48,11.76,8.0,3.705,1.755,54.05,56.36,55.56,53.76,51.295,95.8,0.2453,4.499999999999957,0.3999999999999915,56.36,2.6000000000000014,0.6442384583265165,-1.1918290988770488,climb,False,
29.5,FLT_004,59.44,11.8,8.0,-1.249,1.68,54.13,55.19,55.68,55.39,51.396,95.4,0.3237,9.600000000000009,0.40000000000000924,55.68,1.5499999999999972,-0.49519570575853655,0.5723224798262271,climb,False,
29.6,FLT_004,59.3,11.84,8.0,-2.306,1.489,54.3,54.47,54.67,53.86,51.329,95.0,0.2921,-1.4000000000000057,0.3999999999999915,54.67,0.8100000000000023,-2.179530147561859,-0.11342602753569261,descent,False,
29.7,FLT_004,60.42,11.88,8.0,4.089,1.597,54.67,53.66,55.5,55.41,51.35,94.7,0.3474,11.200000000000045,0.40000000000000924,55.5,1.8400000000000034,-0.7806184834920833,1.1068167413776369,climb,False,
29.8,FLT_004,59.48,11.92,8.0,2.12,1.817,53.43,53.08,54.65,55.16,51.345,94.7,0.2746,-9.400000000000048,0.3999999999999915,55.16,2.0799999999999983,-1.384302367098631,-0.5186074353203678,descent,False,
29.9,FLT_004,59.82,11.96,8.0,-0.531,1.773,56.12,54.25,53.16,55.99,51.261,96.4,0.3423,3.400000000000034,0.40000000000000924,56.12,2.960000000000001,0.27917008010679234,0.9968792644178834,climb,False,
30.0,FLT_004,59.57,12.0,8.0,4.012,1.912,55.42,56.61,54.38,56.66,51.367,95.2,0.3291,-2.5,0.3999999999999915,56.66,2.279999999999994,1.179796907616458,0.6946782877783813,descent,False,
30.1,FLT_004,59.38,12.04,8.0,-0.841,1.954,55.64,55.94,56.73,54.64,51.37,94.8,0.2498,-1.8999999999999773,0.3999999999999915,56.73,2.0899999999999963,1.252806742102328,-1.0803633104724935,descent,False,
30.2,FLT_004,60.22,12.08,8.0,0.916,1.817,54.14,55.97,54.63,54.88,51.515,95.3,0.2761,8.399999999999963,0.40000000000000924,55.97,1.8299999999999983,-0.01525691744637175,-0.4800166748678657,climb,False,
