timestamp_s,flight_id,altitude_m,airspeed_ms,pitch_deg,roll_deg,yaw_deg,motor1_temp_c,motor2_temp_c,motor3_temp_c,motor4_temp_c,battery_v,battery_pct,vibration_g,altitude_ms_rate,airspeed_ms_rate,motor_max_temp,motor_temp_spread,motor_temp_zscore,vibration_zscore,phase,fault_flag,fault_reason
0.0,FLT_005,0.0,0.0,8.0,-0.248,0.128,55.23,55.84,54.23,55.19,52.07,100.0,0.3154,,,55.84,1.6100000000000065,,,landing,False,
0.1,FLT_005,0.69,0.04,8.0,-0.106,0.175,55.24,55.28,56.63,54.05,51.897,99.9,0.2798,6.8999999999999995,0.4,56.63,2.5800000000000054,,,landing,False,
0.2,FLT_005,0.29,0.08,8.0,0.801,0.174,54.78,55.95,54.81,54.98,52.13,100.0,0.1641,-3.9999999999999996,0.4,55.95,1.1700000000000017,,,landing,False,
0.3,FLT_005,0.44,0.12,8.0,2.508,0.077,54.34,54.22,56.41,54.61,51.85,100.0,0.4112,1.5000000000000002,0.3999999999999999,56.41,2.1899999999999977,,,landing,False,
0.4,FLT_005,0.89,0.16,8.0,0.975,0.063,53.82,54.92,53.24,54.96,51.975,99.6,0.3292,4.5,0.4000000000000001,54.96,1.7199999999999989,-1.5464575631050659,0.32544883278445436,landing,False,
0.5,FLT_005,0.0,0.2,8.0,1.103,0.057,55.99,55.83,55.62,54.57,52.171,99.5,0.302,-8.9,0.4000000000000001,55.99,1.4200000000000017,0.04618701780578468,0.021346420397518738,landing,False,
0.6,FLT_005,1.36,0.24,8.0,-1.823,359.973,55.48,55.56,53.58,53.5,52.039,99.4,0.3216,13.600000000000001,0.3999999999999998,55.56,2.0600000000000023,-0.6301046369565165,0.24740119662252785,landing,False,
0.7,FLT_005,0.79,0.28,8.0,-1.035,359.856,55.03,55.35,53.89,56.72,51.953,99.8,0.348,-5.700000000000001,0.40000000000000036,56.72,2.8299999999999983,1.2202984915428936,0.556996665561318,landing,False,
0.8,FLT_005,1.15,0.32,8.0,-2.07,0.041,54.04,54.94,54.63,55.85,51.892,100.0,0.2225,3.5999999999999988,0.3999999999999998,55.85,1.8100000000000023,-0.255157259141596,-1.0715106367705538,landing,False,
0.9,FLT_005,2.2,0.36,8.0,-3.5,0.095,55.14,55.51,54.63,52.34,51.954,99.9,0.2723,10.500000000000004,0.3999999999999998,55.51,3.1699999999999946,-0.801318646539009,-0.3568553374828452,landing,False,
1.0,FLT_005,2.28,0.4,8.0,-1.913,0.126,56.76,54.51,53.4,52.45,52.117,99.7,0.3278,0.7999999999999963,0.40000000000000036,56.76,4.309999999999995,1.3096603013267372,0.43416850657441663,landing,False,
1.1,FLT_005,2.73,0.44,8.0,1.697,0.031,55.14,56.89,54.38,54.62,51.99,100.0,0.2739,4.500000000000002,0.3999999999999998,56.89,2.509999999999998,1.3408812593967796,-0.37344985586314416,landing,False,
1.2,FLT_005,2.74,0.48,8.0,-1.278,0.044,55.26,54.25,54.26,54.86,51.973,99.6,0.314,0.10000000000000231,0.3999999999999998,55.26,1.009999999999998,-1.2418441484411742,0.25576183695315846,landing,False,
1.3,FLT_005,3.32,0.52,8.0,2.162,359.932,54.22,54.93,55.28,53.96,51.854,100.0,0.2489,5.799999999999996,0.40000000000000036,55.28,1.3200000000000003,-1.1078511262397743,-0.7775186956521878,landing,False,
1.4,FLT_005,2.05,0.56,8.0,1.134,0.075,56.18,54.45,56.11,55.19,51.759,99.8,0.4007,-12.7,0.40000000000000036,56.18,1.7299999999999969,0.32096737495145844,1.5560826608038723,landing,False,
1.5,FLT_005,2.64,0.6,8.0,0.905,359.852,53.97,54.64,54.81,55.22,52.072,99.7,0.216,5.900000000000003,0.39999999999999925,55.22,1.25,-1.1685805880633167,-1.2437738625770545,landing,False,
1.6,FLT_005,3.07,0.64,8.0,-1.504,359.763,54.02,54.35,54.63,53.67,52.159,100.0,0.2961,4.299999999999997,0.40000000000000036,54.63,0.9600000000000009,-1.825819697638889,-0.00917467543355367,landing,False,
1.7,FLT_005,3.47,0.68,8.0,1.306,359.718,54.48,54.84,54.37,58.61,52.106,100.0,0.2504,4.0000000000000036,0.40000000000000036,58.61,4.240000000000002,2.819640630895723,-0.7057819798419235,landing,False,
1.8,FLT_005,3.29,0.72,8.0,-5.084,359.687,56.32,56.57,53.82,54.27,51.971,100.0,0.2548,-1.8000000000000016,0.39999999999999925,56.57,2.75,0.5828978306518916,-0.6119231959130281,landing,False,
1.9,FLT_005,3.98,0.76,8.0,0.336,359.546,55.34,55.83,55.13,54.83,52.039,99.6,0.3352,6.8999999999999995,0.40000000000000036,55.83,1.0,-0.22984815835250094,0.6832982491729713,landing,False,
2.0,FLT_005,4.37,0.8,8.0,3.585,359.553,55.36,54.59,54.68,55.48,51.958,100.0,0.2779,3.9000000000000012,0.40000000000000036,55.48,0.8899999999999935,-0.6068176117234014,-0.2648350685622633,landing,False,
2.1,FLT_005,4.48,0.84,8.0,-1.253,359.421,55.41,53.3,56.03,56.27,51.914,99.3,0.3108,1.1000000000000032,0.39999999999999925,56.27,2.970000000000006,0.29692022098765414,0.28951108234631534,landing,False,
2.2,FLT_005,4.43,0.88,8.0,2.486,359.535,54.31,55.61,54.12,55.01,52.038,99.6,0.2828,-0.5000000000000071,0.40000000000000036,55.61,1.490000000000002,-0.46873111145295865,-0.19473800829146004,landing,False,
2.3,FLT_005,4.12,0.92,8.0,0.048,359.414,54.05,53.66,54.05,53.92,52.081,99.9,0.3297,-3.099999999999996,0.40000000000000036,54.05,0.39000000000000057,-2.061428092573324,0.6236669934656212,landing,False,
2.4,FLT_005,5.32,0.96,8.0,-1.168,359.442,52.76,54.7,54.5,55.78,51.902,99.6,0.281,12.000000000000002,0.39999999999999925,55.78,3.020000000000003,-0.15043708611869092,-0.2516960436225777,landing,False,
2.5,FLT_005,5.74,1.0,8.0,2.091,359.47,55.79,55.26,55.13,56.44,52.052,99.8,0.2901,4.199999999999999,0.40000000000000036,56.44,1.3099999999999952,0.5776437520917719,-0.08225129743206888,landing,False,
2.6,FLT_005,5.84,1.04,8.0,-0.94,359.309,54.58,56.82,53.06,54.69,52.099,99.5,0.2833,0.9999999999999964,0.40000000000000036,56.82,3.759999999999998,0.9741426419356154,-0.20630875343364505,landing,False,
2.7,FLT_005,5.63,1.08,8.0,-0.504,359.241,53.25,55.62,55.59,55.91,51.955,99.9,0.2761,-2.0999999999999996,0.40000000000000036,55.91,2.6599999999999966,-0.06356217403092583,-0.3377000947282633,landing,False,
2.8,FLT_005,6.18,1.12,8.0,4.479,359.368,56.13,53.87,55.37,55.54,52.068,99.4,0.2919,5.499999999999998,0.40000000000000036,56.13,2.260000000000005,0.18899849946957117,-0.0290392012064371,landing,False,
2.9,FLT_005,4.91,1.16,8.0,-0.847,359.376,54.0,55.56,52.82,54.56,51.972,99.9,0.2321,-12.699999999999996,0.39999999999999813,55.56,2.740000000000002,-0.4759477010822347,-1.167562209817751,landing,False,
3.0,FLT_005,6.8,1.2,8.0,1.986,359.531,53.5,53.89,54.63,55.18,51.947,99.6,0.2201,18.9,0.40000000000000036,55.18,1.6799999999999997,-0.9042445618643477,-1.3387444147838328,landing,False,
3.1,FLT_005,6.34,1.24,8.0,-0.402,359.321,54.09,55.45,53.51,54.74,52.103,100.0,0.2671,-4.6,0.40000000000000036,55.45,1.9400000000000048,-0.5675188457804633,-0.418111241399933,landing,False,
3.2,FLT_005,6.36,1.28,8.0,-2.811,359.37,55.43,55.12,55.37,54.71,51.795,99.8,0.2763,0.20000000000000462,0.40000000000000036,55.43,0.7199999999999989,-0.5799264480271611,-0.23327792201399733,landing,False,
3.3,FLT_005,6.45,1.32,8.0,-0.597,359.51,54.7,54.82,54.99,53.72,51.812,99.4,0.3739,0.8999999999999986,0.40000000000000036,54.99,1.2700000000000031,-1.0841874493275623,1.6216101713679087,landing,False,
3.4,FLT_005,7.0,1.36,8.0,0.418,359.455,55.09,55.08,55.5,54.49,51.913,99.4,0.3269,5.499999999999998,0.40000000000000036,55.5,1.009999999999998,-0.4515863675097888,0.6927816765143666,landing,False,
3.5,FLT_005,6.52,1.4,8.0,3.012,359.49,54.35,55.24,54.62,54.32,51.832,99.6,0.3509,-4.800000000000004,0.39999999999999813,55.24,0.9200000000000017,-0.7569284689051905,1.1256355156388773,landing,False,
3.6,FLT_005,6.94,1.44,8.0,-2.463,359.497,54.4,52.81,54.94,54.64,51.726,99.7,0.2959,4.200000000000008,0.40000000000000036,54.94,2.1299999999999955,-1.0967715610899595,0.052177909361352894,landing,False,
3.7,FLT_005,7.88,1.48,8.0,1.175,359.511,57.09,55.99,55.87,54.55,51.909,99.9,0.2571,9.399999999999995,0.40000000000000036,57.09,2.5400000000000063,1.5054438204005862,-0.7012551399027642,landing,False,
3.8,FLT_005,6.19,1.52,8.0,2.681,359.334,56.32,54.89,56.01,53.96,52.058,99.3,0.2624,-16.899999999999995,0.40000000000000036,56.32,2.3599999999999994,0.5567683323469705,-0.5854874357848233,landing,False,
3.9,FLT_005,7.61,1.56,8.0,0.561,359.345,55.73,53.99,55.02,55.4,51.963,100.0,0.3327,14.2,0.40000000000000036,55.73,1.7399999999999949,-0.167353710514137,0.8096197187860558,landing,False,
4.0,FLT_005,8.54,1.6,8.0,-1.665,359.463,54.6,54.75,56.28,55.18,51.967,99.1,0.2936,9.299999999999988,0.40000000000000036,56.28,1.6799999999999997,0.510355676659922,0.020482934904067388,landing,False,
4.1,FLT_005,8.5,1.64,8.0,-3.755,359.374,53.12,55.95,55.54,55.04,52.045,98.9,0.2914,-0.3999999999999915,0.39999999999999813,55.95,2.8300000000000054,0.09401365301225184,-0.024183829404037245,landing,False,
4.2,FLT_005,8.85,1.68,8.0,0.792,359.416,55.09,55.46,54.59,56.75,51.967,99.5,0.31,3.4999999999999964,0.40000000000000036,56.75,2.1599999999999966,1.0844094353876974,0.3559228082304159,landing,False,
4.3,FLT_005,8.94,1.72,8.0,3.518,359.433,55.71,52.76,55.58,56.23,51.867,99.3,0.2596,0.8999999999999986,0.40000000000000036,56.23,3.469999999999999,0.4181157043993152,-0.6860362341484679,landing,False,
4.4,FLT_005,9.1,1.76,8.0,-1.609,359.4,55.76,56.44,55.65,56.57,51.999,99.6,0.278,1.6000000000000014,0.40000000000000036,56.57,0.9200000000000017,0.8380559769623169,-0.2954495488014874,landing,False,
4.5,FLT_005,9.16,1.8,8.0,1.724,359.459,54.46,50.75,55.07,57.11,51.943,99.9,0.2755,0.600000000000005,0.40000000000000036,57.11,6.359999999999999,1.4785769029628553,-0.3443983018222897,landing,False,
4.6,FLT_005,9.21,1.84,8.0,-0.304,359.55,56.12,54.49,56.22,56.76,51.89,99.1,0.3653,0.5000000000000071,0.40000000000000036,56.76,2.269999999999996,1.0119220936309472,1.5256936299047783,landing,False,
4.7,FLT_005,9.38,1.88,8.0,0.827,359.668,53.69,56.62,53.2,55.17,51.788,99.3,0.2417,1.6999999999999993,0.39999999999999813,56.62,3.4199999999999946,0.8197618325023996,-1.0622190640862497,landing,False,
4.8,FLT_005,9.43,1.92,8.0,1.445,359.595,55.21,54.23,54.79,55.36,51.927,99.9,0.3761,0.49999999999998934,0.40000000000000036,55.36,1.1300000000000026,-0.7709165349187568,1.7009575597240074,landing,False,
4.9,FLT_005,10.13,1.96,8.0,-0.409,359.678,54.51,56.09,54.0,54.5,51.848,99.4,0.2505,7.000000000000011,0.40000000000000036,56.09,2.0900000000000034,0.16031780836564496,-0.8776419262302744,landing,False,
5.0,FLT_005,10.33,2.0,8.0,-2.513,359.555,55.16,54.69,54.27,56.09,51.976,99.0,0.3015,1.999999999999993,0.40000000000000036,56.09,1.8200000000000003,0.15386810683268526,0.18431905617469427,landing,False,
5.1,FLT_005,10.56,2.04,8.0,-2.466,359.55,55.85,52.78,54.86,55.23,51.908,99.5,0.2958,2.3000000000000043,0.40000000000000036,55.85,3.0700000000000003,-0.13680520836033505,0.059489979856062,landing,False,
5.2,FLT_005,9.94,2.08,8.0,-2.77,359.423,55.04,53.52,54.94,54.68,52.045,98.9,0.2612,-6.20000000000001,0.40000000000000036,55.04,1.519999999999996,-1.1503024280426855,-0.7532249844647755,landing,False,
5.3,FLT_005,10.41,2.12,8.0,-4.439,359.366,55.82,53.46,53.98,53.28,51.875,99.1,0.3014,4.700000000000006,0.40000000000000036,55.82,2.539999999999999,-0.13540122485432676,0.21033766972712442,landing,False,
5.4,FLT_005,10.69,2.16,8.0,3.236,359.514,55.31,54.74,54.63,54.8,51.98,99.0,0.3895,2.7999999999999936,0.40000000000000036,55.31,0.6799999999999997,-0.8084523006169378,2.2044076820094105,landing,False,
5.5,FLT_005,10.82,2.2,8.0,2.97,359.392,56.27,55.65,52.6,55.46,51.678,99.6,0.3189,1.3000000000000078,0.40000000000000036,56.27,3.6700000000000017,0.4308325827035308,0.5672097890005212,landing,False,
5.6,FLT_005,11.57,2.24,8.0,-2.418,359.398,55.02,55.29,55.78,55.48,51.775,99.5,0.2708,7.5,0.40000000000000036,55.78,0.759999999999998,-0.21078858173526419,-0.5157791809055934,landing,False,
5.7,FLT_005,10.86,2.28,8.0,0.883,359.404,53.58,55.4,54.59,55.09,52.005,99.4,0.3289,-7.1000000000000085,0.3999999999999959,55.4,1.8200000000000003,-0.6743439891265411,0.8382406239662462,landing,False,
5.8,FLT_005,12.17,2.32,8.0,1.337,359.58,55.1,54.38,53.97,54.61,51.796,99.7,0.2924,13.100000000000005,0.40000000000000036,55.1,1.1300000000000026,-1.0352758686565815,-0.04361294480627097,landing,False,
5.9,FLT_005,11.85,2.36,8.0,0.942,359.4,56.39,53.4,56.83,55.08,51.815,98.9,0.347,-3.200000000000003,0.40000000000000036,56.83,3.4299999999999997,1.1539172872784598,1.2107904601451913,landing,False,
6.0,FLT_005,12.02,2.4,8.0,-0.487,359.299,55.83,54.77,54.62,56.57,51.974,98.7,0.2378,1.6999999999999993,0.40000000000000036,56.57,1.9500000000000028,0.8303542721203019,-1.3089611061465551,landing,False,
6.1,FLT_005,11.85,2.44,8.0,1.849,359.266,55.36,52.79,55.77,55.4,51.789,99.4,0.3109,-1.6999999999999993,0.40000000000000036,55.77,2.980000000000004,-0.17094194913979735,0.3791413801434286,landing,False,
6.2,FLT_005,12.19,2.48,8.0,-0.764,359.294,55.18,54.9,53.76,55.57,51.969,98.4,0.3244,3.3999999999999986,0.40000000000000036,55.57,1.8100000000000023,-0.4423492656478436,0.6874797488997625,landing,False,
6.3,FLT_005,12.61,2.52,8.0,1.315,359.301,54.16,54.96,54.13,56.51,51.796,98.8,0.3549,4.199999999999999,0.40000000000000036,56.51,2.3799999999999955,0.7593044702251504,1.3387549902466447,landing,False,
6.4,FLT_005,12.91,2.56,8.0,3.164,359.275,53.88,55.06,57.65,54.44,51.887,99.1,0.3374,3.000000000000007,0.40000000000000036,57.65,3.769999999999996,2.1143533200397755,1.0158113002075053,landing,False,
6.5,FLT_005,13.19,2.6,8.0,-0.649,359.158,52.07,57.22,53.87,55.05,51.881,99.4,0.3122,2.7999999999999936,0.40000000000000036,57.22,5.149999999999999,1.503128035315747,0.36905366556962776,landing,False,
6.6,FLT_005,12.97,2.64,8.0,-2.883,359.076,54.4,56.46,54.4,55.91,51.982,98.9,0.2931,-2.1999999999999886,0.40000000000000036,56.46,2.0600000000000023,0.5353218228703845,-0.11367411151226237,landing,False,
6.7,FLT_005,13.0,2.68,8.0,4.343,359.18,53.58,54.98,54.41,54.49,52.006,99.6,0.3022,0.2999999999999936,0.40000000000000036,54.98,1.3999999999999986,-1.3871166639307475,0.09213173778329775,landing,False,
6.8,FLT_005,13.79,2.72,8.0,1.021,359.162,55.29,53.93,54.1,55.38,51.747,98.6,0.305,7.8999999999999915,0.40000000000000036,55.38,1.4500000000000028,-0.7912526417038039,0.14019260012349521,landing,False,
6.9,FLT_005,14.89,2.76,8.0,0.949,359.156,56.1,53.9,54.73,53.69,51.833,98.8,0.2966,11.000000000000014,0.3999999999999959,56.1,2.4100000000000037,0.2158749246128658,-0.059257836232346275,landing,False,
7.0,FLT_005,13.58,2.8,8.0,-0.202,359.175,53.35,54.97,55.97,54.8,51.715,99.0,0.2409,-13.100000000000005,0.40000000000000036,55.97,2.6199999999999974,0.01896758238939398,-1.475593725354536,landing,False,
7.1,FLT_005,14.16,2.84,8.0,-0.527,359.378,54.49,55.21,54.69,54.6,51.882,99.0,0.3416,5.800000000000001,0.40000000000000036,55.21,0.7199999999999989,-1.0177502787327402,1.0931162452223382,landing,False,
7.2,FLT_005,14.45,2.88,8.0,1.87,359.417,55.14,55.22,54.92,55.62,51.946,99.0,0.326,2.8999999999999915,0.40000000000000036,55.62,0.6999999999999957,-0.44284994750557505,0.6713170100275513,landing,False,
7.3,FLT_005,14.79,2.92,8.0,-2.225,359.504,54.88,54.26,54.19,54.53,51.797,98.6,0.344,3.3999999999999986,0.40000000000000036,54.88,0.6900000000000048,-1.5847046119757657,1.1138544522382268,landing,False,
7.4,FLT_005,14.33,2.96,8.0,-1.171,359.602,54.08,54.63,54.94,53.44,52.015,99.3,0.3144,-4.599999999999991,0.40000000000000036,54.94,1.5,-1.4400489534012932,0.3501248078317108,landing,False,
7.5,FLT_005,15.5,3.0,8.0,1.174,359.753,55.0,56.46,53.64,54.03,51.712,98.8,0.3491,11.7,0.40000000000000036,56.46,2.8200000000000003,0.7580290957237439,1.1806107309343856,landing,False,
7.6,FLT_005,16.57,3.04,8.0,-1.997,359.596,54.73,55.82,54.94,54.79,51.854,98.8,0.214,10.700000000000003,0.40000000000000036,55.82,1.0900000000000034,-0.14092439028832157,-2.0590296910451027,landing,False,
7.7,FLT_005,15.33,3.08,8.0,-0.441,359.568,55.03,54.21,53.7,55.28,51.903,98.4,0.1916,-12.400000000000002,0.40000000000000036,55.28,1.5799999999999983,-0.9088263278148053,-2.4028969639409645,landing,False,
7.8,FLT_005,15.63,3.12,8.0,1.061,359.589,54.16,55.86,54.04,55.92,52.006,98.6,0.2464,3.000000000000007,0.40000000000000036,55.92,1.8800000000000026,0.030659406595213653,-1.1370548359469181,landing,False,
7.9,FLT_005,15.11,3.16,8.0,0.928,359.647,55.68,57.17,54.11,55.22,51.949,98.8,0.3158,-5.2000000000000135,0.40000000000000036,57.17,3.0600000000000023,1.7541846932502216,0.3706382848287645,landing,False,
8.0,FLT_005,16.32,3.2,8.0,0.933,359.668,54.77,55.43,56.12,55.8,51.947,98.8,0.2798,12.100000000000009,0.40000000000000036,56.12,1.3499999999999943,0.24346291129301467,-0.4860733260470651,landing,False,
8.1,FLT_005,16.3,3.24,8.0,-2.032,359.882,54.17,54.87,53.54,57.19,51.896,98.9,0.368,-0.19999999999999574,0.40000000000000036,57.19,3.6499999999999986,1.6833215040396425,1.5005033022059284,landing,False,
8.2,FLT_005,15.1,3.28,8.0,-3.84,359.747,54.42,54.24,55.71,54.6,51.835,98.6,0.3079,-12.00000000000001,0.3999999999999959,55.71,1.4699999999999989,-0.39347501321970446,0.10694062759840095,landing,False,
8.3,FLT_005,16.45,3.32,8.0,0.631,359.603,56.26,55.68,53.78,54.9,51.956,98.4,0.3602,13.499999999999996,0.40000000000000036,56.26,2.479999999999997,0.3494873525156759,1.3308056031695952,landing,False,
8.4,FLT_005,17.46,3.36,8.0,-1.076,359.651,53.09,56.85,54.94,54.37,51.804,98.9,0.3267,10.100000000000016,0.40000000000000036,56.85,3.759999999999998,1.1458434694386699,0.5517402350008366,landing,False,
8.5,FLT_005,18.01,3.4,8.0,-2.902,359.904,55.84,53.26,54.85,56.44,51.82,99.1,0.3029,5.500000000000007,0.40000000000000036,56.44,3.1799999999999997,0.5354745348442912,0.020739252722430816,landing,False,
8.6,FLT_005,17.2,3.44,8.0,1.026,359.825,55.71,56.67,55.41,56.01,51.749,98.9,0.3805,-8.100000000000023,0.40000000000000036,56.67,1.2600000000000051,0.8329099047575982,1.7513188859402067,landing,False,
8.7,FLT_005,18.17,3.48,8.0,3.977,359.992,54.42,54.93,53.57,55.06,51.855,99.0,0.2849,9.700000000000024,0.40000000000000036,55.06,1.490000000000002,-1.4652208574759285,-0.4460943191815245,landing,False,
8.8,FLT_005,17.92,3.52,8.0,2.659,0.048,54.2,56.08,55.46,55.37,51.877,98.3,0.2794,-2.5,0.40000000000000036,56.08,1.8799999999999955,0.03518954212154524,-0.5842218766177997,landing,False,
8.9,FLT_005,17.79,3.56,8.0,2.669,0.146,54.87,54.3,55.05,55.63,51.813,99.3,0.3255,-1.3000000000000256,0.40000000000000036,55.63,1.3300000000000054,-0.6206615856200363,0.48847935956074695,landing,False,
9.0,FLT_005,18.57,3.6,8.0,-3.094,0.093,55.25,54.21,53.99,55.42,51.684,98.2,0.2902,7.800000000000011,0.40000000000000036,55.42,1.4299999999999997,-0.8963242305933061,-0.32949250013378334,landing,False,
9.1,FLT_005,18.27,3.64,8.0,-1.6,0.081,53.7,55.39,53.44,56.33,51.911,97.9,0.2784,-3.000000000000007,0.40000000000000036,56.33,2.8900000000000006,0.4143555443626851,-0.5956920523467603,landing,False,
9.2,FLT_005,17.97,3.68,8.0,2.43,0.096,55.33,54.93,55.75,55.62,51.901,99.0,0.3209,-3.000000000000007,0.40000000000000036,55.75,0.8200000000000003,-0.4018454105783415,0.38246754738409244,landing,False,
9.3,FLT_005,19.18,3.72,8.0,1.484,0.058,54.48,54.94,55.94,54.94,51.783,98.7,0.3628,12.100000000000009,0.40000000000000036,55.94,1.4600000000000009,-0.11519875041833107,1.2948483995977575,landing,False,
9.4,FLT_005,18.76,3.76,8.0,-2.483,0.091,54.7,54.87,54.31,55.87,51.668,98.3,0.2786,-4.1999999999999815,0.3999999999999959,55.87,1.5599999999999952,-0.19854802676495645,-0.6392497263362671,landing,False,
9.5,FLT_005,18.95,3.8,8.0,0.383,0.082,56.17,55.07,55.64,54.34,51.812,98.9,0.3152,1.8999999999999773,0.40000000000000036,56.17,1.8299999999999983,0.2793352030784388,0.18411270518764972,landing,False,
9.6,FLT_005,18.91,3.84,8.0,-4.829,0.007,54.26,55.57,53.0,53.57,51.685,98.8,0.1979,-0.3999999999999915,0.40000000000000036,55.57,2.5700000000000003,-0.600907328287529,-2.346129600890487,landing,False,
9.7,FLT_005,20.14,3.88,8.0,-4.693,0.007,53.44,56.54,53.27,55.82,51.852,98.8,0.256,12.300000000000004,0.40000000000000036,56.54,3.269999999999996,0.8906012441230858,-1.074739845407754,landing,False,
9.8,FLT_005,19.19,3.92,8.0,-0.845,0.122,57.0,52.56,54.48,55.92,51.75,98.5,0.3208,-9.499999999999993,0.40000000000000036,57.0,4.439999999999998,1.5227689744527806,0.4063313326262235,landing,False,
9.9,FLT_005,19.69,3.96,8.0,0.725,359.935,53.65,55.64,55.16,53.12,51.881,98.3,0.248,5.0,0.40000000000000036,55.64,2.520000000000003,-0.5192493586990532,-1.2578093692717598,landing,False,
10.0,FLT_005,19.34,4.0,8.0,-0.715,359.896,55.17,54.53,55.4,56.32,51.865,98.7,0.2325,-3.500000000000014,0.40000000000000036,56.32,1.7899999999999991,0.49847584180758575,-1.541120422188892,landing,False,
10.1,FLT_005,19.2,4.04,8.0,-1.389,359.692,55.3,56.5,55.5,54.62,51.79,99.1,0.2537,-1.4000000000000057,0.40000000000000036,56.5,1.8800000000000026,0.745804503891243,-1.0380458622405573,landing,False,
10.2,FLT_005,19.7,4.08,8.0,1.279,359.607,57.27,54.26,55.6,55.64,51.804,98.4,0.3243,5.0,0.40000000000000036,57.27,3.010000000000005,1.8077519181674926,0.4933096802944323,landing,False,
10.3,FLT_005,20.99,4.12,8.0,-2.672,359.49,55.13,56.89,55.83,55.55,51.855,98.7,0.3709,12.899999999999991,0.40000000000000036,56.89,1.759999999999998,1.1978328691548596,1.4618382106951102,landing,False,
10.4,FLT_005,21.57,4.16,8.0,4.176,359.451,54.55,57.09,55.16,57.31,51.93,98.4,0.2937,5.8000000000000185,0.40000000000000036,57.31,2.760000000000005,1.7186700072487089,-0.17588118588116347,landing,False,
10.5,FLT_005,20.99,4.2,8.0,-3.31,359.678,54.37,55.0,56.68,54.31,51.907,98.5,0.289,-5.8000000000000185,0.40000000000000036,56.68,2.3699999999999974,0.8013362678289775,-0.2683662538647774,landing,False,
10.6,FLT_005,22.09,4.24,8.0,0.496,359.674,54.65,54.01,56.39,54.34,51.89,98.5,0.3149,11.000000000000014,0.40000000000000036,56.39,2.3800000000000026,0.3723150829055804,0.2959443870958382,landing,False,
10.7,FLT_005,21.1,4.28,8.0,-1.903,359.534,54.54,53.98,55.24,54.33,51.748,98.6,0.2827,-9.899999999999984,0.40000000000000036,55.24,1.2600000000000051,-1.2519388136764724,-0.41171771765363574,landing,False,
10.8,FLT_005,21.8,4.32,8.0,0.194,359.537,53.54,52.81,54.55,56.23,51.828,98.8,0.2618,6.999999999999993,0.40000000000000036,56.23,3.4199999999999946,0.11918581668418395,-0.8646977534596936,landing,False,
10.9,FLT_005,22.06,4.36,8.0,-0.077,359.657,55.86,54.98,54.82,54.77,51.825,98.7,0.308,2.59999999999998,0.40000000000000036,55.86,1.0899999999999963,-0.3913033250744532,0.19349742156377808,landing,False,
11.0,FLT_005,22.99,4.4,8.0,0.041,359.615,56.51,55.75,53.81,54.99,51.734,98.0,0.3171,9.299999999999997,0.40000000000000036,56.51,2.6999999999999957,0.5593979642510767,0.3714699217188903,landing,False,
11.1,FLT_005,22.47,4.44,8.0,0.989,359.543,54.15,54.28,55.51,54.33,51.841,98.5,0.2767,-5.199999999999996,0.40000000000000036,55.51,1.3599999999999994,-0.8887165377290164,-0.5476934379144193,landing,False,
11.2,FLT_005,23.22,4.48,8.0,-1.511,359.397,55.18,55.57,54.05,55.43,51.913,98.1,0.3802,7.5,0.40000000000000036,55.57,1.5200000000000031,-0.8015589825414668,1.7650079994212906,landing,False,
11.3,FLT_005,23.03,4.52,8.0,-1.638,359.425,54.91,55.46,53.97,55.49,51.729,98.5,0.3771,-1.8999999999999773,0.3999999999999915,55.49,1.5200000000000031,-0.8838135687158704,1.6613594745767017,landing,False,
11.4,FLT_005,23.09,4.56,8.0,3.762,359.638,55.71,55.84,54.93,54.67,51.817,98.2,0.3225,0.5999999999999872,0.40000000000000036,55.84,1.1700000000000017,-0.34355959716175327,0.462832138128437,landing,False,
11.5,FLT_005,23.45,4.6,8.0,-3.143,359.494,55.13,57.29,55.46,54.65,51.899,98.3,0.1657,3.5999999999999943,0.40000000000000036,57.29,2.6400000000000006,1.859053627960728,-2.7180316049730022,landing,False,
11.6,FLT_005,23.21,4.64,8.0,-0.414,359.717,53.95,54.53,55.54,55.14,51.633,98.8,0.4459,-2.3999999999999844,0.40000000000000036,55.54,1.5899999999999963,-0.7703356693713438,2.710573216339582,landing,False,
11.7,FLT_005,23.78,4.68,8.0,3.209,359.719,55.52,56.05,53.59,55.84,51.804,98.8,0.2397,5.700000000000003,0.40000000000000036,56.05,2.4599999999999937,-0.030555463031560284,-1.1287439392308418,landing,False,
11.8,FLT_005,23.25,4.72,8.0,-4.968,359.689,54.24,55.14,54.97,56.44,51.806,97.9,0.3568,-5.300000000000011,0.40000000000000036,56.44,2.1999999999999957,0.5493237560257843,1.0140164423607512,landing,False,
11.9,FLT_005,24.5,4.76,8.0,0.285,359.695,54.2,53.87,56.24,55.1,51.585,98.8,0.2352,12.5,0.40000000000000036,56.24,2.3700000000000045,0.23017410340681554,-1.1784437186544738,landing,False,
12.0,FLT_005,24.44,4.8,8.0,-0.892,359.719,53.71,55.64,55.65,54.72,51.764,97.6,0.3423,-0.5999999999999872,0.40000000000000036,55.65,1.9399999999999977,-0.6842874011327627,0.7273436762715624,landing,False,
12.1,FLT_005,25.23,4.84,8.0,0.212,359.736,55.49,54.19,53.46,54.03,51.907,98.6,0.2696,7.8999999999999915,0.40000000000000036,55.49,2.030000000000001,-0.9534055540203188,-0.5715988442345797,landing,False,
12.2,FLT_005,24.07,4.88,8.0,-2.415,359.744,56.58,55.97,56.23,55.84,51.868,98.2,0.1707,-11.600000000000001,0.40000000000000036,56.58,0.7399999999999949,0.7402891367672916,-2.2039987020286995,landing,False,
12.3,FLT_005,25.13,4.92,8.0,1.221,359.817,56.2,55.98,53.63,53.84,51.597,98.7,0.3621,10.599999999999987,0.40000000000000036,56.2,2.5700000000000003,0.10152677024652478,1.10154501271023,landing,False,
12.4,FLT_005,25.34,4.96,8.0,1.515,359.704,53.89,54.25,55.36,54.06,51.848,97.9,0.2406,2.1000000000000085,0.40000000000000036,55.36,1.4699999999999989,-1.3278248190035637,-0.9583398083886984,landing,False,
12.5,FLT_005,24.72,5.0,8.0,-0.945,359.793,53.94,54.66,56.05,55.0,51.865,98.6,0.3004,-6.20000000000001,0.40000000000000036,56.05,2.1099999999999994,-0.14992551177790547,0.08043891396730869,landing,False,
12.6,FLT_005,25.5,5.04,8.0,3.948,359.774,54.23,53.39,55.94,55.6,51.822,98.4,0.3195,7.800000000000011,0.40000000000000036,55.94,2.549999999999997,-0.34074581668742177,0.38045591015884317,landing,False,
12.7,FLT_005,26.56,5.08,8.0,-1.847,359.794,54.18,57.0,55.26,54.56,51.823,97.6,0.2801,10.599999999999987,0.40000000000000036,57.0,2.8200000000000003,1.400479123818691,-0.3553684551264516,landing,False,
12.8,FLT_005,25.0,5.12,8.0,-0.054,359.796,55.57,56.66,54.88,53.93,51.871,98.1,0.2294,-15.599999999999987,0.40000000000000036,56.66,2.729999999999997,0.794195948918471,-1.2637393720097043,landing,False,
12.9,FLT_005,25.96,5.16,8.0,-0.221,359.889,54.04,55.57,55.39,54.93,51.512,98.3,0.3212,9.600000000000009,0.40000000000000036,55.57,1.5300000000000011,-1.013032465008933,0.3944221380015876,landing,False,
13.0,FLT_005,24.97,5.2,8.0,1.163,359.918,55.15,56.35,55.37,53.65,51.874,97.9,0.2713,-9.90000000000002,0.40000000000000036,56.35,2.700000000000003,0.32207289748500034,-0.5037462960047469,landing,False,
13.1,FLT_005,26.08,5.24,8.0,0.114,359.904,55.5,55.87,56.02,53.12,51.817,98.8,0.3855,11.099999999999994,0.40000000000000036,56.02,2.9000000000000057,-0.21235002068667289,1.5374945152757487,landing,False,
13.2,FLT_005,26.36,5.28,8.0,0.269,0.065,54.05,54.06,56.0,54.58,51.739,97.9,0.269,2.8000000000000114,0.40000000000000036,56.0,1.9500000000000028,-0.25963483326297865,-0.5313163851033265,landing,False,
13.3,FLT_005,27.09,5.32,8.0,-1.846,359.974,55.7,55.21,56.2,55.45,51.785,98.1,0.2862,7.300000000000004,0.40000000000000036,56.2,0.990000000000002,0.10016814365621762,-0.20047901838576987,landing,False,
13.4,FLT_005,26.99,5.36,8.0,3.754,0.008,54.42,55.23,56.58,54.68,51.719,98.0,0.2665,-1.0000000000000142,0.40000000000000036,56.58,2.1599999999999966,0.797648504368559,-0.5345174777573677,landing,False,
13.5,FLT_005,26.3,5.4,8.0,2.308,359.981,54.91,54.82,53.87,56.64,52.009,97.7,0.3113,-6.899999999999977,0.40000000000000036,56.64,2.770000000000003,0.8940982418841399,0.2713914625317012,landing,False,
13.6,FLT_005,28.5,5.44,8.0,1.654,0.075,54.64,54.87,54.97,56.1,51.674,98.0,0.2964,21.999999999999993,0.40000000000000036,56.1,1.4600000000000009,-0.056613792194499406,0.0336330430112125,landing,False,
13.7,FLT_005,26.9,5.48,8.0,1.341,359.973,52.81,54.2,56.49,54.1,51.662,98.4,0.3069,-16.000000000000014,0.40000000000000036,56.49,3.6799999999999997,0.6217047210940687,0.21970621403217652,landing,False,
13.8,FLT_005,27.68,5.52,8.0,0.649,0.056,55.29,55.15,53.99,55.76,51.69,97.6,0.3693,7.800000000000011,0.3999999999999915,55.76,1.769999999999996,-0.7366743233691228,1.3173526830702758,landing,False,
13.9,FLT_005,27.21,5.56,8.0,3.162,0.018,55.77,55.54,55.01,55.56,51.776,97.9,0.2712,-4.699999999999989,0.40000000000000036,55.77,0.7600000000000051,-0.7265096725180215,-0.44625394518342615,landing,False,
14.0,FLT_005,28.18,5.6,8.0,-1.45,0.092,55.93,54.55,54.18,53.96,51.736,97.6,0.2985,9.699999999999989,0.40000000000000036,55.93,1.9699999999999989,-0.45289582991995003,0.04729582046320041,landing,False,
14.1,FLT_005,27.92,5.64,8.0,2.483,0.098,56.42,54.06,53.45,56.58,51.691,98.3,0.3273,-2.59999999999998,0.40000000000000036,56.58,3.1299999999999955,0.7786366558126028,0.552220500512639,landing,False,
14.2,FLT_005,28.14,5.68,8.0,1.907,0.003,53.98,55.22,54.48,54.5,51.729,97.7,0.3447,2.1999999999999886,0.40000000000000036,55.22,1.240000000000002,-1.7466886127883978,0.8545586235348835,landing,False,
14.3,FLT_005,28.76,5.72,8.0,-2.364,359.925,56.08,54.34,54.69,55.35,51.757,97.9,0.2402,6.20000000000001,0.40000000000000036,56.08,1.7399999999999949,-0.1554448778926249,-0.9916806482622565,landing,False,
14.4,FLT_005,29.04,5.76,8.0,-2.276,0.037,53.77,55.07,55.28,52.04,51.811,97.7,0.2888,2.799999999999976,0.40000000000000036,55.28,3.240000000000002,-1.5830687365969442,-0.1144086142753926,landing,False,
14.5,FLT_005,29.73,5.8,8.0,1.455,0.038,55.58,56.84,55.33,54.36,51.687,97.6,0.3029,6.900000000000013,0.40000000000000036,56.84,2.480000000000004,1.2066382369152686,0.14603810441536316,landing,False,
14.6,FLT_005,28.99,5.84,8.0,1.213,0.064,54.27,56.24,56.21,55.61,51.763,97.7,0.2575,-7.40000000000002,0.40000000000000036,56.24,1.9699999999999989,0.11109594743409275,-0.7201106206170391,landing,False,
14.7,FLT_005,30.37,5.88,8.0,3.735,0.121,57.2,56.56,56.45,56.14,51.802,98.1,0.3027,13.800000000000026,0.40000000000000036,57.2,1.0600000000000023,1.7715061830559085,0.10734610638085584,climb,False,
14.8,FLT_005,28.97,5.92,8.0,0.352,0.048,55.24,52.72,55.48,56.33,51.638,97.9,0.2984,-14.000000000000021,0.40000000000000036,56.33,3.6099999999999994,0.27194235453776266,0.03505315985273121,landing,False,
14.9,FLT_005,29.71,5.96,8.0,-0.467,0.231,54.2,55.08,54.21,53.6,51.683,98.1,0.2238,7.40000000000002,0.40000000000000036,55.08,1.4799999999999969,-1.8944322252024115,-1.346065432549622,landing,False,
15.0,FLT_005,29.94,6.0,8.0,1.563,0.12,53.06,55.32,55.39,54.2,51.58,98.4,0.3329,2.3000000000000043,0.40000000000000036,55.39,2.3299999999999983,-1.299364715965593,0.6557492033098378,landing,False,
15.1,FLT_005,30.39,6.04,8.0,1.149,0.08,56.05,52.16,56.35,55.81,51.602,98.2,0.2956,4.499999999999993,0.40000000000000036,56.35,4.190000000000005,0.35098275362642867,-0.06256867593972312,climb,False,
15.2,FLT_005,30.48,6.08,8.0,-1.744,0.018,53.6,54.55,54.19,55.07,51.853,97.9,0.3615,0.8999999999999986,0.40000000000000036,55.07,1.4699999999999989,-1.7823806391357713,1.159082311202923,climb,False,
15.3,FLT_005,30.69,6.12,8.0,-0.141,359.974,54.73,54.43,53.86,56.55,51.714,98.4,0.2558,2.1000000000000085,0.40000000000000036,56.55,2.6899999999999977,0.7968165647114497,-0.7881485140304373,climb,False,
15.4,FLT_005,30.87,6.16,8.0,-1.462,0.084,52.98,56.46,53.91,54.96,51.785,97.8,0.2685,1.7999999999999972,0.40000000000000036,56.46,3.480000000000004,0.6993819913646254,-0.5360534586772241,climb,False,
15.5,FLT_005,30.5,6.2,8.0,2.736,0.16,53.0,56.65,55.74,54.88,51.661,97.6,0.3058,-3.70000000000001,0.40000000000000036,56.65,3.6499999999999986,1.0494227623909032,0.16316513630091464,descent,False,
15.6,FLT_005,30.91,6.24,8.0,1.325,0.189,54.87,55.99,56.46,54.17,51.851,97.8,0.3358,4.100000000000001,0.40000000000000036,56.46,2.289999999999999,0.6976000917448549,0.7196584852529799,climb,False,
15.7,FLT_005,30.31,6.28,8.0,-0.309,359.979,54.87,56.26,54.71,55.66,51.733,97.4,0.3123,-6.000000000000014,0.40000000000000036,56.26,1.5499999999999972,0.30168107555052387,0.26590096349527687,descent,False,
15.8,FLT_005,30.95,6.32,8.0,1.746,359.962,54.85,54.78,53.92,57.06,51.73,98.0,0.2909,6.400000000000006,0.40000000000000036,57.06,3.1400000000000006,1.7155992872696006,-0.14886634857333444,climb,False,
15.9,FLT_005,31.32,6.36,8.0,2.046,359.898,55.85,53.32,56.74,56.26,51.643,97.4,0.3434,3.70000000000001,0.40000000000000036,56.74,3.4200000000000017,1.0910184124309095,0.8256530268822299,climb,False,
16.0,FLT_005,31.93,6.4,8.0,-1.287,359.815,54.39,55.69,54.89,53.76,51.788,98.1,0.3689,6.099999999999994,0.40000000000000036,55.69,1.9299999999999997,-0.7663450137687131,1.265324486194232,climb,False,
16.1,FLT_005,31.71,6.44,8.0,1.272,359.897,54.4,53.79,55.14,55.52,51.54,98.1,0.288,-2.1999999999999886,0.40000000000000036,55.52,1.730000000000004,-1.0723741053052689,-0.23597703431765385,descent,False,
16.2,FLT_005,32.15,6.48,8.0,-0.619,0.049,55.28,55.06,55.0,54.2,51.424,98.2,0.4097,4.399999999999977,0.40000000000000036,55.28,1.0799999999999983,-1.473792939741208,1.9701123000861678,climb,False,
16.3,FLT_005,32.41,6.52,8.0,-0.69,0.209,53.35,54.41,55.18,55.24,51.546,97.4,0.3063,2.59999999999998,0.3999999999999915,55.24,1.8900000000000006,-1.5178513767575028,0.11851077572952032,climb,False,
16.4,FLT_005,33.09,6.56,8.0,0.069,0.169,55.25,55.77,56.64,55.55,51.76,98.1,0.3138,6.800000000000068,0.40000000000000036,56.64,1.3900000000000006,0.9016776605196754,0.2611274213210078,climb,False,
16.5,FLT_005,33.42,6.6,8.0,-2.015,0.238,54.69,53.58,56.29,55.52,52.047,97.9,0.2765,3.299999999999983,0.40000000000000036,56.29,2.710000000000001,0.34167346334264054,-0.5050038465144226,climb,False,
16.6,FLT_005,33.89,6.64,8.0,0.529,0.122,55.52,56.36,53.94,55.06,51.585,97.1,0.3891,4.699999999999989,0.40000000000000036,56.36,2.4200000000000017,0.44314545729534843,1.8525990675519843,climb,False,
16.7,FLT_005,32.5,6.68,8.0,-0.326,359.992,55.67,52.6,54.88,54.45,51.682,98.0,0.2558,-13.900000000000006,0.40000000000000036,55.67,3.0700000000000003,-0.8042198121343499,-0.9588098788008551,descent,False,
16.8,FLT_005,33.58,6.72,8.0,-0.116,0.1,55.68,56.44,54.71,55.9,51.717,97.7,0.2819,10.799999999999983,0.40000000000000036,56.44,1.7299999999999969,0.5999735106399063,-0.38012607533176374,climb,False,
16.9,FLT_005,33.67,6.76,8.0,1.769,0.088,55.26,53.62,55.55,55.11,51.773,97.3,0.2918,0.9000000000000341,0.40000000000000036,55.55,1.9299999999999997,-0.988258769718644,-0.1961042590964646,climb,False,
17.0,FLT_005,34.64,6.8,8.0,0.568,0.184,52.55,53.76,55.78,56.09,51.718,97.3,0.2601,9.699999999999989,0.40000000000000036,56.09,3.5400000000000063,-0.02909448770888422,-0.8539050458027299,climb,False,
17.1,FLT_005,34.4,6.84,8.0,-1.527,0.1,56.33,55.4,55.26,54.84,51.702,97.4,0.3018,-2.40000000000002,0.40000000000000036,56.33,1.4899999999999949,0.3812164083509048,0.04456438911714046,descent,False,
17.2,FLT_005,34.73,6.88,8.0,2.366,0.195,55.32,54.64,55.59,55.01,51.526,97.4,0.2709,3.299999999999983,0.40000000000000036,55.59,0.9500000000000028,-0.9420459495207884,-0.7393844245953204,climb,False,
17.3,FLT_005,35.2,6.92,8.0,-0.505,0.281,55.74,55.73,54.12,54.11,51.737,98.4,0.2983,4.70000000000006,0.40000000000000036,55.74,1.6300000000000026,-0.6470746343589904,-0.05386500998259385,climb,False,
17.4,FLT_005,34.65,6.96,8.0,1.353,0.195,55.55,54.82,54.46,54.01,51.648,97.4,0.284,-5.500000000000043,0.40000000000000036,55.55,1.5399999999999991,-1.0099487686354156,-0.43424091035173373,descent,False,
17.5,FLT_005,35.08,7.0,8.0,-3.702,0.307,54.78,55.43,51.38,53.58,51.888,98.0,0.3289,4.299999999999997,0.40000000000000036,55.43,4.049999999999997,-1.1905259186905857,0.6709502674354951,climb,False,
17.6,FLT_005,35.84,7.04,8.0,-0.895,0.313,56.22,54.51,56.26,54.01,51.734,96.3,0.3548,7.600000000000051,0.40000000000000036,56.26,2.25,0.3059133684131568,1.2781780349824907,climb,False,
17.7,FLT_005,34.97,7.08,8.0,-3.988,0.259,55.1,54.82,53.35,55.76,51.674,97.2,0.2994,-8.700000000000045,0.40000000000000036,55.76,2.4099999999999966,-0.5718797469497623,-0.0892364753208373,descent,False,
17.8,FLT_005,36.3,7.12,8.0,0.5,0.059,53.69,54.11,55.06,53.3,51.645,97.2,0.445,13.299999999999983,0.40000000000000036,55.06,1.7600000000000051,-1.7789405799806222,3.1282154318654887,climb,False,
17.9,FLT_005,35.85,7.16,8.0,-3.136,0.097,55.81,55.65,55.38,53.05,51.651,97.3,0.311,-4.499999999999957,0.40000000000000036,55.81,2.760000000000005,-0.42139704245520043,0.08784590116691113,descent,False,
18.0,FLT_005,34.39,7.2,8.0,1.821,0.094,55.5,57.15,54.6,55.82,51.686,97.8,0.2632,-14.600000000000009,0.40000000000000036,57.15,2.549999999999997,1.935243615065448,-0.9923655631220126,descent,False,
18.1,FLT_005,36.66,7.24,8.0,1.773,0.031,55.24,53.78,54.7,56.46,51.711,97.1,0.2161,22.69999999999996,0.40000000000000036,56.46,2.6799999999999997,0.696036264661035,-1.967673838333785,climb,False,
18.2,FLT_005,36.19,7.28,8.0,-0.243,359.982,53.91,55.69,56.3,56.35,51.408,97.5,0.2893,-4.699999999999989,0.40000000000000036,56.35,2.440000000000005,0.4890245256309765,-0.3321994967682799,descent,False,
18.3,FLT_005,36.16,7.32,8.0,-1.14,359.783,56.04,55.01,56.18,54.62,51.669,97.7,0.2923,-0.30000000000001137,0.40000000000000036,56.18,1.5600000000000023,0.19135548686254653,-0.26738616117048,cruise,False,
18.4,FLT_005,36.96,7.36,8.0,0.127,359.654,55.18,54.19,55.86,54.09,51.776,97.2,0.3988,8.000000000000043,0.40000000000000036,55.86,1.769999999999996,-0.3476097465475717,2.0085453899400543,climb,False,
18.5,FLT_005,36.86,7.4,8.0,1.992,359.532,55.7,56.77,54.23,55.54,51.655,97.4,0.2179,-1.0000000000000142,0.40000000000000036,56.77,2.5400000000000063,1.2500787943476015,-1.8311721222229855,descent,False,
18.6,FLT_005,37.32,7.44,8.0,1.392,359.572,55.09,55.11,56.32,57.22,51.638,97.8,0.3353,4.6000000000000085,0.40000000000000036,57.22,2.1299999999999955,1.9235222376234835,0.6213465570484151,climb,False,
18.7,FLT_005,36.9,7.48,8.0,-4.167,359.506,54.51,54.46,55.74,53.5,51.667,97.4,0.2676,-4.200000000000017,0.40000000000000036,55.74,2.240000000000002,-0.5528357295800269,-0.777021020129652,descent,False,
18.8,FLT_005,38.33,7.52,8.0,-1.174,359.472,54.58,54.9,53.29,54.81,51.668,96.4,0.3434,14.299999999999997,0.3999999999999915,54.9,1.6099999999999994,-1.8780490112923243,0.8232400409166659,climb,False,
18.9,FLT_005,37.49,7.56,8.0,-0.527,359.44,54.8,54.06,52.48,56.21,51.65,97.0,0.2783,-8.399999999999963,0.40000000000000036,56.21,3.730000000000004,0.24841211473209693,-0.5538669028401465,descent,False,
19.0,FLT_005,38.42,7.6,8.0,2.603,359.444,54.51,56.04,56.24,54.62,51.628,97.4,0.3059,9.299999999999997,0.40000000000000036,56.24,1.730000000000004,0.2872441550420102,0.02625003128351919,climb,False,
19.1,FLT_005,38.76,7.64,8.0,3.77,359.431,56.43,55.62,54.8,55.4,51.472,96.8,0.3371,3.399999999999963,0.40000000000000036,56.43,1.6300000000000026,0.6051464255117285,0.6798636698001028,climb,False,
19.2,FLT_005,38.68,7.68,8.0,0.216,359.501,55.22,55.43,55.6,54.46,51.578,97.8,0.2743,-0.799999999999983,0.40000000000000036,55.6,1.1400000000000006,-0.7807441969518514,-0.6166148461804145,descent,False,
19.3,FLT_005,38.26,7.72,8.0,1.742,359.536,54.61,54.23,54.94,53.94,51.636,97.6,0.2969,-4.200000000000017,0.40000000000000036,54.94,1.0,-1.7797280551836594,-0.16554771399528004,descent,False,
19.4,FLT_005,38.23,7.76,8.0,-1.976,359.445,55.25,56.95,54.98,54.82,51.675,97.1,0.2273,-0.30000000000001137,0.40000000000000036,56.95,2.1300000000000026,1.3939650648564788,-1.5971020318838451,cruise,False,
19.5,FLT_005,38.8,7.8,8.0,0.435,359.562,54.05,55.64,54.79,55.95,51.501,97.0,0.3239,5.700000000000003,0.40000000000000036,55.95,1.9000000000000057,-0.18181818294599578,0.4219596896774997,climb,False,
19.6,FLT_005,39.15,7.84,8.0,-3.648,359.503,55.05,54.57,54.97,54.59,51.691,97.1,0.2845,3.500000000000014,0.40000000000000036,55.05,0.4799999999999969,-1.5665407323654559,-0.4186142068928792,climb,False,
19.7,FLT_005,39.23,7.88,8.0,-0.719,359.503,54.19,54.98,54.63,56.05,51.406,97.0,0.2924,0.799999999999983,0.40000000000000036,56.05,1.8599999999999994,0.05756487805353572,-0.24716819943999635,climb,False,
19.8,FLT_005,39.78,7.92,8.0,-0.472,359.572,54.66,55.35,53.93,55.14,51.645,97.5,0.3254,5.500000000000043,0.40000000000000036,55.35,1.4200000000000017,-1.052134468530608,0.437522297557661,climb,False,
19.9,FLT_005,39.08,7.96,8.0,-1.724,359.702,55.03,54.42,56.11,54.7,51.535,96.7,0.2905,-7.000000000000028,0.40000000000000036,56.11,1.6899999999999977,0.15688088453874863,-0.33620648232976913,descent,False,
20.0,FLT_005,39.83,8.0,8.0,-2.251,359.672,53.81,54.86,54.73,55.81,51.653,97.3,0.3228,7.5,0.40000000000000036,55.81,2.0,-0.36146659675502657,0.3705808146763892,climb,False,
20.1,FLT_005,40.64,8.04,8.0,1.961,359.687,53.68,54.97,54.34,55.98,51.798,97.3,0.3789,8.100000000000023,0.3999999999999915,55.98,2.299999999999997,-0.06257406413888676,1.5184781423743334,climb,False,
20.2,FLT_005,40.28,8.08,8.0,1.928,359.664,55.94,54.65,53.7,55.4,51.409,96.9,0.2337,-3.5999999999999943,0.40000000000000924,55.94,2.239999999999995,-0.16404504444845205,-1.4976675161618245,descent,False,
20.3,FLT_005,41.23,8.12,8.0,-2.359,359.5,56.58,56.34,55.21,54.38,51.531,96.9,0.3183,9.499999999999957,0.3999999999999915,56.58,2.1999999999999957,0.9461548767304477,0.2586257129631857,climb,False,
20.4,FLT_005,40.07,8.16,8.0,-1.771,359.68,53.01,57.1,55.11,55.61,51.67,96.5,0.3785,-11.599999999999966,0.40000000000000924,57.1,4.090000000000003,1.7757844686047504,1.4677673940770903,descent,False,
20.5,FLT_005,41.25,8.2,8.0,-2.011,359.61,55.78,55.08,55.03,54.2,51.451,97.2,0.2471,11.799999999999997,0.3999999999999915,55.78,1.5799999999999983,-0.42640702942644054,-1.2363203618123655,climb,False,
20.6,FLT_005,41.48,8.24,8.0,2.383,359.482,55.15,55.74,54.15,54.59,51.518,96.5,0.2945,2.2999999999999687,0.40000000000000924,55.74,1.5900000000000034,-0.4715470248732392,-0.24436730691154918,climb,False,
20.7,FLT_005,41.83,8.28,8.0,0.868,359.399,54.11,53.39,55.15,56.22,51.781,96.2,0.3299,3.500000000000014,0.3999999999999915,56.22,2.8299999999999983,0.350088807000733,0.47817057271105834,climb,False,
20.8,FLT_005,42.2,8.32,8.0,-2.099,359.525,54.17,55.82,53.04,54.11,51.583,97.4,0.3027,3.7000000000000455,0.40000000000000924,55.82,2.780000000000001,-0.30118477807881633,-0.08710413000033838,climb,False,
20.9,FLT_005,42.09,8.36,8.0,-1.099,359.508,55.81,55.87,54.68,54.48,51.642,96.9,0.2756,-1.0999999999999943,0.3999999999999915,55.87,1.3900000000000006,-0.18540951593204785,-0.6191640277487819,descent,False,
21.0,FLT_005,40.98,8.4,8.0,-0.567,359.531,56.55,54.97,55.5,54.26,51.489,96.8,0.3448,-11.100000000000065,0.40000000000000924,56.55,2.289999999999999,0.9998526283879252,0.82954726488552,descent,False,
21.1,FLT_005,42.57,8.44,8.0,-2.326,359.584,54.71,55.54,54.11,54.61,51.659,97.0,0.2713,15.900000000000034,0.3999999999999915,55.54,1.4299999999999997,-0.8052946128578335,-0.6961355001374631,climb,False,
21.2,FLT_005,41.87,8.48,8.0,-1.543,359.55,54.29,54.27,53.57,55.48,51.488,96.8,0.2982,-7.000000000000028,0.40000000000000924,55.48,1.9099999999999966,-0.9271067393214801,-0.0947617141162417,descent,False,
21.3,FLT_005,42.46,8.52,8.0,0.119,359.707,54.68,53.86,54.89,53.85,51.575,97.1,0.3163,5.900000000000034,0.3999999999999915,54.89,1.0399999999999991,-1.936306091525059,0.29745036727196467,climb,False,
21.4,FLT_005,42.92,8.56,8.0,0.1,359.705,55.61,54.93,55.21,54.49,51.66,97.2,0.3053,4.6000000000000085,0.40000000000000924,55.61,1.1199999999999974,-0.6359683543459939,0.060234529215956505,climb,False,
21.5,FLT_005,43.59,8.6,8.0,-1.817,359.777,56.45,55.06,53.63,55.08,51.647,97.3,0.2687,6.700000000000017,0.3999999999999915,56.45,2.8200000000000003,0.8511940447779708,-0.7369144983628599,climb,False,
21.6,FLT_005,43.42,8.64,8.0,0.623,359.747,54.82,54.7,55.46,54.11,51.721,97.3,0.2594,-1.700000000000017,0.40000000000000924,55.46,1.3500000000000014,-0.8706193837657662,-0.9106650399507341,descent,False,
21.7,FLT_005,43.48,8.68,8.0,-0.584,359.647,54.9,55.69,54.97,57.21,51.759,97.2,0.3152,0.5999999999999517,0.3999999999999915,57.21,2.3100000000000023,2.076060926513716,0.3232743987657514,climb,False,
21.8,FLT_005,42.82,8.72,8.0,1.625,359.541,53.14,56.3,55.14,53.24,51.719,97.0,0.3369,-6.599999999999966,0.40000000000000924,56.3,3.1599999999999966,0.5428228258083335,0.7883284306985016,descent,False,
21.9,FLT_005,43.96,8.76,8.0,0.416,359.557,55.38,56.16,55.44,55.65,51.587,97.0,0.2463,11.400000000000006,0.3999999999999915,56.16,0.779999999999994,0.28583050862003356,-1.223996434291165,climb,False,
22.0,FLT_005,44.26,8.8,8.0,-0.282,359.377,54.37,54.23,55.5,54.73,51.516,96.9,0.3794,2.9999999999999716,0.40000000000000924,55.5,1.2700000000000031,-0.8141887694806104,1.6568269844885746,climb,False,
22.1,FLT_005,42.81,8.84,8.0,-1.12,359.417,54.86,54.57,54.7,53.37,51.523,96.6,0.3255,-14.499999999999957,0.3999999999999915,54.86,1.490000000000002,-1.7922623436712586,0.4677973838133019,descent,False,
22.2,FLT_005,44.41,8.88,8.0,-1.288,359.31,55.95,54.45,53.92,54.0,51.399,96.8,0.3937,15.999999999999943,0.40000000000000924,55.95,2.030000000000001,-0.013847553835419182,1.8425334034198828,climb,False,
22.3,FLT_005,44.14,8.92,8.0,-0.054,359.08,53.98,55.36,54.9,54.27,51.647,97.0,0.389,-2.69999999999996,0.3999999999999915,55.36,1.3800000000000026,-0.965744428815223,1.6560167437282054,descent,False,
22.4,FLT_005,44.04,8.96,8.0,-2.773,359.108,56.43,54.24,53.16,54.73,51.572,96.7,0.3566,-1.0000000000000142,0.40000000000000924,56.43,3.270000000000003,0.7534507788169728,0.9545785811193219,descent,False,
22.5,FLT_005,45.26,9.0,8.0,1.943,359.152,53.18,55.29,54.73,54.85,51.397,96.9,0.3446,12.199999999999989,0.3999999999999915,55.29,2.1099999999999994,-1.097693862500252,0.7011148191333709,climb,False,
22.6,FLT_005,45.17,9.04,8.0,0.107,359.159,56.69,57.19,54.56,55.02,51.527,96.7,0.2887,-0.899999999999963,0.3999999999999915,57.19,2.6299999999999955,1.8894228656652285,-0.4100814140417444,descent,False,
22.7,FLT_005,45.97,9.08,8.0,-0.31,359.368,54.0,56.68,54.62,54.65,51.418,96.8,0.2914,7.999999999999972,0.40000000000000924,56.68,2.6799999999999997,1.0505314927279361,-0.35127947887412847,climb,False,
22.8,FLT_005,45.76,9.12,8.0,0.174,359.242,55.01,53.95,55.23,53.63,51.594,96.6,0.3089,-2.1000000000000085,0.3999999999999915,55.23,1.5999999999999943,-1.2121659751099294,0.06756481416769093,descent,False,
22.9,FLT_005,45.22,9.16,8.0,-0.392,359.144,55.73,53.68,53.92,55.18,51.506,97.2,0.2641,-5.3999999999999915,0.40000000000000924,55.73,2.049999999999997,-0.4282308279860893,-0.903488753980433,descent,False,
23.0,FLT_005,46.36,9.2,8.0,0.008,359.281,53.83,55.24,55.01,54.84,51.555,97.2,0.2558,11.400000000000006,0.3999999999999915,55.24,1.4100000000000037,-1.1565722271441186,-1.0802423230584826,climb,False,
23.1,FLT_005,46.16,9.24,8.0,-1.669,359.128,52.32,54.61,55.09,55.23,51.539,96.5,0.2037,-2.0000000000000284,0.40000000000000924,55.23,2.9099999999999966,-1.1255423396234874,-2.1981985346113695,descent,False,
23.2,FLT_005,45.9,9.28,8.0,2.205,359.061,53.4,55.5,54.05,54.25,51.619,96.9,0.3779,-2.59999999999998,0.3999999999999915,55.5,2.1000000000000014,-0.671356617040782,1.5241475545260479,descent,False,
23.3,FLT_005,46.49,9.32,8.0,2.942,359.208,52.92,54.55,55.19,56.81,51.521,96.4,0.2677,5.900000000000034,0.40000000000000924,56.81,3.8900000000000006,1.355666234327433,-0.8067594309823187,climb,False,
23.4,FLT_005,46.63,9.36,8.0,-0.013,359.141,53.59,53.84,56.06,57.19,51.384,96.4,0.289,1.4000000000000057,0.3999999999999915,57.19,3.5999999999999943,1.836735090317162,-0.3224111697589503,climb,False,
23.5,FLT_005,47.4,9.4,8.0,3.677,359.067,55.27,55.37,54.79,55.63,51.326,96.4,0.2645,7.69999999999996,0.40000000000000924,55.63,0.8400000000000034,-0.47198987473569615,-0.9100389818857278,climb,False,
23.6,FLT_005,48.26,9.44,8.0,-2.353,359.081,54.83,55.7,56.0,54.45,51.61,97.2,0.3569,8.599999999999994,0.3999999999999915,56.0,1.5499999999999972,0.13182668328871766,1.1685625780783677,climb,False,
23.7,FLT_005,46.93,9.48,8.0,-2.105,358.908,55.13,55.53,55.15,54.21,51.574,96.6,0.3401,-13.299999999999983,0.40000000000000924,55.53,1.3200000000000003,-0.6026418238517418,0.7588220978443276,descent,False,
23.8,FLT_005,47.43,9.52,8.0,-0.436,358.852,55.43,55.59,54.77,55.64,51.401,96.6,0.2629,5.0,0.3999999999999915,55.64,0.8699999999999974,-0.4640633939887562,-0.9431051260379371,climb,False,
23.9,FLT_005,47.46,9.56,8.0,-0.313,358.898,54.67,56.57,55.05,56.38,51.594,96.2,0.2138,0.30000000000001137,0.40000000000000924,56.57,1.8999999999999986,1.0180864340805942,-1.9446742793801084,cruise,False,
24.0,FLT_005,47.89,9.6,8.0,-0.27,359.027,53.22,56.36,55.59,55.96,51.502,97.3,0.2572,4.299999999999997,0.3999999999999915,56.36,3.1400000000000006,0.6763232480071016,-0.9733237841644286,climb,False,
24.1,FLT_005,48.41,9.64,8.0,-1.24,358.983,54.25,55.0,55.22,54.66,51.531,96.2,0.2798,5.19999999999996,0.40000000000000924,55.22,0.9699999999999989,-1.0999612659050715,-0.4654322439637156,climb,False,
24.2,FLT_005,48.47,9.68,8.0,2.518,359.065,54.39,55.13,54.64,55.54,51.634,96.7,0.324,0.6000000000000227,0.3999999999999915,55.54,1.1499999999999986,-0.5892214646787051,0.4654776093263388,climb,False,
24.3,FLT_005,48.38,9.72,8.0,0.95,359.004,55.04,55.46,54.61,54.25,51.414,96.9,0.2973,-0.899999999999963,0.40000000000000924,55.46,1.2100000000000009,-0.7470790984656835,-0.1103456435445981,descent,False,
24.4,FLT_005,49.22,9.76,8.0,-2.083,359.163,56.29,55.74,53.83,53.94,51.705,97.2,0.392,8.399999999999963,0.3999999999999915,56.29,2.460000000000001,0.6329373389164504,1.8443703719836058,climb,False,
24.5,FLT_005,49.72,9.8,8.0,0.545,359.073,56.07,55.16,54.71,52.34,51.506,96.8,0.2152,5.0,0.40000000000000924,56.07,3.729999999999997,0.2636840481116478,-1.8244434867948605,climb,False,
24.6,FLT_005,49.68,9.84,8.0,1.0,359.004,53.42,55.39,55.23,56.84,51.475,96.8,0.3505,-0.3999999999999915,0.3999999999999915,56.84,3.4200000000000017,1.4788839288563043,0.9355209220839541,cruise,False,
24.7,FLT_005,48.52,9.88,8.0,0.153,359.0,55.8,54.58,55.94,56.4,51.473,96.4,0.3145,-11.599999999999966,0.40000000000000924,56.4,1.8200000000000003,0.7348375565414845,0.18862999934834887,descent,False,
24.8,FLT_005,49.4,9.92,8.0,0.882,358.984,55.28,54.75,54.96,53.0,51.467,96.3,0.3697,8.799999999999955,0.3999999999999915,55.28,2.280000000000001,-1.1046339551823154,1.2820325184183126,climb,False,
24.9,FLT_005,49.65,9.96,8.0,-1.518,358.923,54.47,53.82,56.97,56.15,51.335,96.8,0.164,2.5,0.40000000000000924,56.97,3.1499999999999986,1.6001790782209337,-2.6135133611059866,climb,False,
25.0,FLT_005,49.07,10.0,8.0,0.031,358.883,55.87,54.81,55.3,56.73,51.542,96.1,0.3075,-5.799999999999983,0.3999999999999915,56.73,1.9199999999999946,1.170596112604921,0.07776193599637683,descent,False,
25.1,FLT_005,49.99,10.04,8.0,2.582,358.928,55.21,55.26,54.37,54.7,51.401,96.0,0.3266,9.200000000000017,0.3999999999999915,55.26,0.8900000000000006,-1.1112244798540005,0.46401809275888467,climb,False,
25.2,FLT_005,50.71,10.08,8.0,-3.92,358.945,55.98,55.05,54.57,54.9,51.573,96.8,0.3076,7.199999999999989,0.40000000000000924,55.98,1.4099999999999966,0.008720613158035847,0.0742534222202401,climb,False,
25.3,FLT_005,51.52,10.12,8.0,1.638,358.933,56.04,54.76,52.76,55.6,51.456,96.3,0.1788,8.100000000000023,0.3999999999999915,56.04,3.280000000000001,0.12007336368441604,-2.2495808315495966,climb,False,
25.4,FLT_005,50.44,10.16,8.0,1.3,358.956,54.09,53.74,56.02,56.09,51.277,96.2,0.2532,-10.800000000000054,0.40000000000000924,56.09,2.3500000000000014,0.23831768507264892,-0.8456165603555666,descent,False,
25.5,FLT_005,50.56,10.2,8.0,1.377,358.957,55.72,54.78,54.96,57.28,51.629,96.2,0.2684,1.2000000000000455,0.3999999999999915,57.28,2.5,2.032158501315248,-0.5733140119628811,climb,False,
25.6,FLT_005,51.31,10.24,8.0,3.089,358.976,54.49,54.39,52.82,53.45,51.368,96.4,0.2264,7.5,0.40000000000000924,54.49,1.6700000000000017,-2.158384004418165,-1.3127778865479394,climb,False,
25.7,FLT_005,50.58,10.28,8.0,1.799,358.692,54.91,55.55,54.88,53.8,51.299,96.7,0.2365,-7.30000000000004,0.3999999999999915,55.55,1.75,-0.5688222241703111,-1.082574002110889,descent,False,
25.8,FLT_005,51.2,10.32,8.0,-3.784,358.518,55.14,54.75,54.14,56.27,51.412,96.2,0.27,6.2000000000000455,0.40000000000000924,56.27,2.1300000000000026,0.4806366128870253,-0.45690146777564794,climb,False,
25.9,FLT_005,51.04,10.36,8.0,2.773,358.54,56.94,55.62,56.86,54.47,51.362,96.5,0.262,-1.600000000000037,0.3999999999999915,56.94,2.469999999999999,1.407135480278574,-0.5965428057826102,descent,False,
26.0,FLT_005,51.49,10.4,8.0,0.251,358.461,54.39,54.17,53.44,55.45,51.596,96.0,0.2395,4.500000000000028,0.40000000000000924,55.45,2.010000000000005,-0.7139000150111381,-0.9668827774786142,climb,False,
26.1,FLT_005,52.49,10.44,8.0,-0.801,358.555,55.89,52.91,55.02,54.83,51.484,96.3,0.3864,10.0,0.3999999999999915,55.89,2.980000000000004,-0.08769734857959874,1.62003014603135,climb,False,
26.2,FLT_005,52.34,10.48,8.0,1.8,358.791,54.56,54.56,55.22,55.23,51.4,97.0,0.3215,-1.4999999999999858,0.40000000000000924,55.23,0.6699999999999946,-1.0321585689564647,0.46104295879290974,descent,False,
26.3,FLT_005,52.16,10.52,8.0,3.009,358.808,54.86,55.21,54.08,54.23,51.476,95.9,0.3289,-1.8000000000000682,0.3999999999999915,55.21,1.1300000000000026,-1.0835660222727184,0.5861229983531719,descent,False,
26.4,FLT_005,52.65,10.56,8.0,4.782,358.678,54.4,55.06,55.93,53.69,51.452,96.0,0.3301,4.90000000000002,0.40000000000000924,55.93,2.240000000000002,-0.04129905501133047,0.59649799522916,climb,False,
26.5,FLT_005,53.36,10.6,8.0,2.174,358.603,54.72,55.48,56.08,53.49,51.351,96.4,0.3937,7.1000000000000085,0.3999999999999915,56.08,2.5899999999999963,0.19017283613096087,1.627739539126487,climb,False,
26.6,FLT_005,53.02,10.64,8.0,3.685,358.583,57.25,56.45,54.91,54.31,51.477,96.0,0.3592,-3.399999999999963,0.40000000000000924,57.25,2.9399999999999977,1.805256035549321,0.996913612793375,descent,False,
26.7,FLT_005,53.18,10.68,8.0,0.009,358.565,54.34,54.95,53.99,54.81,51.342,96.4,0.2316,1.599999999999966,0.3999999999999915,54.95,0.9600000000000009,-1.432331384834065,-1.1329456706857717,climb,False,
26.8,FLT_005,53.29,10.72,8.0,-1.848,358.643,54.19,56.3,54.64,56.03,51.237,96.4,0.2842,1.0999999999999943,0.40000000000000924,56.3,2.1099999999999994,0.5180896052062742,-0.2317797576344993,climb,False,
26.9,FLT_005,53.71,10.76,8.0,-2.574,358.486,55.27,55.21,54.46,54.36,51.395,96.8,0.4012,4.200000000000017,0.3999999999999915,55.27,0.9100000000000037,-0.9366010866115921,1.6544415927591296,climb,False,
27.0,FLT_005,54.59,10.8,8.0,1.908,358.489,55.5,55.02,55.47,54.16,51.515,96.1,0.3526,8.800000000000026,0.40000000000000924,55.5,1.3400000000000034,-0.6070138009312578,0.8690695349948584,climb,False,
27.1,FLT_005,54.05,10.84,8.0,-0.922,358.341,55.66,55.35,55.4,52.21,51.63,96.2,0.2673,-5.4000000000000625,0.3999999999999915,55.66,3.4499999999999957,-0.4100014123216528,-0.5337123649836369,descent,False,
27.2,FLT_005,54.78,10.88,8.0,1.444,358.338,56.92,55.15,54.15,55.09,51.468,96.0,0.2843,7.30000000000004,0.40000000000000924,56.92,2.770000000000003,1.380935222925124,-0.2196451787185195,climb,False,
27.3,FLT_005,54.62,10.92,8.0,-3.022,358.409,56.68,52.66,56.03,52.93,51.46,96.0,0.3877,-1.600000000000037,0.3999999999999915,56.68,4.020000000000003,0.9954810591961073,1.5498638998630274,descent,False,
27.4,FLT_005,54.59,10.96,8.0,3.672,358.534,54.01,54.03,54.46,54.89,51.589,96.4,0.3199,-0.2999999999999403,0.40000000000000924,54.89,0.8800000000000026,-1.4961086710018903,0.4060467295224442,cruise,False,
27.5,FLT_005,54.51,11.0,8.0,0.433,358.463,55.89,55.89,52.69,54.44,51.553,95.7,0.3433,-0.800000000000054,0.3999999999999915,55.89,3.200000000000003,-0.1086257996649543,0.8108791221530414,descent,False,
27.6,FLT_005,54.67,11.04,8.0,-1.889,358.485,52.88,54.97,54.94,54.69,51.52,95.6,0.2478,1.600000000000037,0.3999999999999915,54.97,2.0899999999999963,-1.3673046529002966,-0.819100988283929,climb,False,
27.7,FLT_005,55.35,11.08,8.0,-0.495,358.429,55.0,54.64,56.6,56.75,51.34,96.2,0.2643,6.799999999999997,0.40000000000000924,56.75,2.1099999999999994,1.1839039588395361,-0.525226920674329,climb,False,
27.8,FLT_005,56.31,11.12,8.0,0.638,358.445,56.63,54.25,56.64,53.98,51.478,96.1,0.218,9.600000000000009,0.3999999999999915,56.64,2.6600000000000037,0.9860753315868227,-1.265360868090395,climb,False,
27.9,FLT_005,56.16,11.16,8.0,3.433,358.474,55.54,55.0,54.41,57.11,51.539,95.9,0.3017,-1.5000000000000568,0.40000000000000924,57.11,2.700000000000003,1.5790060224650448,0.13101058724019554,descent,False,
28.0,FLT_005,56.56,11.2,8.0,1.603,358.371,53.81,55.38,55.49,54.16,51.509,95.8,0.2901,4.000000000000057,0.3999999999999915,55.49,1.6799999999999997,-0.6947618676823888,-0.07657737953766912,climb,False,
28.1,FLT_005,55.92,11.24,8.0,-3.529,358.266,55.5,55.29,54.71,54.39,51.465,96.0,0.3111,-6.400000000000006,0.40000000000000924,55.5,1.1099999999999994,-0.6930048004808165,0.24888132244821978,descent,False,
28.2,FLT_005,56.73,11.28,8.0,0.822,358.188,54.42,53.76,54.18,54.8,51.269,95.9,0.2799,8.099999999999952,0.3999999999999915,54.8,1.0399999999999991,-1.6253478717431946,-0.26421412706152764,climb,False,
28.3,FLT_005,56.04,11.32,8.0,1.943,358.311,54.4,53.3,54.81,55.13,51.515,95.9,0.2627,-6.899999999999977,0.40000000000000924,55.13,1.8300000000000054,-1.1235413537541699,-0.5667403461592471,descent,False,
28.4,FLT_005,57.13,11.36,8.0,0.37,358.332,55.41,54.98,56.61,56.38,51.27,96.0,0.3497,10.900000000000034,0.3999999999999915,56.61,1.6300000000000026,0.9610451897329764,0.9434386262669671,climb,False,
28.5,FLT_005,57.77,11.4,8.0,0.623,358.408,55.34,55.19,55.22,54.45,51.35,95.8,0.3694,6.400000000000006,0.40000000000000924,55.34,0.8900000000000006,-0.8229257321500509,1.236068612358408,climb,False,
28.6,FLT_005,57.96,11.44,8.0,-5.508,358.393,55.73,55.23,56.96,54.19,51.482,96.3,0.2832,1.8999999999999773,0.3999999999999915,56.96,2.770000000000003,1.400372545780534,-0.23351954785515497,climb,False,
28.7,FLT_005,57.2,11.48,8.0,0.944,358.492,53.69,55.8,54.46,55.34,51.529,96.0,0.2439,-7.59999999999998,0.40000000000000924,55.8,2.1099999999999994,-0.206530855807913,-0.8855945093293583,descent,False,
28.8,FLT_005,57.17,11.52,8.0,2.487,358.602,52.85,56.25,55.52,56.73,51.562,95.6,0.3237,-0.30000000000001137,0.3999999999999915,56.73,3.8799999999999955,1.039088018036303,0.4868196721376815,cruise,False,
28.9,FLT_005,57.31,11.56,8.0,0.25,358.652,54.48,54.21,55.26,54.26,51.27,96.3,0.2453,1.4000000000000057,0.40000000000000924,55.26,1.0499999999999972,-0.93600724265401,-0.9059551691220109,climb,False,
29.0,FLT_005,57.73,11.6,8.0,2.955,358.797,53.62,56.28,54.64,54.35,51.338,96.0,0.3811,4.199999999999946,0.3999999999999915,56.28,2.6600000000000037,0.4604694720536068,1.4304667306369168,climb,False,
29.1,FLT_005,58.19,11.64,8.0,2.036,358.765,54.63,55.29,54.44,54.86,51.585,96.3,0.1875,4.6000000000000085,0.40000000000000924,55.29,0.8500000000000014,-0.8974225467448345,-1.8418454399600581,climb,False,
29.2,FLT_005,58.62,11.68,8.0,-2.411,358.723,55.13,56.5,55.32,54.11,51.479,96.2,0.3284,4.299999999999997,0.3999999999999915,56.5,2.3900000000000006,0.7328366584567549,0.5241365535014509,climb,False,
29.3,FLT_005,58.72,11.72,8.0,-0.077,358.801,55.13,56.57,56.15,53.19,51.427,95.6,0.2624,1.0000000000000142,0.40000000000000924,56.57,3.3800000000000026,0.796845157328443,-0.5705227048696276,climb,False,
29.4,FLT_005,58.88,11.76,8.0,-1.349,358.951,54.96,56.81,55.63,55.61,51.327,95.1,0.3411,1.600000000000037,0.3999999999999915,56.81,1.8500000000000014,1.0981706889805027,0.7797989213478268,climb,False,
29.5,FLT_005,58.94,11.8,8.0,-0.232,358.874,55.7,56.06,55.75,56.08,51.333,95.8,0.2861,0.5999999999999517,0.40000000000000924,56.08,0.37999999999999545,0.11232498175316148,-0.18805926087270128,climb,False,
29.6,FLT_005,59.14,11.84,8.0,-0.6,358.844,54.0,54.25,55.01,53.61,51.282,95.9,0.2908,2.0000000000000284,0.3999999999999915,55.01,1.3999999999999986,-1.278180469659759,-0.08611236005453685,climb,False,
29.7,FLT_005,59.33,11.88,8.0,2.043,358.838,54.52,54.11,54.38,55.18,51.312,95.4,0.3082,1.8999999999999773,0.40000000000000924,55.18,1.0700000000000003,-1.009518782360628,0.2222793373913131,climb,False,
29.8,FLT_005,59.4,11.92,8.0,0.309,358.929,53.97,53.48,55.13,54.56,51.488,95.8,0.3723,0.7000000000000028,0.3999999999999915,55.13,1.6500000000000057,-1.0680508051978912,1.3478109218927363,climb,False,
29.9,FLT_005,59.67,11.96,8.0,-3.888,358.876,54.89,55.05,55.2,55.32,51.548,95.8,0.3671,2.7000000000000313,0.40000000000000924,55.32,0.4299999999999997,-0.7821044587680751,1.2369538630598862,climb,False,
