timestamp_s,flight_id,altitude_m,airspeed_ms,pitch_deg,roll_deg,yaw_deg,motor1_temp_c,motor2_temp_c,motor3_temp_c,motor4_temp_c,battery_v,battery_pct,vibration_g
0.0,FLT_004,0.51,0.0,8.0,0.579,0.182,57.12,55.68,54.47,56.5,52.0,99.8,0.2665
0.1,FLT_004,0.0,0.04,8.0,-1.781,0.221,56.57,56.9,55.87,56.49,51.974,100.0,0.3707
0.2,FLT_004,0.19,0.08,8.0,0.906,0.187,54.38,55.81,55.46,54.54,51.984,99.8,0.3433
0.3,FLT_004,0.64,0.12,8.0,-3.102,0.266,56.57,55.1,55.83,56.68,51.965,100.0,0.262
0.4,FLT_004,0.98,0.16,8.0,0.463,0.344,55.16,55.04,54.45,55.12,51.955,99.9,0.2281
0.5,FLT_004,1.32,0.2,8.0,-1.888,0.364,53.6,56.27,55.61,55.98,51.886,99.8,0.377
0.6,FLT_004,0.39,0.24,8.0,-3.67,0.53,54.69,54.56,54.89,54.21,51.854,99.4,0.2955
0.7,FLT_004,1.5,0.28,8.0,-1.383,0.441,54.68,52.97,54.85,53.5,51.988,100.0,0.374
0.8,FLT_004,1.68,0.32,8.0,1.904,0.404,56.42,55.95,54.31,53.14,51.888,99.8,0.2638
0.9,FLT_004,1.83,0.36,8.0,-0.464,0.398,54.84,55.35,53.04,53.56,51.945,100.0,0.2508
1.0,FLT_004,2.76,0.4,8.0,2.892,0.489,53.9,54.8,55.78,55.12,52.08,100.0,0.2877
1.1,FLT_004,2.48,0.44,8.0,2.59,0.488,55.57,56.6,53.42,54.92,52.082,99.3,0.2957
1.2,FLT_004,2.21,0.48,8.0,0.412,0.354,54.87,56.53,55.56,54.66,52.033,99.8,0.3203
1.3,FLT_004,2.98,0.52,8.0,-3.776,0.285,54.35,56.07,55.21,55.47,51.961,99.6,0.2839
1.4,FLT_004,2.42,0.56,8.0,1.806,0.385,57.71,55.52,55.72,55.63,51.996,100.0,0.2902
1.5,FLT_004,3.49,0.6,8.0,-0.948,0.482,56.48,54.78,55.57,55.18,51.933,100.0,0.2645
1.6,FLT_004,3.23,0.64,8.0,0.22,0.364,55.76,54.61,55.44,54.29,52.034,99.7,0.3589
1.7,FLT_004,3.57,0.68,8.0,2.401,0.328,55.7,55.86,54.59,54.64,51.856,99.6,0.3409
1.8,FLT_004,2.47,0.72,8.0,4.13,0.271,56.18,54.42,54.0,54.77,52.043,99.6,0.2668
1.9,FLT_004,3.5,0.76,8.0,-2.391,0.326,54.94,54.73,54.13,53.9,51.946,99.3,0.4546
2.0,FLT_004,4.86,0.8,8.0,-1.636,0.284,55.15,56.28,53.24,54.13,52.088,99.5,0.2333
2.1,FLT_004,4.18,0.84,8.0,-0.476,0.278,54.73,55.31,54.89,54.67,51.888,99.5,0.3545
2.2,FLT_004,4.88,0.88,8.0,0.331,0.35,54.35,53.16,53.25,53.7,51.947,100.0,0.2824
2.3,FLT_004,5.06,0.92,8.0,0.325,0.361,55.95,56.19,54.92,54.51,51.952,99.5,0.335
2.4,FLT_004,5.47,0.96,8.0,2.464,0.266,55.73,55.92,55.86,55.69,52.058,99.5,0.3755
2.5,FLT_004,5.53,1.0,8.0,-1.647,0.12,53.39,54.69,52.36,56.27,51.96,99.6,0.2849
2.6,FLT_004,5.11,1.04,8.0,-1.077,0.197,53.49,54.09,56.75,56.29,51.991,99.6,0.313
2.7,FLT_004,5.55,1.08,8.0,3.59,0.256,56.89,55.88,54.92,55.73,52.13,99.5,0.3711
2.8,FLT_004,5.24,1.12,8.0,2.207,0.159,52.38,55.51,54.95,54.79,51.847,99.4,0.3225
2.9,FLT_004,5.78,1.16,8.0,0.464,0.08,56.57,55.73,56.75,55.15,51.791,99.9,0.2359
3.0,FLT_004,5.1,1.2,8.0,-2.241,0.228,55.86,55.97,54.07,54.56,52.01,99.2,0.2436
3.1,FLT_004,5.39,1.24,8.0,1.622,0.169,52.59,53.72,54.2,55.5,51.873,99.2,0.3133
3.2,FLT_004,6.11,1.28,8.0,-5.046,0.253,55.56,55.79,52.27,55.38,52.067,99.6,0.251
3.3,FLT_004,6.68,1.32,8.0,-2.162,0.173,54.48,55.37,56.08,54.36,51.931,99.4,0.3037
3.4,FLT_004,6.85,1.36,8.0,0.219,0.029,54.8,55.55,55.05,54.06,51.907,99.7,0.3806
3.5,FLT_004,6.87,1.4,8.0,0.359,0.028,56.76,54.21,53.1,56.32,52.025,99.6,0.3561
3.6,FLT_004,6.41,1.44,8.0,-1.277,359.873,54.44,55.33,54.61,54.38,51.964,99.9,0.4099
3.7,FLT_004,6.95,1.48,8.0,-0.434,359.856,55.61,53.94,54.76,54.81,51.991,99.5,0.2768
3.8,FLT_004,7.95,1.52,8.0,-2.39,359.868,54.45,55.64,54.95,56.39,52.032,98.9,0.2649
3.9,FLT_004,8.62,1.56,8.0,-1.378,359.802,56.74,54.53,54.55,56.53,51.87,99.3,0.3341
4.0,FLT_004,7.95,1.6,8.0,-0.447,359.784,55.0,54.16,55.49,52.92,51.857,98.8,0.2864
4.1,FLT_004,7.42,1.64,8.0,0.275,359.869,55.31,53.57,55.01,54.64,51.826,99.6,0.2312
4.2,FLT_004,9.42,1.68,8.0,-1.948,359.944,55.03,55.04,55.66,55.42,51.862,99.7,0.2582
4.3,FLT_004,8.28,1.72,8.0,-1.599,359.882,54.15,56.09,54.83,56.61,51.902,99.4,0.3031
4.4,FLT_004,9.17,1.76,8.0,-2.062,359.708,56.07,54.88,56.09,53.7,51.93,99.4,0.3233
4.5,FLT_004,9.11,1.8,8.0,-1.449,359.762,54.54,54.32,54.13,54.04,51.873,99.7,0.3425
4.6,FLT_004,9.47,1.84,8.0,-1.192,359.792,57.39,55.72,55.42,55.48,51.918,98.8,0.2845
4.7,FLT_004,9.11,1.88,8.0,-2.023,359.99,57.42,53.77,53.24,55.28,51.937,98.9,0.3123
4.8,FLT_004,9.44,1.92,8.0,-4.17,359.854,54.69,54.28,54.26,54.13,51.906,99.4,0.3163
4.9,FLT_004,9.84,1.96,8.0,-1.122,359.891,54.1,55.3,55.83,53.82,51.883,99.2,0.2782
5.0,FLT_004,9.52,2.0,8.0,-0.294,359.745,54.25,56.52,53.51,54.61,52.004,99.3,0.2578
5.1,FLT_004,10.6,2.04,8.0,-1.557,359.832,54.27,55.31,54.03,55.32,51.973,99.2,0.2829
5.2,FLT_004,10.45,2.08,8.0,0.27,359.82,55.52,54.46,55.32,54.51,51.851,99.2,0.3296
5.3,FLT_004,11.04,2.12,8.0,-0.314,359.834,55.18,55.03,55.41,53.74,51.842,99.4,0.3423
5.4,FLT_004,10.71,2.16,8.0,1.871,0.003,55.35,55.59,55.37,54.69,51.769,98.7,0.3052
5.5,FLT_004,11.18,2.2,8.0,2.638,359.977,53.92,53.67,55.29,54.1,51.91,99.3,0.3387
5.6,FLT_004,11.11,2.24,8.0,-1.142,359.934,56.45,56.61,54.25,54.55,51.872,99.1,0.1811
5.7,FLT_004,11.3,2.28,8.0,-3.18,359.903,55.72,54.74,55.38,56.02,51.884,99.3,0.2525
5.8,FLT_004,10.9,2.32,8.0,-0.166,359.949,53.71,54.38,53.73,55.44,51.831,99.5,0.3109
5.9,FLT_004,12.17,2.36,8.0,2.141,359.906,54.45,55.67,53.62,53.59,51.995,99.5,0.3581
6.0,FLT_004,11.94,2.4,8.0,2.67,359.845,56.35,56.05,55.18,54.67,51.88,99.6,0.3302
6.1,FLT_004,12.86,2.44,8.0,-1.603,359.826,55.41,54.97,54.33,55.68,51.867,99.5,0.3905
6.2,FLT_004,12.71,2.48,8.0,-3.801,359.885,54.29,55.22,54.29,54.75,51.824,99.2,0.3561
6.3,FLT_004,12.05,2.52,8.0,-0.358,359.847,54.77,55.17,54.64,53.77,51.859,99.3,0.2296
6.4,FLT_004,12.04,2.56,8.0,2.257,359.861,55.54,55.03,55.25,55.75,51.991,99.1,0.337
6.5,FLT_004,13.37,2.6,8.0,0.526,359.915,56.09,55.16,55.95,56.9,51.713,98.5,0.2522
6.6,FLT_004,13.28,2.64,8.0,-0.62,359.949,54.51,55.15,56.06,55.72,52.045,99.1,0.2472
6.7,FLT_004,13.48,2.68,8.0,-0.8,359.956,52.59,56.25,53.78,55.65,51.886,98.2,0.232
6.8,FLT_004,14.72,2.72,8.0,1.765,359.922,55.7,54.89,56.07,55.15,51.862,99.0,0.2993
6.9,FLT_004,14.1,2.76,8.0,-2.487,359.972,56.07,55.23,54.6,53.98,51.888,99.1,0.2848
7.0,FLT_004,14.5,2.8,8.0,-1.782,0.044,56.46,53.77,53.51,55.63,51.879,98.8,0.267
7.1,FLT_004,14.46,2.84,8.0,0.645,359.933,55.08,54.31,55.45,56.41,51.808,99.1,0.3176
7.2,FLT_004,14.82,2.88,8.0,-2.73,0.012,55.19,53.33,55.76,53.91,51.81,98.9,0.3183
7.3,FLT_004,14.22,2.92,8.0,2.604,359.977,55.58,54.83,57.09,55.68,51.903,98.5,0.2865
7.4,FLT_004,14.52,2.96,8.0,-0.734,359.808,55.0,53.89,56.25,55.76,51.781,98.7,0.2864
7.5,FLT_004,15.9,3.0,8.0,0.681,359.712,54.37,55.56,54.41,52.57,51.722,98.4,0.2863
7.6,FLT_004,15.09,3.04,8.0,-1.084,359.68,56.34,55.36,55.23,55.06,51.821,98.8,0.2592
7.7,FLT_004,16.07,3.08,8.0,1.759,359.84,54.99,55.27,54.41,53.02,51.852,99.1,0.3363
7.8,FLT_004,15.33,3.12,8.0,0.055,359.768,54.0,55.66,53.56,55.2,51.84,98.4,0.3154
7.9,FLT_004,15.52,3.16,8.0,3.287,359.657,55.33,56.4,55.13,53.47,51.944,99.3,0.3056
8.0,FLT_004,16.63,3.2,8.0,0.7,359.705,56.47,54.28,55.37,54.72,51.715,99.1,0.3316
8.1,FLT_004,15.93,3.24,8.0,3.018,359.846,55.32,53.78,55.72,54.99,51.843,98.5,0.2838
8.2,FLT_004,16.2,3.28,8.0,-4.086,359.997,54.28,56.69,53.34,55.38,51.884,98.3,0.2962
8.3,FLT_004,16.43,3.32,8.0,7.211,359.973,53.6,56.33,54.99,55.36,51.887,98.8,0.3522
8.4,FLT_004,17.01,3.36,8.0,-3.236,359.844,55.69,55.93,54.96,56.03,51.811,99.1,0.1982
8.5,FLT_004,16.75,3.4,8.0,1.307,359.769,55.09,53.88,56.99,54.64,51.984,98.4,0.2302
8.6,FLT_004,17.31,3.44,8.0,1.834,359.722,55.81,56.86,55.21,52.75,52.047,99.2,0.3441
8.7,FLT_004,17.81,3.48,8.0,1.996,359.629,54.37,54.66,55.0,55.83,51.874,98.5,0.3153
8.8,FLT_004,17.73,3.52,8.0,-2.097,359.668,56.08,54.49,53.85,54.49,51.794,98.7,0.2377
8.9,FLT_004,17.73,3.56,8.0,-1.502,359.927,55.82,55.91,55.48,54.8,51.732,98.2,0.358
9.0,FLT_004,19.28,3.6,8.0,-0.674,359.769,54.0,53.53,52.3,55.31,51.563,98.8,0.3448
9.1,FLT_004,18.97,3.64,8.0,1.374,359.792,54.79,56.88,55.18,54.19,51.758,98.9,0.3062
9.2,FLT_004,18.58,3.68,8.0,2.133,359.714,54.66,54.9,53.65,55.13,51.859,99.3,0.2416
9.3,FLT_004,17.29,3.72,8.0,-0.714,359.546,52.12,57.3,57.57,56.35,51.637,98.6,0.3351
9.4,FLT_004,19.2,3.76,8.0,1.122,359.685,55.63,55.76,54.35,54.36,51.87,99.1,0.2953
9.5,FLT_004,18.9,3.8,8.0,-0.289,359.66,55.44,55.27,53.87,55.13,51.749,98.5,0.3209
9.6,FLT_004,18.89,3.84,8.0,-1.162,359.623,53.64,56.16,54.18,56.89,51.818,98.1,0.2483
9.7,FLT_004,19.55,3.88,8.0,2.432,359.841,55.57,54.57,53.82,54.36,51.726,98.3,0.2675
9.8,FLT_004,19.74,3.92,8.0,-1.16,359.777,54.31,55.84,55.05,53.47,51.924,98.5,0.2049
9.9,FLT_004,20.1,3.96,8.0,0.832,359.87,56.05,53.77,55.47,52.96,51.834,98.7,0.2837
10.0,FLT_004,20.23,4.0,8.0,2.108,359.844,54.94,54.09,56.4,56.1,51.901,97.7,0.3269
10.1,FLT_004,21.08,4.04,8.0,2.788,359.84,55.43,54.37,55.03,54.63,51.582,98.5,0.2109
10.2,FLT_004,20.41,4.08,8.0,-2.681,359.817,55.31,55.58,53.29,55.28,51.841,98.3,0.233
10.3,FLT_004,21.47,4.12,8.0,1.541,359.923,56.18,56.17,55.68,55.05,51.913,98.4,0.2486
10.4,FLT_004,21.35,4.16,8.0,-0.964,0.039,55.22,57.64,55.53,53.2,51.786,98.4,0.3193
10.5,FLT_004,21.48,4.2,8.0,-0.476,0.177,54.8,55.01,53.97,57.12,51.628,97.7,0.2693
10.6,FLT_004,21.55,4.24,8.0,-2.421,0.328,55.89,56.25,56.05,53.86,51.797,98.6,0.3309
10.7,FLT_004,21.98,4.28,8.0,3.801,0.549,55.1,55.19,53.77,56.08,51.836,98.8,0.2783
10.8,FLT_004,21.41,4.32,8.0,-1.067,0.501,54.51,54.12,55.1,54.42,51.751,97.8,0.3433
10.9,FLT_004,21.91,4.36,8.0,-1.543,0.504,53.67,54.43,52.59,55.3,52.125,97.9,0.2952
11.0,FLT_004,21.3,4.4,8.0,-1.543,0.543,55.3,55.2,55.15,54.16,51.665,98.0,0.2235
11.1,FLT_004,23.03,4.44,8.0,-1.88,0.652,53.61,54.94,53.89,56.27,51.772,98.2,0.2011
11.2,FLT_004,22.61,4.48,8.0,0.576,0.501,54.27,55.05,53.66,54.23,51.682,97.9,0.2785
11.3,FLT_004,23.78,4.52,8.0,0.501,0.485,54.79,53.88,54.49,54.21,51.655,97.9,0.4466
11.4,FLT_004,23.3,4.56,8.0,0.145,0.405,55.92,54.42,55.41,55.3,51.829,98.2,0.3162
11.5,FLT_004,23.01,4.6,8.0,-0.262,0.467,55.78,56.52,54.67,55.93,51.842,98.4,0.2733
11.6,FLT_004,23.47,4.64,8.0,0.736,0.399,54.16,52.59,53.84,55.74,51.631,98.7,0.2991
11.7,FLT_004,23.56,4.68,8.0,-0.282,0.488,55.51,52.67,55.97,54.83,51.939,98.2,0.2572
11.8,FLT_004,24.15,4.72,8.0,-0.013,0.421,55.35,53.7,55.7,56.81,51.689,98.4,0.4004
11.9,FLT_004,23.3,4.76,8.0,0.177,0.435,55.64,54.35,55.19,55.81,51.657,98.0,0.28
12.0,FLT_004,23.95,4.8,8.0,-3.946,0.326,54.85,54.62,54.04,53.19,51.708,98.1,0.2931
12.1,FLT_004,24.19,4.84,8.0,-1.029,0.231,54.67,56.31,55.59,55.83,51.765,98.0,0.2448
12.2,FLT_004,24.33,4.88,8.0,-1.726,0.221,56.08,54.61,55.71,56.2,51.579,98.3,0.2463
12.3,FLT_004,24.7,4.92,8.0,3.742,0.394,52.89,55.12,54.21,55.3,51.687,98.4,0.2879
12.4,FLT_004,25.56,4.96,8.0,-0.83,0.514,55.14,54.29,55.64,55.81,51.8,97.8,0.385
12.5,FLT_004,24.08,5.0,8.0,-1.57,0.627,54.0,56.05,55.44,54.95,51.762,97.8,0.2406
12.6,FLT_004,24.56,5.04,8.0,-1.405,0.629,56.08,55.91,56.1,56.32,51.597,97.6,0.3303
12.7,FLT_004,25.82,5.08,8.0,-1.591,0.606,54.38,55.73,57.75,55.09,51.828,98.2,0.4004
12.8,FLT_004,25.3,5.12,8.0,1.165,0.716,52.87,55.99,55.72,54.98,51.719,97.9,0.2648
12.9,FLT_004,24.97,5.16,8.0,3.272,0.8,55.64,53.96,53.2,54.99,51.72,97.4,0.4261
13.0,FLT_004,25.74,5.2,8.0,-0.308,0.815,55.33,55.02,54.88,53.01,51.738,98.1,0.2994
13.1,FLT_004,26.9,5.24,8.0,1.861,0.821,54.97,55.03,55.3,53.56,51.697,97.6,0.2805
13.2,FLT_004,26.14,5.28,8.0,-1.407,1.006,56.04,55.96,54.58,56.78,51.598,98.3,0.2954
13.3,FLT_004,26.46,5.32,8.0,-2.316,0.932,54.65,55.8,53.77,53.98,51.598,98.3,0.3261
13.4,FLT_004,25.98,5.36,8.0,3.032,0.995,54.78,56.34,55.28,55.78,51.645,98.2,0.4031
13.5,FLT_004,27.28,5.4,8.0,-1.516,1.068,54.78,55.46,56.41,54.44,51.705,97.8,0.4065
13.6,FLT_004,27.08,5.44,8.0,-0.618,1.109,56.52,54.61,54.59,54.32,51.789,97.9,0.2804
13.7,FLT_004,27.39,5.48,8.0,-0.495,1.026,54.97,54.6,54.94,53.57,51.702,97.6,0.2291
13.8,FLT_004,27.97,5.52,8.0,-0.552,1.087,55.28,55.13,56.07,55.45,51.637,97.9,0.2778
13.9,FLT_004,27.5,5.56,8.0,1.947,1.087,54.92,53.67,55.34,54.98,51.641,97.1,0.2501
14.0,FLT_004,28.39,5.6,8.0,-0.173,1.1,54.87,55.65,56.12,56.12,51.591,98.3,0.2453
14.1,FLT_004,28.99,5.64,8.0,0.824,1.222,55.86,54.92,53.6,54.51,51.748,97.8,0.2491
14.2,FLT_004,28.46,5.68,8.0,1.961,1.251,54.23,55.54,55.12,56.81,51.656,97.5,0.2821
14.3,FLT_004,28.71,5.72,8.0,0.57,1.224,56.16,55.57,53.99,54.23,51.712,97.8,0.3165
14.4,FLT_004,29.47,5.76,8.0,2.835,1.339,53.67,55.35,53.75,55.49,51.664,97.6,0.2632
14.5,FLT_004,29.17,5.8,8.0,-0.387,1.394,53.64,56.03,53.53,53.33,51.731,97.1,0.2898
14.6,FLT_004,28.77,5.84,8.0,-2.482,1.215,54.76,56.03,54.45,53.33,51.593,97.6,0.301
14.7,FLT_004,30.04,5.88,8.0,0.238,1.281,54.48,55.43,54.39,53.0,51.699,97.6,0.2683
14.8,FLT_004,29.93,5.92,8.0,1.264,1.199,54.04,55.73,56.8,54.63,51.603,97.7,0.3142
14.9,FLT_004,28.96,5.96,8.0,2.769,1.118,54.39,54.33,54.68,55.96,51.769,97.6,0.2937
15.0,FLT_004,30.73,6.0,8.0,-5.744,1.015,55.91,56.0,55.91,53.93,51.601,97.8,0.3241
15.1,FLT_004,30.26,6.04,8.0,0.256,1.124,54.05,56.54,53.23,54.9,51.627,97.8,0.2478
15.2,FLT_004,30.09,6.08,8.0,-0.388,1.153,53.87,54.62,54.37,53.79,51.671,97.6,0.3126
15.3,FLT_004,29.85,6.12,8.0,-0.839,1.295,54.88,55.57,55.08,54.9,51.709,97.8,0.2798
15.4,FLT_004,30.96,6.16,8.0,-0.299,1.202,55.73,55.2,54.6,56.21,51.689,97.4,0.2986
15.5,FLT_004,31.19,6.2,8.0,-2.133,1.232,54.67,56.77,54.91,56.19,51.838,97.4,0.2457
15.6,FLT_004,31.18,6.24,8.0,0.202,1.229,53.8,55.19,54.96,55.92,51.689,97.1,0.3887
15.7,FLT_004,31.17,6.28,8.0,-1.253,1.391,53.76,56.61,54.59,55.02,51.729,97.4,0.2751
15.8,FLT_004,31.22,6.32,8.0,-4.324,1.295,55.62,52.76,55.61,56.1,51.543,97.1,0.3504
15.9,FLT_004,32.7,6.36,8.0,-0.274,1.352,54.98,55.86,55.5,55.94,51.731,97.3,0.3017
16.0,FLT_004,32.18,6.4,8.0,-0.469,1.339,55.14,55.95,54.74,55.2,51.528,97.1,0.3853
16.1,FLT_004,32.41,6.44,8.0,-0.799,1.41,55.63,53.42,55.4,54.95,51.689,97.9,0.3304
16.2,FLT_004,33.28,6.48,8.0,-0.426,1.378,55.3,54.45,53.07,54.95,51.666,97.3,0.3456
16.3,FLT_004,32.77,6.52,8.0,-2.189,1.334,55.47,54.61,55.45,53.97,51.895,97.4,0.2806
16.4,FLT_004,32.37,6.56,8.0,2.412,1.266,54.19,55.37,55.13,55.21,51.847,97.6,0.3212
16.5,FLT_004,33.03,6.6,8.0,-3.049,1.217,54.75,53.6,55.58,54.57,51.627,97.4,0.3965
16.6,FLT_004,33.52,6.64,8.0,-2.292,1.195,52.36,54.61,55.85,53.57,51.651,97.5,0.3065
16.7,FLT_004,34.23,6.68,8.0,-0.793,1.104,53.81,55.37,55.61,55.9,51.607,97.2,0.2219
16.8,FLT_004,33.03,6.72,8.0,-0.229,1.063,54.96,53.89,54.08,56.69,51.619,97.4,0.252
16.9,FLT_004,33.75,6.76,8.0,-5.553,0.963,55.59,56.51,54.7,53.79,51.462,97.5,0.2535
17.0,FLT_004,33.94,6.8,8.0,0.218,1.051,55.1,54.21,55.77,57.78,51.56,97.4,0.2943
17.1,FLT_004,34.7,6.84,8.0,4.436,0.977,54.98,55.44,54.01,53.91,51.552,96.9,0.2478
17.2,FLT_004,34.68,6.88,8.0,-0.314,0.984,54.71,56.63,55.33,55.0,51.621,97.6,0.3402
17.3,FLT_004,34.95,6.92,8.0,-1.882,1.136,55.1,53.62,56.14,55.81,51.532,96.9,0.1748
17.4,FLT_004,33.9,6.96,8.0,5.852,1.156,54.1,55.14,54.77,55.87,51.687,97.4,0.3694
17.5,FLT_004,34.65,7.0,8.0,-0.687,1.122,57.31,54.44,55.57,55.61,51.602,97.1,0.2856
17.6,FLT_004,35.4,7.04,8.0,-1.7,1.206,54.82,54.47,55.43,54.66,51.55,98.0,0.2504
17.7,FLT_004,35.65,7.08,8.0,2.356,0.981,55.22,56.2,54.11,54.43,51.566,97.5,0.2353
17.8,FLT_004,35.67,7.12,8.0,-2.397,1.002,55.48,55.24,54.62,55.37,51.556,97.6,0.2598
17.9,FLT_004,36.56,7.16,8.0,1.14,0.886,56.57,55.69,55.05,55.36,51.466,97.3,0.2683
18.0,FLT_004,36.2,7.2,8.0,-1.745,0.649,53.25,54.3,55.67,55.38,51.538,96.9,0.2956
18.1,FLT_004,35.46,7.24,8.0,1.422,0.699,55.5,55.17,54.59,56.53,51.52,97.1,0.3053
18.2,FLT_004,36.58,7.28,8.0,-3.853,0.866,55.63,54.81,57.95,55.36,51.649,97.0,0.3306
18.3,FLT_004,36.28,7.32,8.0,-1.797,0.966,56.62,54.66,57.11,55.5,51.508,96.9,0.2822
18.4,FLT_004,37.0,7.36,8.0,1.544,0.835,55.42,55.44,54.73,57.06,51.552,97.2,0.2853
18.5,FLT_004,36.1,7.4,8.0,2.691,0.789,56.61,52.29,55.81,54.7,51.644,97.3,0.2787
18.6,FLT_004,36.78,7.44,8.0,0.992,0.857,53.82,53.59,56.28,54.84,51.613,97.7,0.2269
18.7,FLT_004,38.11,7.48,8.0,2.109,0.826,53.89,53.43,53.25,54.84,51.649,96.8,0.3654
18.8,FLT_004,37.93,7.52,8.0,-2.664,0.925,55.37,54.75,53.81,55.38,51.574,96.4,0.3106
18.9,FLT_004,38.5,7.56,8.0,0.823,1.077,55.68,52.9,55.22,54.5,51.571,97.0,0.3386
19.0,FLT_004,37.92,7.6,8.0,1.934,1.308,55.21,55.06,55.45,53.94,51.713,97.5,0.2839
19.1,FLT_004,38.91,7.64,8.0,1.096,1.223,55.72,55.98,55.24,53.72,51.358,97.2,0.3449
19.2,FLT_004,38.09,7.68,8.0,0.157,1.088,54.78,55.61,54.91,54.09,51.661,96.9,0.269
19.3,FLT_004,38.78,7.72,8.0,-1.723,1.196,53.76,55.02,55.89,53.82,51.624,96.8,0.3316
19.4,FLT_004,38.97,7.76,8.0,3.97,1.081,55.43,55.13,54.12,55.08,51.793,97.1,0.3217
19.5,FLT_004,39.77,7.8,8.0,-0.757,1.125,54.97,55.13,53.59,53.8,51.55,96.6,0.239
19.6,FLT_004,38.04,7.84,8.0,-1.318,1.182,57.25,56.02,54.47,54.32,51.608,97.1,0.3693
19.7,FLT_004,39.57,7.88,8.0,-1.473,1.018,54.68,56.08,54.94,55.12,51.511,96.7,0.2819
19.8,FLT_004,40.16,7.92,8.0,0.242,1.119,55.18,54.45,56.21,54.48,51.532,96.6,0.373
19.9,FLT_004,39.29,7.96,8.0,-0.816,1.18,53.99,55.77,54.89,56.31,51.485,96.8,0.2606
20.0,FLT_004,39.75,8.0,8.0,1.907,1.015,54.55,54.43,53.95,55.38,51.568,97.0,0.2747
20.1,FLT_004,39.47,8.04,8.0,-2.41,0.913,55.94,53.92,55.49,55.58,51.428,96.7,0.3468
20.2,FLT_004,40.65,8.08,8.0,4.011,1.097,54.87,54.93,55.39,55.03,51.455,96.5,0.2689
20.3,FLT_004,40.4,8.12,8.0,4.123,1.103,54.25,53.47,56.4,54.89,51.583,96.2,0.2555
20.4,FLT_004,40.63,8.16,8.0,2.285,1.242,55.3,54.64,54.86,55.24,51.449,96.8,0.3107
20.5,FLT_004,41.68,8.2,8.0,-1.843,1.232,54.01,54.72,55.53,53.94,51.663,96.6,0.4147
20.6,FLT_004,41.32,8.24,8.0,0.486,1.283,55.38,55.65,55.81,55.44,51.552,96.7,0.3106
20.7,FLT_004,40.47,8.28,8.0,1.275,1.196,56.41,54.33,54.17,55.45,51.496,96.7,0.3192
20.8,FLT_004,41.75,8.32,8.0,1.532,1.114,54.53,54.34,55.03,54.26,51.501,97.0,0.278
20.9,FLT_004,41.33,8.36,8.0,-3.597,0.996,55.17,56.1,54.53,55.79,51.512,97.0,0.3965
21.0,FLT_004,41.54,8.4,8.0,-0.851,1.043,55.08,55.92,56.52,55.19,51.452,96.8,0.295
21.1,FLT_004,41.61,8.44,8.0,-2.132,1.093,55.2,55.12,55.77,54.67,51.672,96.6,0.2591
21.2,FLT_004,42.45,8.48,8.0,2.034,1.108,57.65,55.0,55.16,55.15,51.623,97.1,0.2964
21.3,FLT_004,42.32,8.52,8.0,0.744,1.196,53.65,53.85,55.59,54.32,51.511,96.4,0.3509
21.4,FLT_004,42.57,8.56,8.0,0.948,1.312,55.82,52.81,56.69,56.32,51.476,96.7,0.3286
21.5,FLT_004,43.31,8.6,8.0,-4.308,1.41,54.17,56.7,55.54,53.73,51.533,96.7,0.3
21.6,FLT_004,43.76,8.64,8.0,-1.547,1.37,55.0,54.0,54.48,53.61,51.539,96.4,0.3025
21.7,FLT_004,42.69,8.68,8.0,0.489,1.48,57.03,54.03,55.16,54.56,51.507,96.8,0.3062
21.8,FLT_004,42.33,8.72,8.0,1.037,1.556,54.69,54.73,54.89,53.89,51.541,96.5,0.2947
21.9,FLT_004,43.96,8.76,8.0,0.041,1.466,53.87,55.06,53.63,54.88,51.393,96.5,0.2582
22.0,FLT_004,43.13,8.8,8.0,-0.262,1.354,54.22,53.07,55.59,55.65,51.45,96.9,0.2916
22.1,FLT_004,43.52,8.84,8.0,0.669,1.43,53.1,54.11,54.68,56.35,51.405,96.4,0.3872
22.2,FLT_004,44.16,8.88,8.0,-0.094,1.425,56.38,54.34,55.75,54.54,51.358,96.5,0.3354
22.3,FLT_004,45.02,8.92,8.0,1.242,1.582,53.68,56.96,53.68,55.63,51.407,96.6,0.3095
22.4,FLT_004,45.43,8.96,8.0,4.259,1.578,55.27,53.35,54.04,55.71,51.692,96.9,0.347
22.5,FLT_004,44.7,9.0,8.0,2.861,1.539,54.98,55.34,54.62,56.85,51.603,96.2,0.4549
22.6,FLT_004,44.83,9.04,8.0,0.11,1.686,54.22,53.07,54.6,55.6,51.556,96.4,0.3631
22.7,FLT_004,44.85,9.08,8.0,0.412,1.555,55.05,55.23,54.01,57.21,51.565,96.2,0.3137
22.8,FLT_004,45.61,9.12,8.0,-1.516,1.646,54.47,55.28,56.58,52.46,51.465,96.8,0.3376
22.9,FLT_004,45.68,9.16,8.0,0.259,1.663,55.23,55.18,54.21,55.13,51.516,96.7,0.2934
23.0,FLT_004,45.57,9.2,8.0,1.666,1.523,55.11,54.7,55.68,54.92,51.549,96.0,0.3208
23.1,FLT_004,46.88,9.24,8.0,0.486,1.468,55.57,55.97,56.12,54.19,51.4,96.2,0.2619
23.2,FLT_004,45.01,9.28,8.0,2.2,1.385,55.17,53.7,54.06,54.69,51.535,96.9,0.3562
23.3,FLT_004,46.35,9.32,8.0,-1.86,1.429,55.0,54.12,54.41,54.72,51.43,96.3,0.4045
23.4,FLT_004,47.4,9.36,8.0,0.172,1.449,54.16,56.61,56.79,53.41,51.495,95.8,0.2563
23.5,FLT_004,46.54,9.4,8.0,2.411,1.218,56.61,53.41,54.86,54.94,51.323,96.2,0.329
23.6,FLT_004,48.07,9.44,8.0,1.88,1.273,54.68,54.19,54.59,53.8,51.503,96.3,0.343
23.7,FLT_004,47.19,9.48,8.0,0.337,1.328,55.73,53.35,55.27,53.22,51.587,96.3,0.2757
23.8,FLT_004,47.9,9.52,8.0,-1.002,1.273,55.45,54.52,55.09,54.52,51.471,95.8,0.4248
23.9,FLT_004,47.99,9.56,8.0,0.225,1.242,53.93,55.65,53.91,54.3,51.472,96.0,0.2844
24.0,FLT_004,48.2,9.6,8.0,-1.966,1.332,55.05,55.17,55.44,53.65,51.526,96.6,0.3474
24.1,FLT_004,48.32,9.64,8.0,-1.862,1.306,55.25,57.03,55.87,55.95,51.436,96.3,0.2622
24.2,FLT_004,47.73,9.68,8.0,1.831,1.191,53.95,53.82,56.18,53.87,51.48,96.1,0.2964
24.3,FLT_004,48.66,9.72,8.0,1.543,1.207,57.15,53.46,56.39,54.54,51.465,96.0,0.3003
24.4,FLT_004,49.29,9.76,8.0,-0.893,1.246,53.37,55.18,53.94,54.89,51.406,96.5,0.3298
24.5,FLT_004,49.7,9.8,8.0,1.63,1.208,55.95,52.28,54.87,55.68,51.496,96.2,0.3166
24.6,FLT_004,49.48,9.84,8.0,0.525,1.143,54.07,54.77,53.74,53.93,51.345,95.8,0.3535
24.7,FLT_004,48.09,9.88,8.0,1.129,1.249,55.05,55.43,55.36,55.68,51.473,96.2,0.2696
24.8,FLT_004,49.34,9.92,8.0,1.463,1.163,54.2,54.75,54.83,54.5,51.614,96.1,0.3391
24.9,FLT_004,49.56,9.96,8.0,0.19,1.191,53.48,54.82,56.87,56.01,51.387,96.0,0.3001
25.0,FLT_004,49.05,10.0,8.0,-1.119,1.326,53.46,54.69,55.65,56.03,51.511,95.9,0.3229
25.1,FLT_004,50.38,10.04,8.0,2.67,1.267,54.48,53.65,55.54,55.97,51.495,96.1,0.264
25.2,FLT_004,50.66,10.08,8.0,-1.668,1.104,54.43,55.29,54.65,56.39,51.608,95.5,0.2979
25.3,FLT_004,51.09,10.12,8.0,-2.305,1.086,53.81,56.93,54.51,54.1,51.387,95.9,0.2136
25.4,FLT_004,50.6,10.16,8.0,-2.134,1.03,55.93,54.76,55.5,54.97,51.44,96.2,0.2331
25.5,FLT_004,50.95,10.2,8.0,0.364,1.035,54.64,54.21,55.82,53.3,51.237,95.9,0.2843
25.6,FLT_004,51.41,10.24,8.0,-1.626,1.098,55.23,56.66,55.06,54.52,51.593,96.0,0.3435
25.7,FLT_004,51.12,10.28,8.0,1.846,0.999,56.46,55.17,57.13,53.7,51.521,96.2,0.341
25.8,FLT_004,50.54,10.32,8.0,-0.854,0.976,53.91,54.6,55.44,56.33,51.398,96.3,0.3933
25.9,FLT_004,51.57,10.36,8.0,-1.334,0.993,55.84,54.69,54.81,56.17,51.22,95.4,0.3132
26.0,FLT_004,51.46,10.4,8.0,2.017,0.949,54.37,54.46,55.34,55.1,51.298,96.0,0.3031
26.1,FLT_004,52.25,10.44,8.0,3.644,1.062,56.12,54.71,54.62,55.23,51.329,96.1,0.2773
26.2,FLT_004,52.91,10.48,8.0,0.533,0.867,54.68,56.08,55.91,54.04,51.445,95.9,0.3475
26.3,FLT_004,51.82,10.52,8.0,1.041,1.034,54.75,53.53,55.7,56.59,51.396,96.3,0.2704
26.4,FLT_004,52.32,10.56,8.0,-1.411,1.178,53.34,54.27,53.91,54.7,51.525,96.4,0.2863
26.5,FLT_004,53.61,10.6,8.0,-0.985,1.237,56.15,53.91,54.92,55.28,51.272,95.3,0.276
26.6,FLT_004,53.48,10.64,8.0,1.427,1.215,53.24,55.13,54.61,56.43,51.595,96.1,0.3552
26.7,FLT_004,53.73,10.68,8.0,3.058,1.21,55.72,54.71,54.47,53.34,51.68,95.9,0.3287
26.8,FLT_004,53.78,10.72,8.0,0.287,1.391,54.93,54.77,54.9,55.86,51.362,95.4,0.3295
26.9,FLT_004,53.89,10.76,8.0,1.073,1.473,55.2,55.26,55.68,54.79,51.545,95.6,0.2952
27.01,FLT_004,53.7,10.8,8.0,-5.17,1.644,54.64,53.74,56.8,55.64,51.454,95.9,0.2636
27.11,FLT_004,53.78,10.84,8.0,1.682,1.616,54.33,55.97,56.37,54.95,51.308,95.6,0.2985
27.21,FLT_004,54.33,10.88,8.0,1.127,1.552,55.63,54.8,53.85,54.02,51.404,95.3,0.2924
27.31,FLT_004,55.8,10.92,8.0,-2.688,1.576,55.72,54.55,53.14,55.06,51.3,96.0,0.3383
27.41,FLT_004,54.59,10.96,8.0,-2.596,1.533,56.4,55.24,54.74,54.8,51.207,95.6,0.2481
27.51,FLT_004,54.45,11.0,8.0,1.209,1.595,54.15,55.24,55.85,55.33,51.305,95.7,0.3164
27.61,FLT_004,56.0,11.04,8.0,0.234,1.465,55.98,54.31,55.39,54.59,51.227,95.8,0.3467
27.71,FLT_004,55.46,11.08,8.0,-1.389,1.589,54.66,55.47,55.61,55.76,51.418,95.1,0.3694
27.81,FLT_004,56.0,11.12,8.0,0.76,1.583,54.86,54.06,56.18,55.69,51.539,95.3,0.3343
27.91,FLT_004,55.87,11.16,8.0,2.385,1.646,55.72,55.95,53.19,55.11,51.278,95.9,0.2533
28.01,FLT_004,56.34,11.2,8.0,2.994,1.543,54.94,55.08,55.19,54.45,51.391,95.5,0.3333
28.11,FLT_004,57.46,11.24,8.0,-0.558,1.465,56.34,55.47,55.1,55.33,51.534,95.3,0.2668
28.21,FLT_004,55.74,11.28,8.0,-0.112,1.452,54.38,55.62,55.79,55.91,51.376,95.8,0.292
28.31,FLT_004,57.22,11.32,8.0,1.209,1.497,55.47,56.2,54.04,55.16,51.424,95.5,0.3364
28.41,FLT_004,56.34,11.36,8.0,-3.312,1.414,55.88,54.92,53.36,57.39,51.34,95.2,0.3596
28.51,FLT_004,57.44,11.4,8.0,2.073,1.532,56.13,55.18,54.42,54.69,51.376,96.3,0.2779
28.61,FLT_004,56.58,11.44,8.0,4.508,1.711,52.22,56.41,54.37,55.02,51.381,95.0,0.2583
28.71,FLT_004,57.57,11.48,8.0,-1.503,1.678,56.43,54.74,54.73,53.99,51.341,95.2,0.2774
28.81,FLT_004,57.86,11.52,8.0,-0.479,1.737,54.01,53.56,55.03,54.78,51.424,95.4,0.2353
28.91,FLT_004,57.52,11.56,8.0,3.188,1.615,53.63,55.49,54.42,54.02,51.351,95.1,0.1692
29.01,FLT_004,57.69,11.6,8.0,2.426,1.622,54.43,54.66,55.27,55.29,51.356,95.5,0.3272
29.11,FLT_004,58.78,11.64,8.0,3.168,1.692,54.05,55.3,54.65,55.13,51.205,95.2,0.2856
29.21,FLT_004,58.06,11.68,8.0,-0.352,1.708,55.53,53.86,54.3,55.32,51.263,95.8,0.2381
29.31,FLT_004,58.03,11.72,8.0,-3.52,1.715,53.61,54.34,54.41,55.18,51.227,95.5,0.2888
29.41,FLT_004,58.48,11.76,8.0,3.705,1.755,54.05,56.36,55.56,53.76,51.295,95.8,0.2453
29.51,FLT_004,59.44,11.8,8.0,-1.249,1.68,54.13,55.19,55.68,55.39,51.396,95.4,0.3237
29.61,FLT_004,59.3,11.84,8.0,-2.306,1.489,54.3,54.47,54.67,53.86,51.329,95.0,0.2921
29.71,FLT_004,60.42,11.88,8.0,4.089,1.597,54.67,53.66,55.5,55.41,51.35,94.7,0.3474
29.81,FLT_004,59.48,11.92,8.0,2.12,1.817,53.43,53.08,54.65,55.16,51.345,94.7,0.2746
29.91,FLT_004,59.82,11.96,8.0,-0.531,1.773,56.12,54.25,53.16,55.99,51.261,96.4,0.3423
30.01,FLT_004,59.57,12.0,8.0,4.012,1.912,55.42,56.61,54.38,56.66,51.367,95.2,0.3291
30.11,FLT_004,59.38,12.04,8.0,-0.841,1.954,55.64,55.94,56.73,54.64,51.37,94.8,0.2498
30.21,FLT_004,60.22,12.08,8.0,0.916,1.817,54.14,55.97,54.63,54.88,51.515,95.3,0.2761
30.31,FLT_004,59.76,12.12,8.0,2.603,1.734,55.08,54.95,55.08,53.48,51.374,95.3,0.3182
30.41,FLT_004,60.84,12.16,8.0,0.18,1.695,56.4,54.68,52.13,54.38,51.436,95.1,0.3324
30.51,FLT_004,60.66,12.2,8.0,-1.412,1.92,54.28,53.99,54.31,55.71,51.262,95.7,0.2864
30.61,FLT_004,61.21,12.24,8.0,-0.092,1.981,55.58,53.47,53.57,54.22,51.287,95.3,0.3184
30.71,FLT_004,61.87,12.28,8.0,-2.016,2.104,52.11,55.39,56.36,55.19,51.273,95.2,0.3115
30.81,FLT_004,61.1,12.32,8.0,-0.113,2.058,55.31,54.56,54.41,54.38,51.227,94.9,0.3441
30.91,FLT_004,62.32,12.36,8.0,-0.182,2.256,54.54,53.77,53.55,55.3,51.282,95.2,0.3162
31.01,FLT_004,62.19,12.4,8.0,1.962,2.35,53.87,55.18,54.23,53.28,51.248,94.7,0.3444
31.11,FLT_004,62.14,12.44,8.0,-0.796,2.402,54.77,54.92,53.15,54.33,51.443,95.2,0.3108
31.21,FLT_004,62.36,12.48,8.0,1.633,2.412,53.71,55.29,55.2,55.73,51.244,95.1,0.3389
31.31,FLT_004,63.3,12.52,8.0,2.71,2.43,54.34,53.78,53.36,55.0,51.336,94.4,0.3
31.41,FLT_004,61.92,12.56,8.0,0.107,2.322,56.96,57.02,55.89,55.31,51.235,94.9,0.2924
31.51,FLT_004,63.01,12.6,8.0,-0.31,2.228,55.92,57.52,55.14,55.71,51.48,94.7,0.4042
31.61,FLT_004,63.59,12.64,8.0,1.207,2.198,54.23,55.25,55.71,54.19,51.224,94.8,0.3356
31.71,FLT_004,63.57,12.68,8.0,-0.937,2.255,54.61,54.58,54.73,54.5,51.273,95.1,0.2957
31.81,FLT_004,63.33,12.72,8.0,-1.278,2.257,54.48,54.44,53.58,53.73,51.469,95.4,0.3033
31.91,FLT_004,64.92,12.76,8.0,0.048,2.206,55.95,55.76,54.9,55.48,51.46,94.9,0.3159
32.01,FLT_004,64.27,12.8,8.0,1.217,2.115,54.56,58.0,54.61,53.82,51.227,94.9,0.2417
32.11,FLT_004,64.13,12.84,8.0,-1.119,1.975,55.43,55.17,54.41,55.47,51.259,95.1,0.3164
32.21,FLT_004,64.42,12.88,8.0,-1.275,1.982,53.58,54.88,55.38,54.8,51.236,95.1,0.2534
32.31,FLT_004,63.68,12.92,8.0,-1.872,2.092,55.33,56.2,54.75,56.12,51.159,94.8,0.2959
32.41,FLT_004,64.99,12.96,8.0,0.681,2.004,54.04,55.19,54.64,53.45,51.315,94.9,0.3068
32.51,FLT_004,64.96,13.0,8.0,-0.277,2.048,52.54,54.52,54.22,53.56,51.263,95.2,0.3396
32.61,FLT_004,65.42,13.04,8.0,0.963,1.911,56.53,54.17,54.37,55.94,51.284,95.2,0.3375
32.71,FLT_004,64.77,13.08,8.0,-1.941,1.952,54.07,54.87,54.45,53.8,51.323,95.2,0.3995
32.81,FLT_004,64.52,13.12,8.0,-3.512,2.157,55.94,55.02,53.88,53.96,51.208,94.9,0.264
32.91,FLT_004,65.54,13.16,8.0,-0.455,2.326,52.7,54.16,53.44,54.51,51.081,94.9,0.3459
33.01,FLT_004,66.63,13.2,8.0,-0.525,2.319,56.51,53.97,54.31,55.14,51.212,94.6,0.3016
33.11,FLT_004,66.34,13.24,8.0,1.595,2.455,57.06,56.75,54.66,54.72,51.202,95.1,0.3351
33.21,FLT_004,66.56,13.28,8.0,-0.566,2.203,55.91,56.5,54.5,53.33,51.399,94.9,0.3327
33.31,FLT_004,65.8,13.32,8.0,-1.066,2.179,55.96,55.06,54.18,55.79,51.417,94.8,0.2828
33.41,FLT_004,66.9,13.36,8.0,1.844,1.889,53.08,56.07,56.39,53.83,51.222,94.9,0.3633
33.51,FLT_004,66.65,13.4,8.0,0.8,1.799,54.69,54.1,54.92,55.42,51.438,95.0,0.3345
33.61,FLT_004,67.86,13.44,8.0,4.683,1.826,55.16,54.4,54.53,54.64,51.229,95.0,0.2489
33.71,FLT_004,67.09,13.48,8.0,1.131,1.945,55.55,55.11,55.1,53.78,51.321,94.9,0.2642
33.81,FLT_004,67.71,13.52,8.0,-1.582,2.068,56.95,54.28,54.09,55.69,51.267,94.4,0.3331
33.91,FLT_004,68.28,13.56,8.0,1.395,2.235,54.55,55.02,54.56,56.26,51.03,94.8,0.3277
34.01,FLT_004,66.9,13.6,8.0,3.06,2.283,56.45,56.27,55.05,56.07,51.09,95.0,0.2471
34.11,FLT_004,68.04,13.64,8.0,2.751,2.17,53.72,53.59,54.86,55.04,51.093,94.5,0.253
34.21,FLT_004,68.28,13.68,8.0,0.764,2.325,54.34,53.42,56.66,55.97,51.235,94.7,0.2659
34.31,FLT_004,68.54,13.72,8.0,1.886,2.234,55.71,54.22,54.74,53.98,51.101,93.9,0.2013
34.41,FLT_004,68.71,13.76,8.0,-0.358,2.287,55.22,56.16,56.36,54.14,51.283,94.7,0.2922
34.51,FLT_004,68.61,13.8,8.0,2.665,2.364,54.91,56.46,56.21,54.02,51.397,94.4,0.1974
34.61,FLT_004,68.77,13.84,8.0,-0.954,2.385,54.78,55.06,54.57,55.42,51.243,94.3,0.1983
34.71,FLT_004,68.68,13.88,8.0,1.958,2.381,56.11,54.04,54.99,54.44,51.186,94.2,0.3106
34.81,FLT_004,69.88,13.92,8.0,-0.811,2.395,55.99,55.41,54.89,53.8,51.24,95.0,0.3325
34.91,FLT_004,69.55,13.96,8.0,3.889,2.442,56.87,55.69,53.78,54.86,51.222,94.3,0.3102
35.01,FLT_004,70.34,14.0,8.0,-2.257,2.502,54.24,55.78,55.41,55.51,51.149,94.4,0.2011
35.11,FLT_004,70.03,14.04,8.0,-4.443,2.37,54.12,54.62,55.45,56.4,51.339,95.0,0.3954
35.21,FLT_004,70.06,14.08,8.0,-0.561,2.236,55.4,56.95,53.88,53.87,51.39,94.4,0.3229
35.31,FLT_004,71.27,14.12,8.0,-0.986,2.408,53.65,55.17,54.63,54.56,51.191,94.5,0.3439
35.41,FLT_004,70.21,14.16,8.0,1.592,2.341,53.9,56.01,55.09,53.94,51.479,94.5,0.3846
35.51,FLT_004,70.58,14.2,8.0,-1.295,2.357,55.35,55.22,54.35,55.03,51.015,94.1,0.2644
35.61,FLT_004,71.03,14.24,8.0,-0.093,2.376,55.12,54.45,54.93,54.79,51.116,94.0,0.2936
35.71,FLT_004,71.44,14.28,8.0,1.173,2.326,54.11,54.92,55.06,54.98,51.149,94.4,0.2582
35.81,FLT_004,71.76,14.32,8.0,-0.63,2.215,53.57,55.18,54.18,55.78,51.086,94.8,0.3062
35.91,FLT_004,71.96,14.36,8.0,0.111,2.276,55.6,54.84,53.13,55.67,51.251,94.8,0.3116
36.01,FLT_004,71.0,14.4,8.0,2.708,2.211,53.81,51.96,56.08,55.94,51.146,94.4,0.3311
36.11,FLT_004,71.4,14.44,8.0,5.031,2.153,55.24,55.68,54.84,56.09,51.311,94.3,0.3305
36.21,FLT_004,72.71,14.48,8.0,0.896,2.046,55.84,56.03,55.03,54.97,51.294,94.2,0.2857
36.31,FLT_004,73.06,14.52,8.0,0.034,2.224,56.04,54.05,54.6,54.57,51.489,94.4,0.2484
36.41,FLT_004,72.61,14.56,8.0,1.975,2.345,56.31,55.02,54.91,54.24,51.144,94.1,0.3282
36.51,FLT_004,73.09,14.6,8.0,1.432,2.368,55.22,56.78,54.01,54.84,51.315,94.4,0.3778
36.61,FLT_004,73.57,14.64,8.0,2.043,2.448,58.03,53.76,54.19,54.57,50.874,93.6,0.3428
36.71,FLT_004,73.25,14.68,8.0,-0.722,2.471,53.95,53.93,55.25,56.13,51.264,93.6,0.3609
36.81,FLT_004,73.88,14.72,8.0,-1.69,2.361,52.6,55.6,55.4,55.44,51.192,94.0,0.3485
36.91,FLT_004,74.21,14.76,8.0,-1.603,2.64,54.39,54.52,55.37,54.5,51.038,93.8,0.318
37.01,FLT_004,73.98,14.8,8.0,3.904,2.645,54.11,53.92,55.52,53.03,51.05,94.2,0.2992
37.11,FLT_004,73.58,14.84,8.0,1.217,2.692,54.72,54.83,54.69,54.91,51.26,94.1,0.3685
37.21,FLT_004,73.88,14.88,8.0,0.678,2.693,54.29,56.33,53.49,54.95,51.137,94.5,0.2505
37.31,FLT_004,75.27,14.92,8.0,-0.608,2.525,53.81,54.16,55.22,55.91,51.151,94.1,0.289
37.41,FLT_004,74.71,14.96,8.0,0.173,2.347,55.27,54.9,55.36,56.17,51.143,93.9,0.2893
37.51,FLT_004,75.45,15.0,8.0,3.238,2.319,55.43,53.37,56.52,55.53,51.265,94.6,0.2493
37.61,FLT_004,75.25,15.04,8.0,1.595,2.299,54.53,52.77,55.4,54.8,51.153,94.7,0.2713
37.71,FLT_004,75.72,15.08,8.0,0.872,2.204,56.27,54.88,55.46,55.01,51.215,93.9,0.3128
37.81,FLT_004,76.02,15.12,8.0,-1.542,2.383,53.72,53.24,54.44,54.0,51.051,94.2,0.3053
37.91,FLT_004,75.96,15.16,8.0,1.479,2.373,54.22,54.62,56.07,55.18,51.154,93.7,0.2925
38.01,FLT_004,74.82,15.2,8.0,-2.672,2.251,56.05,54.16,53.91,55.41,51.163,94.0,0.3606
38.11,FLT_004,76.67,15.24,8.0,1.938,2.327,55.1,56.12,55.18,53.68,51.214,93.7,0.34
38.21,FLT_004,76.59,15.28,8.0,0.4,2.226,54.31,54.43,55.35,55.74,51.165,94.0,0.2367
38.31,FLT_004,77.14,15.32,8.0,-1.511,2.256,54.51,54.62,54.58,55.55,51.054,93.6,0.2475
38.41,FLT_004,77.28,15.36,8.0,-4.767,2.473,53.32,56.52,56.32,55.11,51.114,94.1,0.2934
38.51,FLT_004,76.28,15.4,8.0,-3.987,2.463,54.71,55.74,55.88,55.75,51.03,94.2,0.3392
38.61,FLT_004,76.6,15.44,8.0,-1.683,2.561,54.42,55.27,55.7,54.37,51.274,93.6,0.2675
38.71,FLT_004,77.22,15.48,8.0,1.155,2.807,55.29,56.4,56.01,55.43,51.112,93.7,0.3814
38.81,FLT_004,78.45,15.52,8.0,-1.932,2.764,55.46,54.47,55.65,56.18,51.186,94.1,0.3002
38.91,FLT_004,77.17,15.56,8.0,-1.917,2.674,54.71,56.21,56.19,55.73,51.16,93.9,0.2973
39.01,FLT_004,77.62,15.6,8.0,2.084,2.546,57.43,54.47,56.32,54.75,51.235,94.3,0.2745
39.11,FLT_004,77.63,15.64,8.0,2.186,2.663,56.29,54.26,55.33,55.22,51.122,94.1,0.3172
39.21,FLT_004,78.43,15.68,8.0,1.901,2.844,54.68,55.2,53.51,54.72,51.07,93.5,0.2174
39.31,FLT_004,78.79,15.72,8.0,-0.82,2.99,54.29,54.29,54.53,55.18,51.073,93.5,0.3298
39.41,FLT_004,78.75,15.76,8.0,-1.134,2.994,55.66,53.74,55.4,54.37,51.192,93.4,0.2763
39.51,FLT_004,79.67,15.8,8.0,3.072,3.026,53.78,55.87,54.62,55.97,51.113,93.2,0.2539
39.61,FLT_004,79.07,15.84,8.0,-1.323,3.016,53.86,55.21,54.6,55.73,51.125,93.5,0.3151
39.71,FLT_004,79.39,15.88,8.0,-0.742,3.028,53.98,54.37,53.71,54.43,51.104,93.9,0.2687
39.81,FLT_004,79.12,15.92,8.0,-0.524,3.138,55.53,54.08,53.86,57.07,51.025,93.9,0.3045
39.91,FLT_004,79.98,15.96,8.0,0.6,3.13,55.17,52.45,53.76,54.26,51.102,93.7,0.2662
40.01,FLT_004,80.33,16.0,8.0,-1.042,3.09,55.59,54.97,53.84,55.01,51.166,93.4,0.2988
40.11,FLT_004,79.7,16.04,8.0,0.551,3.023,54.93,56.29,56.09,56.14,51.024,93.9,0.2219
40.21,FLT_004,81.12,16.08,8.0,1.131,3.04,55.87,55.03,55.15,55.13,50.939,93.5,0.2497
40.31,FLT_004,81.14,16.12,8.0,5.3,2.912,55.1,55.16,54.85,54.96,51.212,93.4,0.2406
40.41,FLT_004,81.57,16.16,8.0,1.644,2.96,53.37,54.83,56.13,55.51,51.124,93.6,0.3457
40.51,FLT_004,81.94,16.2,8.0,0.781,3.023,53.79,53.9,54.81,53.24,51.111,93.6,0.3055
40.61,FLT_004,80.93,16.24,8.0,-3.375,2.851,53.21,56.52,55.86,55.99,51.113,93.9,0.3462
40.71,FLT_004,81.37,16.28,8.0,1.507,2.776,55.38,54.71,54.73,54.51,51.049,93.7,0.2706
40.81,FLT_004,81.78,16.32,8.0,-0.481,2.816,55.85,53.98,54.92,54.63,51.23,93.8,0.3208
40.91,FLT_004,81.97,16.36,8.0,1.26,2.795,54.13,55.68,53.51,54.88,51.201,94.1,0.2641
41.01,FLT_004,82.13,16.4,8.0,-1.161,2.682,56.49,56.07,54.53,55.27,51.253,93.5,0.2964
41.11,FLT_004,82.47,16.44,8.0,-4.797,2.508,54.85,54.27,55.66,55.74,50.971,94.0,0.3244
41.21,FLT_004,82.4,16.48,8.0,-1.23,2.592,56.16,54.77,53.54,55.76,51.217,92.7,0.2844
41.31,FLT_004,82.88,16.52,8.0,-0.19,2.733,54.1,54.16,54.73,55.8,51.127,93.8,0.2133
41.41,FLT_004,82.44,16.56,8.0,3.999,2.68,55.43,56.03,55.4,54.98,51.111,93.1,0.3071
41.51,FLT_004,83.48,16.6,8.0,-1.914,2.549,53.61,55.39,55.42,56.79,50.93,93.4,0.3503
41.61,FLT_004,83.21,16.64,8.0,0.583,2.694,54.63,55.14,55.56,55.56,51.13,92.8,0.2624
41.71,FLT_004,84.01,16.68,8.0,-2.675,2.742,57.07,53.11,55.8,54.43,50.986,93.6,0.3125
41.81,FLT_004,83.47,16.72,8.0,-0.295,2.733,55.25,56.48,54.53,53.8,51.125,93.1,0.2669
41.91,FLT_004,83.74,16.76,8.0,-0.678,2.689,54.99,54.3,55.99,53.18,51.042,93.0,0.2968
42.01,FLT_004,83.47,16.8,8.0,-1.589,2.801,55.29,56.7,54.29,54.94,51.037,93.3,0.3135
42.11,FLT_004,84.54,16.84,8.0,-2.917,2.801,55.15,56.67,54.94,54.4,51.244,93.6,0.3459
42.21,FLT_004,84.41,16.88,8.0,2.127,2.792,54.62,55.23,54.99,56.2,51.209,93.0,0.2773
42.31,FLT_004,84.73,16.92,8.0,0.778,2.74,55.0,55.8,55.15,54.17,50.914,93.2,0.2953
42.41,FLT_004,84.68,16.96,8.0,2.061,2.689,56.71,56.06,54.49,55.43,51.084,93.1,0.2659
42.51,FLT_004,85.09,17.0,8.0,-1.366,2.633,54.22,53.7,55.85,55.75,50.959,93.8,0.2317
42.61,FLT_004,85.19,17.04,8.0,-2.107,2.524,55.06,55.02,53.75,56.64,51.008,93.3,0.2377
42.71,FLT_004,85.71,17.08,8.0,3.119,2.593,54.12,56.27,57.01,55.04,50.991,93.2,0.3666
42.81,FLT_004,85.73,17.12,8.0,5.221,2.551,54.96,54.91,55.27,54.6,50.937,92.9,0.2736
42.91,FLT_004,85.52,17.16,8.0,3.873,2.461,55.04,54.78,55.36,53.98,50.992,93.6,0.3498
43.01,FLT_004,86.29,17.2,8.0,-2.327,2.345,55.71,54.99,55.56,54.47,51.1,93.2,0.3092
43.11,FLT_004,85.55,17.24,8.0,-1.365,2.255,55.91,54.74,54.82,52.91,50.904,93.2,0.3171
43.21,FLT_004,86.37,17.28,8.0,1.193,2.13,55.46,56.95,55.14,54.74,51.109,93.5,0.3297
43.31,FLT_004,86.55,17.32,8.0,1.477,1.977,54.02,55.49,54.58,54.59,51.084,93.1,0.3455
43.41,FLT_004,87.32,17.36,8.0,-1.059,1.981,56.29,55.01,55.41,53.82,50.86,93.4,0.2982
43.51,FLT_004,87.2,17.4,8.0,-2.706,1.855,55.07,54.62,54.11,55.16,50.927,93.6,0.4089
43.61,FLT_004,88.11,17.44,8.0,-2.714,1.989,56.0,54.96,54.26,55.48,51.149,93.3,0.3258
43.71,FLT_004,87.58,17.48,8.0,1.454,1.866,53.7,55.52,54.64,55.7,51.025,93.3,0.3592
43.81,FLT_004,87.74,17.52,8.0,3.717,1.854,53.84,53.33,53.99,53.94,50.912,93.4,0.2383
43.91,FLT_004,87.81,17.56,8.0,-0.777,1.877,53.96,57.09,53.77,55.05,51.13,92.9,0.3364
44.01,FLT_004,87.62,17.6,8.0,-1.445,1.886,54.88,55.22,55.07,53.77,50.894,93.0,0.2422
44.11,FLT_004,88.19,17.64,8.0,2.31,1.677,56.34,55.76,55.93,55.89,50.991,93.3,0.3771
44.21,FLT_004,87.45,17.68,8.0,-0.649,1.572,55.67,56.48,54.33,55.05,51.042,93.1,0.2587
44.31,FLT_004,88.36,17.72,8.0,-0.77,1.543,55.51,54.3,55.15,52.75,51.079,93.1,0.2639
44.41,FLT_004,89.31,17.76,8.0,-3.517,1.436,55.88,55.43,55.69,55.56,50.987,92.6,0.265
44.51,FLT_004,89.31,17.8,8.0,-3.096,1.472,55.34,53.49,54.98,53.19,50.837,93.3,0.2915
44.61,FLT_004,88.87,17.84,8.0,-1.827,1.493,54.13,55.9,56.25,55.28,50.951,93.0,0.4294
44.71,FLT_004,89.39,17.88,8.0,4.497,1.428,55.09,55.65,54.7,55.77,51.068,93.2,0.2762
44.81,FLT_004,89.55,17.92,8.0,3.096,1.462,54.29,54.9,54.73,54.48,51.129,93.4,0.356
44.91,FLT_004,89.65,17.96,8.0,-1.972,1.332,54.87,55.1,55.38,54.83,51.071,93.1,0.2863
45.01,FLT_004,89.99,18.0,8.0,2.898,1.339,56.51,54.54,53.8,53.63,50.973,92.9,0.3504
45.11,FLT_004,89.7,18.04,8.0,3.009,1.418,55.09,54.36,53.78,52.76,51.031,93.0,0.3348
45.21,FLT_004,89.64,18.08,8.0,1.054,1.466,55.78,56.08,54.29,53.54,50.743,92.9,0.2814
45.31,FLT_004,90.19,18.12,8.0,-1.062,1.385,52.8,55.7,54.0,56.92,50.955,92.7,0.3114
45.41,FLT_004,91.25,18.16,8.0,-2.003,1.451,54.0,55.84,53.59,55.33,51.046,93.1,0.2625
45.51,FLT_004,91.05,18.2,8.0,-6.234,1.566,51.83,54.73,55.85,52.32,50.927,92.2,0.2873
45.61,FLT_004,91.03,18.24,8.0,-2.186,1.725,55.67,54.19,55.41,55.33,51.18,92.7,0.3495
45.71,FLT_004,91.13,18.28,8.0,-0.202,1.758,55.44,55.84,55.94,56.68,51.073,92.1,0.1542
45.81,FLT_004,91.59,18.32,8.0,2.839,1.749,54.68,54.31,52.28,55.01,51.137,93.2,0.257
45.91,FLT_004,91.65,18.36,8.0,2.463,1.974,55.49,56.05,55.52,55.26,50.981,92.9,0.2673
46.01,FLT_004,91.99,18.4,8.0,1.864,1.887,54.66,54.52,53.51,54.12,51.213,92.7,0.3144
46.11,FLT_004,92.74,18.44,8.0,-2.239,1.931,52.95,55.1,55.66,54.22,51.002,92.5,0.3516
46.21,FLT_004,92.85,18.48,8.0,0.002,2.136,55.87,55.57,53.88,56.46,50.82,92.8,0.32
46.31,FLT_004,92.35,18.52,8.0,4.439,1.979,54.72,54.68,55.15,56.56,50.786,93.1,0.2109
46.41,FLT_004,93.35,18.56,8.0,1.989,1.925,55.3,54.72,55.62,54.89,50.889,92.8,0.3175
46.51,FLT_004,93.13,18.6,8.0,-0.29,1.722,54.86,55.35,56.94,54.94,50.904,92.4,0.1838
46.61,FLT_004,93.19,18.64,8.0,-1.283,1.727,56.02,55.67,54.95,56.64,50.79,92.4,0.3057
46.71,FLT_004,92.8,18.68,8.0,1.609,1.564,53.8,55.84,54.18,53.47,50.941,92.7,0.3168
46.81,FLT_004,93.1,18.72,8.0,1.065,1.516,55.88,54.47,53.18,56.78,50.909,93.1,0.2772
46.91,FLT_004,94.01,18.76,8.0,-0.8,1.487,54.1,55.22,53.81,56.97,51.128,92.2,0.3404
47.01,FLT_004,94.77,18.8,8.0,-2.051,1.5,54.86,56.53,56.61,56.54,50.969,92.8,0.3317
47.11,FLT_004,95.21,18.84,8.0,4.007,1.587,53.66,56.24,56.13,55.9,51.075,92.8,0.3258
47.21,FLT_004,94.44,18.88,8.0,-3.83,1.494,54.03,53.06,55.6,54.58,51.062,92.7,0.2297
47.31,FLT_004,94.55,18.92,8.0,4.075,1.466,54.26,55.85,54.59,54.36,50.949,93.2,0.3522
47.41,FLT_004,94.92,18.96,8.0,-1.968,1.431,55.09,56.24,53.27,54.92,51.086,92.4,0.3402
47.51,FLT_004,95.49,19.0,8.0,-2.752,1.406,53.95,54.14,53.79,55.15,51.01,92.5,0.3148
47.61,FLT_004,94.79,19.04,8.0,0.769,1.238,55.55,54.86,57.17,56.27,50.972,92.3,0.2916
47.71,FLT_004,95.6,19.08,8.0,-2.128,1.322,56.77,55.56,54.91,57.87,50.975,92.6,0.307
47.81,FLT_004,95.57,19.12,8.0,-5.071,1.297,55.08,52.23,56.01,53.55,50.945,92.4,0.3292
47.91,FLT_004,95.72,19.16,8.0,-2.733,1.254,55.77,54.78,55.1,54.12,50.812,92.2,0.2305
48.01,FLT_004,96.31,19.2,8.0,-1.347,1.45,54.55,54.9,54.77,55.15,50.877,92.2,0.3608
48.11,FLT_004,95.45,19.24,8.0,-2.549,1.529,54.24,55.21,54.25,55.65,50.952,92.6,0.3712
48.21,FLT_004,96.98,19.28,8.0,1.221,1.622,55.39,54.95,56.0,54.34,50.999,92.7,0.4308
48.31,FLT_004,95.95,19.32,8.0,2.995,1.68,54.57,55.05,54.93,54.65,50.98,93.0,0.2427
48.41,FLT_004,95.59,19.36,8.0,0.586,1.628,55.75,54.62,54.66,54.15,51.082,92.3,0.3982
48.51,FLT_004,97.07,19.4,8.0,-1.128,1.562,54.35,56.19,54.25,56.19,50.867,92.8,0.319
48.61,FLT_004,96.95,19.44,8.0,0.914,1.6,54.92,55.59,53.74,54.92,50.979,92.6,0.3411
48.71,FLT_004,97.77,19.48,8.0,-1.786,1.614,54.56,54.34,54.27,54.29,50.85,92.6,0.3678
48.81,FLT_004,97.0,19.52,8.0,-3.983,1.59,56.61,55.23,55.17,53.72,50.874,92.5,0.2409
48.91,FLT_004,97.55,19.56,8.0,3.036,1.648,55.37,56.06,55.05,55.33,51.133,92.4,0.2849
49.01,FLT_004,97.03,19.6,8.0,-1.547,1.724,54.98,53.67,54.67,55.4,50.898,91.8,0.2448
49.11,FLT_004,97.87,19.64,8.0,1.972,1.86,53.05,55.64,55.13,54.29,51.053,92.1,0.3637
49.21,FLT_004,97.58,19.68,8.0,-2.695,1.781,56.52,54.75,55.75,55.62,50.919,92.8,0.3435
49.31,FLT_004,98.03,19.72,8.0,-3.088,1.8,54.96,55.23,56.27,55.4,50.919,92.5,0.3642
49.41,FLT_004,98.48,19.76,8.0,0.878,1.983,56.1,55.5,54.55,55.3,50.742,91.8,0.3562
49.51,FLT_004,98.57,19.8,8.0,1.832,1.995,55.14,54.16,55.2,54.93,50.922,92.3,0.4186
49.61,FLT_004,99.02,19.84,8.0,0.286,1.827,54.34,53.39,55.37,54.78,51.035,91.9,0.4025
49.71,FLT_004,100.02,19.88,8.0,0.518,1.642,54.12,55.65,54.24,54.68,50.729,92.2,0.3231
49.81,FLT_004,98.36,19.92,8.0,1.246,1.583,55.78,54.0,53.57,54.71,51.01,92.6,0.3651
49.91,FLT_004,100.55,19.96,8.0,0.605,1.628,55.63,54.99,54.22,56.54,50.86,91.8,0.1641
50.01,FLT_004,100.99,20.0,8.0,0.046,1.714,54.74,55.33,55.89,54.21,50.837,92.1,0.2796
50.11,FLT_004,100.75,20.04,8.0,-2.353,1.808,56.48,55.16,54.22,54.44,51.013,91.9,0.2722
50.21,FLT_004,99.75,20.08,8.0,3.375,1.82,54.98,56.63,55.97,55.72,50.833,91.5,0.2483
50.31,FLT_004,101.45,20.12,8.0,4.658,1.737,53.5,55.54,55.61,55.08,50.941,91.8,0.2238
50.41,FLT_004,100.93,20.16,8.0,-0.505,1.791,54.23,56.12,55.01,53.79,50.849,92.2,0.3865
50.51,FLT_004,101.27,20.2,8.0,0.723,1.869,53.87,55.66,55.79,54.55,50.746,92.1,0.2519
50.61,FLT_004,101.08,20.24,8.0,-1.377,1.837,54.94,55.62,54.56,56.41,50.957,91.9,0.277
50.71,FLT_004,100.6,20.28,8.0,-1.693,1.874,51.71,54.11,56.02,56.38,50.864,91.3,0.354
50.81,FLT_004,102.6,20.32,8.0,-2.925,1.99,55.0,53.4,53.99,55.27,50.946,92.6,0.3132
50.91,FLT_004,101.47,20.36,8.0,-1.281,1.935,55.74,54.44,55.71,54.47,50.787,91.6,0.3755
51.01,FLT_004,101.85,20.4,8.0,-2.508,2.103,54.39,54.49,55.46,51.85,50.971,91.9,0.3809
51.11,FLT_004,101.95,20.44,8.0,1.609,2.202,54.62,53.78,56.3,55.53,50.819,91.8,0.3173
51.21,FLT_004,102.53,20.48,8.0,-3.802,2.228,53.76,56.26,54.27,55.93,50.911,91.6,0.3517
51.31,FLT_004,102.44,20.52,8.0,-1.751,2.176,53.81,53.04,56.12,57.13,50.856,91.9,0.3192
51.41,FLT_004,102.02,20.56,8.0,-4.158,2.292,55.65,53.42,54.43,53.46,50.734,91.9,0.2609
51.51,FLT_004,103.01,20.6,8.0,2.259,2.346,56.39,56.54,55.95,56.28,50.892,92.2,0.355
51.61,FLT_004,103.57,20.64,8.0,2.088,2.291,55.63,54.53,54.12,54.97,50.784,92.1,0.3268
51.71,FLT_004,103.49,20.68,8.0,0.53,2.311,54.36,55.4,55.43,55.72,50.946,91.8,0.3016
51.81,FLT_004,102.32,20.72,8.0,1.793,2.17,55.09,55.96,55.67,55.84,50.881,92.1,0.2638
51.91,FLT_004,103.74,20.76,8.0,-1.303,2.065,52.87,54.16,54.4,54.31,50.86,91.6,0.2625
52.01,FLT_004,103.14,20.8,8.0,0.747,2.016,55.97,55.75,53.61,54.95,50.919,91.9,0.4399
52.11,FLT_004,103.85,20.84,8.0,-1.077,2.106,56.12,55.12,54.85,58.21,50.703,92.1,0.4154
52.21,FLT_004,103.93,20.88,8.0,-0.217,2.109,54.71,54.54,55.72,55.09,50.911,91.3,0.2875
52.31,FLT_004,104.7,20.92,8.0,-1.441,2.094,53.54,55.26,55.27,55.25,50.793,92.1,0.3026
52.41,FLT_004,104.56,20.96,8.0,-0.373,2.025,54.82,56.65,55.46,54.34,50.841,91.6,0.235
52.51,FLT_004,104.8,21.0,8.0,-1.473,2.027,53.68,55.08,54.26,56.4,50.896,91.4,0.2492
52.61,FLT_004,105.69,21.04,8.0,-1.842,2.074,54.99,54.23,56.48,54.22,50.96,91.6,0.3537
52.71,FLT_004,104.94,21.08,8.0,0.479,1.972,56.04,55.42,53.7,54.28,50.782,92.2,0.3508
52.81,FLT_004,105.62,21.12,8.0,-1.93,2.024,56.29,53.62,55.91,55.45,50.742,91.4,0.3579
52.91,FLT_004,106.03,21.16,8.0,1.646,2.018,55.24,54.92,54.63,55.89,51.008,91.6,0.2738
53.01,FLT_004,105.71,21.2,8.0,-1.016,2.262,56.82,55.61,55.51,56.52,50.937,91.4,0.2223
53.11,FLT_004,106.41,21.24,8.0,0.512,2.34,55.4,54.54,55.57,54.6,50.85,91.5,0.3419
53.21,FLT_004,107.02,21.28,8.0,-0.861,2.3,56.1,55.43,52.74,57.09,50.593,92.0,0.2625
53.31,FLT_004,106.4,21.32,8.0,2.206,2.373,56.18,55.87,54.86,55.16,50.704,91.4,0.2331
53.41,FLT_004,107.03,21.36,8.0,2.552,2.333,54.01,53.77,55.17,54.74,50.648,91.7,0.3515
53.51,FLT_004,106.51,21.4,8.0,-1.076,2.288,55.25,55.06,52.49,54.16,50.768,91.8,0.2679
53.61,FLT_004,107.39,21.44,8.0,1.669,2.24,54.01,54.27,54.53,57.04,50.796,92.0,0.2338
53.71,FLT_004,107.58,21.48,8.0,3.788,2.05,54.19,54.72,54.23,53.27,50.709,91.7,0.3053
53.81,FLT_004,107.33,21.52,8.0,-2.91,2.065,55.57,55.79,54.98,56.45,50.779,91.2,0.2749
53.91,FLT_004,108.02,21.56,8.0,1.859,1.919,56.44,56.69,56.02,54.35,50.824,91.9,0.3356
54.01,FLT_004,108.02,21.6,8.0,-2.907,1.919,55.03,53.1,55.53,54.76,50.901,91.5,0.3081
54.11,FLT_004,108.31,21.64,8.0,-1.573,1.822,55.89,54.47,53.25,56.03,50.841,91.1,0.3019
54.21,FLT_004,108.85,21.68,8.0,1.217,1.741,54.33,55.81,56.18,56.54,50.719,90.9,0.3425
54.31,FLT_004,108.69,21.72,8.0,-1.385,1.837,54.28,55.51,55.91,55.69,50.793,91.7,0.2813
54.41,FLT_004,108.68,21.76,8.0,0.771,1.923,55.39,55.18,56.32,55.1,50.623,91.2,0.3915
54.51,FLT_004,108.62,21.8,8.0,-0.355,1.704,54.62,54.14,54.33,57.52,50.812,91.7,0.2773
54.61,FLT_004,110.07,21.84,8.0,1.099,1.837,55.78,55.03,55.24,55.13,50.953,91.9,0.3734
54.71,FLT_004,110.04,21.88,8.0,1.769,1.732,57.39,54.07,54.43,54.46,50.719,91.7,0.3444
54.81,FLT_004,109.71,21.92,8.0,1.406,1.738,54.53,53.74,56.08,54.95,50.831,91.2,0.2748
54.91,FLT_004,109.75,21.96,8.0,3.074,1.896,56.66,55.58,54.49,55.0,50.744,91.3,0.3125
55.01,FLT_004,110.7,22.0,8.0,1.784,1.84,55.03,56.4,57.23,55.45,50.738,90.7,0.3721
55.11,FLT_004,109.42,22.04,8.0,-0.267,1.807,56.95,53.28,54.44,55.38,50.662,91.1,0.2299
55.21,FLT_004,110.98,22.08,8.0,-3.591,1.996,54.11,57.01,55.57,55.83,50.712,91.5,0.2688
55.31,FLT_004,111.23,22.12,8.0,-1.764,1.895,54.74,53.67,54.28,55.07,50.815,90.8,0.3046
55.41,FLT_004,111.13,22.16,8.0,-0.732,1.826,55.25,54.06,56.08,54.92,50.808,90.9,0.2748
55.51,FLT_004,110.36,22.2,8.0,-0.023,1.87,53.73,55.52,53.28,54.27,50.731,91.1,0.2999
55.61,FLT_004,112.07,22.24,8.0,0.267,1.896,55.25,55.04,54.36,54.86,50.756,91.6,0.3674
55.71,FLT_004,112.0,22.28,8.0,2.064,1.815,57.16,55.33,55.38,53.46,50.616,91.8,0.2648
55.81,FLT_004,111.23,22.32,8.0,3.683,1.93,53.89,54.47,54.95,54.94,50.769,91.2,0.2275
55.91,FLT_004,112.77,22.36,8.0,-1.424,1.888,55.33,55.26,55.23,53.66,50.661,91.0,0.3153
56.01,FLT_004,111.73,22.4,8.0,0.79,1.803,54.98,52.73,54.8,55.33,50.896,91.1,0.2593
56.11,FLT_004,111.81,22.44,8.0,-1.705,1.812,55.04,56.96,55.6,54.16,50.625,90.6,0.2515
56.21,FLT_004,113.08,22.48,8.0,-0.351,1.641,55.07,55.27,55.11,56.6,50.652,91.3,0.2686
56.31,FLT_004,113.4,22.52,8.0,1.287,1.446,54.83,55.49,53.43,56.94,50.638,90.5,0.3382
56.41,FLT_004,112.61,22.56,8.0,-0.302,1.623,55.78,54.58,55.24,55.78,50.882,90.7,0.3453
56.51,FLT_004,113.05,22.6,8.0,-0.922,1.549,54.66,55.67,54.36,53.89,50.77,90.9,0.308
56.61,FLT_004,113.09,22.64,8.0,1.724,1.483,57.4,56.5,56.55,53.86,50.83,91.3,0.2522
56.71,FLT_004,113.56,22.68,8.0,0.983,1.551,55.2,55.77,53.88,54.32,50.722,91.4,0.2805
56.81,FLT_004,112.74,22.72,8.0,-4.082,1.525,54.32,55.0,53.99,52.62,50.723,91.2,0.3575
56.91,FLT_004,113.42,22.76,8.0,0.854,1.616,56.24,54.19,56.18,53.96,50.741,90.8,0.2662
57.01,FLT_004,114.21,22.8,8.0,-3.105,1.533,56.8,55.94,53.94,53.5,50.971,91.2,0.2618
57.11,FLT_004,114.58,22.84,8.0,0.456,1.32,54.47,55.06,56.74,54.52,50.791,91.6,0.4227
57.21,FLT_004,113.92,22.88,8.0,-1.128,1.336,55.75,54.71,54.89,54.01,50.689,91.3,0.3048
57.31,FLT_004,115.1,22.92,8.0,0.815,1.317,54.9,54.24,55.51,54.09,50.669,90.6,0.2091
57.41,FLT_004,113.98,22.96,8.0,-0.271,1.133,54.91,55.13,57.45,55.24,50.852,91.0,0.2953
57.51,FLT_004,114.8,23.0,8.0,-0.747,1.09,56.09,56.13,56.4,54.46,50.828,91.2,0.3765
57.61,FLT_004,114.38,23.04,8.0,2.398,1.026,54.88,55.02,56.61,55.95,50.76,91.2,0.3416
57.71,FLT_004,115.56,23.08,8.0,-1.269,1.11,53.63,54.35,54.61,54.97,50.698,90.9,0.2887
57.81,FLT_004,115.86,23.12,8.0,1.587,1.251,56.74,54.77,54.72,56.24,50.878,91.1,0.3144
57.91,FLT_004,115.55,23.16,8.0,-0.009,1.191,53.56,55.26,53.62,55.22,50.711,90.6,0.3314
58.01,FLT_004,116.42,23.2,8.0,-1.597,1.07,54.75,54.11,54.65,53.86,50.632,90.6,0.3592
58.11,FLT_004,116.7,23.24,8.0,-1.276,1.088,55.26,54.65,55.67,55.43,50.747,90.8,0.2609
58.21,FLT_004,116.73,23.28,8.0,2.482,1.282,55.62,52.87,56.0,55.75,50.595,90.6,0.2776
58.31,FLT_004,116.68,23.32,8.0,1.254,1.394,54.97,56.92,55.12,55.61,50.824,90.8,0.2298
58.41,FLT_004,116.85,23.36,8.0,-0.24,1.379,56.34,55.73,53.8,55.26,50.596,90.9,0.2589
58.51,FLT_004,117.64,23.4,8.0,3.44,1.39,56.35,54.12,54.39,55.28,50.64,90.8,0.3022
58.61,FLT_004,117.3,23.44,8.0,1.222,1.432,55.46,54.72,53.1,53.74,50.51,90.5,0.2866
58.71,FLT_004,116.68,23.48,8.0,1.802,1.458,55.1,54.6,53.98,54.62,50.713,90.0,0.3737
58.81,FLT_004,117.72,23.52,8.0,-0.712,1.625,55.25,54.72,55.66,54.09,50.551,90.9,0.2036
58.91,FLT_004,117.47,23.56,8.0,-2.551,1.489,54.3,55.61,55.7,54.14,50.711,90.4,0.2911
59.01,FLT_004,118.25,23.6,8.0,0.595,1.543,55.53,54.19,55.34,55.35,50.469,90.7,0.3204
59.11,FLT_004,117.85,23.64,8.0,0.995,1.425,55.41,54.4,56.19,53.66,50.727,90.9,0.1948
59.21,FLT_004,118.87,23.68,8.0,-4.479,1.401,55.91,56.34,53.55,55.23,50.426,90.9,0.3348
59.31,FLT_004,118.0,23.72,8.0,-3.724,1.75,54.56,55.0,56.04,56.29,50.516,90.7,0.3811
59.41,FLT_004,118.9,23.76,8.0,4.329,1.801,54.65,54.7,56.13,54.05,50.726,90.4,0.2888
59.51,FLT_004,118.3,23.8,8.0,1.121,1.861,55.33,55.19,55.22,53.96,50.619,90.5,0.2927
59.61,FLT_004,118.89,23.84,8.0,0.593,1.811,53.66,54.53,55.45,55.88,50.701,90.8,0.3219
59.71,FLT_004,118.88,23.88,8.0,1.101,1.603,56.36,54.22,54.62,56.11,50.653,91.0,0.3234
59.81,FLT_004,118.99,23.92,8.0,1.388,1.81,55.11,55.02,53.54,54.32,50.701,90.1,0.3425
59.91,FLT_004,119.48,23.96,8.0,1.2,1.868,54.87,56.19,54.81,55.17,50.83,91.3,0.2397
60.01,FLT_004,125.11,22.82,-0.274,-2.572,1.829,55.12,55.25,53.21,53.58,50.66,90.3,0.2935
60.11,FLT_004,124.03,23.17,0.74,3.724,1.85,55.5,56.25,55.2,55.92,50.713,90.5,0.3327
60.21,FLT_004,124.76,23.1,0.646,-0.161,1.929,54.08,55.31,54.96,55.49,50.659,90.5,0.2913
60.31,FLT_004,124.18,23.97,-0.005,-1.137,1.859,54.2,54.64,55.69,55.42,50.567,90.2,0.2949
60.41,FLT_004,124.66,24.88,1.25,3.528,1.829,54.56,54.3,54.92,54.56,50.835,90.6,0.2471
60.51,FLT_004,124.25,24.24,4.428,-3.161,1.868,54.29,55.29,55.37,54.94,50.571,90.9,0.2819
60.61,FLT_004,124.26,24.11,-1.664,-1.202,1.691,55.87,55.25,54.87,54.87,50.755,90.4,0.2803
60.71,FLT_004,124.33,25.18,-1.264,0.418,1.581,54.08,55.67,55.18,53.89,50.691,90.6,0.343
60.81,FLT_004,124.66,22.79,-0.141,2.633,1.481,52.76,55.53,53.09,54.72,50.699,90.8,0.2739
60.91,FLT_004,125.31,24.64,-0.596,-1.905,1.611,54.36,55.5,54.22,57.21,50.694,90.7,0.2305
61.01,FLT_004,123.62,23.56,1.889,-0.402,1.534,56.06,54.88,54.68,53.2,50.671,90.1,0.3481
61.11,FLT_004,123.57,24.48,1.938,0.486,1.516,56.64,55.27,54.01,56.5,50.765,90.1,0.308
61.21,FLT_004,125.03,23.87,-1.154,-2.101,1.399,53.75,54.52,54.06,54.73,50.786,90.3,0.355
61.31,FLT_004,124.7,25.23,2.316,1.319,1.36,53.76,53.9,53.04,54.48,50.527,89.9,0.2783
61.41,FLT_004,124.17,25.19,0.624,-0.04,1.287,54.17,54.67,54.32,56.94,50.627,90.3,0.3029
61.51,FLT_004,124.84,24.07,0.51,-0.781,1.088,55.36,54.49,53.59,54.72,50.603,90.2,0.2895
61.61,FLT_004,124.47,23.7,1.595,0.906,1.087,54.74,56.34,55.23,57.48,50.569,90.3,0.2766
61.71,FLT_004,124.8,25.11,-0.368,0.87,1.12,53.3,54.52,54.6,55.62,50.64,89.8,0.3078
61.81,FLT_004,124.97,24.11,-2.468,2.756,0.925,54.87,55.26,54.76,54.01,50.694,90.3,0.2314
61.91,FLT_004,123.99,24.76,2.256,-0.64,1.11,53.57,56.47,54.72,56.15,50.571,89.9,0.2437
62.01,FLT_004,125.01,23.41,-0.756,2.304,1.128,53.21,56.26,56.44,54.51,50.853,90.1,0.3726
62.11,FLT_004,124.15,23.23,0.888,-0.138,1.025,54.22,55.82,55.59,56.66,50.571,90.1,0.2723
62.21,FLT_004,124.46,23.69,0.005,1.557,1.134,54.37,53.75,53.26,54.08,50.67,89.9,0.2592
62.31,FLT_004,124.69,23.94,0.839,-4.376,0.933,55.79,55.6,56.55,54.97,50.561,90.3,0.2521
62.41,FLT_004,124.27,22.68,3.337,-0.805,1.065,55.91,54.41,56.37,54.77,50.58,90.1,0.369
62.51,FLT_004,124.39,23.13,0.871,3.83,1.143,55.74,55.02,55.9,55.27,50.712,90.0,0.317
62.61,FLT_004,123.45,24.27,-1.091,0.503,1.068,55.17,54.57,56.17,57.34,50.783,90.0,0.3363
62.71,FLT_004,125.17,23.19,-0.018,-0.008,1.079,55.27,54.43,56.81,55.88,50.516,90.5,0.2845
62.81,FLT_004,124.42,23.49,-0.338,-0.901,1.08,54.13,57.16,55.88,56.29,50.863,89.8,0.2697
62.91,FLT_004,123.53,23.53,-0.104,-2.749,1.053,53.55,54.02,56.07,55.48,50.524,89.6,0.2303
63.01,FLT_004,125.69,23.32,-2.767,3.027,0.997,53.6,55.84,55.91,52.74,50.558,90.5,0.3136
63.11,FLT_004,123.12,23.97,1.702,-0.288,0.949,56.98,57.35,56.4,53.96,50.718,90.3,0.299
63.21,FLT_004,124.32,21.88,-2.736,1.143,0.984,55.08,54.08,53.06,55.34,50.701,89.2,0.3594
63.31,FLT_004,124.45,24.12,0.914,0.329,1.034,55.31,56.15,52.39,56.69,50.84,89.6,0.3506
63.41,FLT_004,123.92,23.53,0.119,3.445,1.198,55.33,55.89,54.74,55.22,50.685,89.8,0.3922
63.51,FLT_004,123.76,24.39,2.538,0.847,1.284,55.85,55.83,54.76,53.73,50.665,90.1,0.303
63.61,FLT_004,123.72,23.77,1.437,-2.563,1.308,54.48,53.03,55.21,55.84,50.539,89.9,0.3367
63.71,FLT_004,123.96,23.63,-2.134,2.833,1.398,53.54,56.24,54.73,55.74,50.613,89.6,0.2336
63.81,FLT_004,124.36,24.23,-0.408,-2.096,1.287,55.62,54.12,56.27,55.39,50.465,89.8,0.3603
63.91,FLT_004,124.25,23.78,3.342,0.904,1.236,54.89,56.0,56.78,55.85,50.689,89.9,0.2434
64.01,FLT_004,123.87,24.77,-2.479,2.125,1.344,54.79,56.56,55.68,55.34,50.566,90.5,0.2857
64.11,FLT_004,124.37,23.06,0.978,-2.021,1.332,54.29,56.01,56.02,55.19,50.532,89.9,0.2648
64.21,FLT_004,123.48,24.92,-1.081,-0.688,1.293,55.5,55.82,54.9,56.98,50.67,89.8,0.2366
64.31,FLT_004,124.02,23.88,1.406,1.843,1.145,55.96,54.48,55.12,55.9,50.484,89.7,0.3051
64.41,FLT_004,124.44,24.29,1.257,1.989,1.191,54.24,54.73,56.84,54.8,50.54,89.7,0.2719
64.51,FLT_004,124.64,22.59,-0.744,-3.303,1.295,55.3,54.85,53.5,55.38,50.714,89.6,0.2719
64.61,FLT_004,124.37,23.91,0.986,0.185,1.47,54.79,54.76,55.63,53.93,50.585,89.4,0.2857
64.71,FLT_004,123.88,25.84,1.12,-0.031,1.493,54.92,56.56,54.77,54.38,50.539,89.4,0.2685
64.81,FLT_004,125.25,24.67,0.237,0.571,1.63,56.64,54.67,57.03,53.5,50.516,89.7,0.3321
64.91,FLT_004,125.1,23.42,0.129,1.639,1.739,55.41,54.17,56.01,56.74,50.65,89.8,0.3429
65.01,FLT_004,124.25,23.82,0.786,-0.282,1.709,55.01,53.53,56.22,54.69,50.514,89.5,0.3071
65.11,FLT_004,124.07,23.61,-0.176,-3.873,1.785,55.63,54.22,55.56,54.12,50.344,90.0,0.3148
65.21,FLT_004,123.12,24.31,-0.36,0.381,1.75,54.03,56.06,54.63,54.81,50.483,89.7,0.3281
65.31,FLT_004,125.02,24.55,-2.271,-1.332,1.766,53.88,54.07,53.97,56.03,50.515,89.8,0.3049
65.41,FLT_004,124.38,24.93,1.823,-2.576,1.855,56.81,53.26,53.62,54.82,50.615,89.5,0.3386
65.51,FLT_004,124.51,23.94,0.866,1.106,1.869,55.58,55.61,54.99,52.94,50.566,89.7,0.3039
65.61,FLT_004,124.59,23.64,-1.651,1.464,1.83,55.24,55.15,54.27,56.05,50.676,89.4,0.2853
65.71,FLT_004,124.38,22.51,1.6,1.297,1.758,55.19,56.46,54.06,56.91,50.533,89.6,0.2949
65.81,FLT_004,123.33,25.14,-1.135,1.19,1.834,54.19,56.39,55.71,55.97,50.475,89.6,0.3083
65.91,FLT_004,124.23,24.29,1.047,0.774,1.816,53.91,54.59,56.61,56.11,50.389,89.6,0.2841
66.01,FLT_004,123.76,23.77,1.139,-1.449,1.864,56.9,55.76,54.11,54.99,50.348,90.1,0.3327
66.11,FLT_004,124.37,23.9,1.497,-0.923,1.687,55.16,56.03,55.99,56.9,50.431,89.9,0.3623
66.21,FLT_004,124.34,23.77,-2.274,-0.93,1.586,57.09,55.03,55.3,56.05,50.508,89.8,0.2759
66.31,FLT_004,124.85,24.68,1.152,0.712,1.716,55.99,55.03,54.17,54.63,50.566,89.6,0.3362
66.41,FLT_004,123.68,23.15,1.25,0.533,1.556,54.0,56.72,54.47,56.13,50.577,88.9,0.2811
66.51,FLT_004,122.93,26.18,-1.511,3.535,1.526,54.66,55.43,55.09,54.11,50.487,89.1,0.3137
66.61,FLT_004,123.81,23.35,-0.953,0.638,1.532,56.64,54.86,54.91,54.21,50.543,89.6,0.2978
66.71,FLT_004,124.72,23.58,0.589,0.377,1.427,54.33,54.18,55.18,55.45,50.606,89.5,0.3034
66.81,FLT_004,122.78,24.04,1.186,1.187,1.394,53.56,56.61,55.06,54.57,50.6,89.9,0.3308
66.91,FLT_004,124.66,24.78,0.449,0.687,1.386,53.42,53.31,53.79,55.53,50.447,89.8,0.3352
67.01,FLT_004,123.97,23.24,-1.259,-0.143,1.361,55.14,54.37,52.42,53.98,50.582,89.5,0.3052
67.11,FLT_004,124.36,24.29,0.537,2.932,1.614,53.91,54.92,54.53,55.2,50.52,89.4,0.3134
67.21,FLT_004,124.63,22.06,-1.681,1.228,1.552,55.44,55.91,54.24,53.5,50.479,89.4,0.2807
67.31,FLT_004,124.76,25.01,1.281,1.812,1.648,53.75,55.23,55.05,53.44,50.457,89.7,0.2395
67.41,FLT_004,123.37,22.83,-0.982,-2.986,1.668,54.92,55.61,55.35,55.67,50.54,89.3,0.3315
67.51,FLT_004,123.02,24.69,0.76,-2.179,1.646,55.65,54.79,55.43,56.4,50.541,89.6,0.3382
67.61,FLT_004,124.47,25.25,-1.604,0.933,1.667,54.36,53.22,53.89,53.82,50.608,90.0,0.3047
67.71,FLT_004,124.21,23.16,1.165,0.696,1.745,55.7,54.47,56.26,54.45,50.488,89.3,0.3164
67.81,FLT_004,124.68,24.29,-0.5,-0.431,1.891,53.81,54.4,55.37,56.29,50.402,88.9,0.3071
67.91,FLT_004,123.78,23.12,-2.422,2.193,1.664,54.42,54.44,55.82,56.16,50.494,89.8,0.3423
68.01,FLT_004,123.15,24.16,0.912,0.369,1.708,54.94,57.48,54.68,54.79,50.477,89.7,0.2788
68.11,FLT_004,123.9,24.66,-0.055,1.202,1.77,51.98,54.47,55.55,55.69,50.471,89.3,0.3421
68.21,FLT_004,124.43,24.68,1.515,-0.912,1.784,55.07,56.6,55.55,55.03,50.421,89.7,0.2358
68.31,FLT_004,123.65,24.28,-1.635,0.375,1.786,55.92,53.8,53.89,54.98,50.494,89.4,0.3127
68.41,FLT_004,123.58,23.46,1.264,2.979,1.796,54.27,54.6,56.84,55.04,50.669,89.2,0.2957
68.51,FLT_004,123.35,23.99,-0.215,2.656,1.745,54.47,54.9,53.54,53.65,50.443,88.5,0.2647
68.61,FLT_004,124.36,23.92,0.596,-2.102,1.593,55.12,54.25,54.15,53.29,50.37,88.9,0.3085
68.71,FLT_004,123.29,24.46,-2.188,2.24,1.591,55.45,53.87,54.01,55.97,50.415,89.2,0.2783
68.81,FLT_004,123.55,23.58,-0.365,2.953,1.372,57.35,56.03,55.48,54.57,50.543,89.4,0.3169
68.91,FLT_004,122.59,24.48,0.155,2.301,1.241,54.77,52.96,52.76,55.45,50.425,89.0,0.3029
69.01,FLT_004,123.01,24.47,-0.614,-0.53,1.239,55.47,52.97,55.06,53.88,50.424,89.3,0.2577
69.11,FLT_004,124.12,25.22,1.86,-0.022,1.413,54.88,55.31,55.35,53.59,50.389,89.3,0.326
69.21,FLT_004,123.25,24.43,1.111,3.144,1.42,53.95,54.76,55.27,54.31,50.29,88.6,0.3007
69.31,FLT_004,123.12,22.23,0.644,1.377,1.188,55.78,55.68,53.62,53.54,50.322,88.7,0.2419
69.41,FLT_004,123.84,24.33,-0.285,-3.44,1.123,53.77,55.94,53.51,55.19,50.335,89.0,0.2979
69.51,FLT_004,123.66,24.09,2.098,0.314,1.249,57.79,52.59,54.87,54.28,50.424,89.2,0.3867
69.61,FLT_004,123.34,23.76,0.293,3.286,1.161,54.61,54.68,53.04,54.97,50.413,89.2,0.3045
69.71,FLT_004,123.52,25.42,-2.445,-1.388,1.151,53.73,53.54,56.5,53.74,50.46,89.1,0.3309
69.81,FLT_004,124.11,23.23,0.837,-0.04,1.109,55.9,55.48,56.48,54.42,50.516,88.9,0.3386
69.91,FLT_004,123.85,23.5,-0.157,1.405,1.137,57.23,56.21,55.74,55.36,50.531,89.0,0.3229
70.01,FLT_004,123.54,24.21,-1.083,-0.28,1.111,55.41,54.4,52.64,55.68,50.479,89.0,0.2635
70.11,FLT_004,124.06,24.18,0.545,-0.666,1.028,54.28,56.55,53.62,54.74,50.602,89.4,0.2976
70.21,FLT_004,123.23,23.9,1.396,1.655,0.99,55.27,55.61,53.44,55.37,50.324,88.6,0.3063
70.31,FLT_004,123.8,24.11,-0.317,0.82,1.06,55.01,53.88,53.68,53.95,50.416,88.8,0.3519
70.41,FLT_004,123.53,25.41,-0.173,-0.852,1.099,55.61,53.36,57.4,53.73,50.472,89.2,0.3309
70.51,FLT_004,123.48,24.34,0.02,3.273,1.271,56.36,54.67,54.43,55.1,50.408,89.2,0.2688
70.61,FLT_004,123.44,23.0,-0.778,1.745,1.146,53.06,54.6,55.44,57.07,50.414,89.0,0.209
70.71,FLT_004,122.96,24.63,1.839,-2.956,1.079,54.64,55.69,55.1,54.7,50.319,89.3,0.3471
70.81,FLT_004,124.07,23.78,0.819,1.447,0.999,56.8,55.37,55.96,55.71,50.453,89.2,0.3462
