timestamp_s,flight_id,altitude_m,airspeed_ms,pitch_deg,roll_deg,yaw_deg,motor1_temp_c,motor2_temp_c,motor3_temp_c,motor4_temp_c,battery_v,battery_pct,vibration_g,altitude_ms_rate,airspeed_ms_rate,motor_max_temp,motor_temp_spread,motor_temp_zscore,vibration_zscore,phase,fault_flag,fault_reason
0.0,FLT_002,0.0,0.0,8.0,-0.256,359.964,55.52,54.67,56.33,53.8,52.07,99.9,0.2668,,,56.33,2.530000000000001,,,landing,False,
0.1,FLT_002,0.29,0.04,8.0,-3.049,359.951,55.61,52.88,55.09,55.06,51.873,100.0,0.262,2.9,0.4,55.61,2.729999999999997,,,landing,False,
0.2,FLT_002,0.0,0.08,8.0,-0.425,359.892,53.79,56.53,53.9,54.66,51.957,100.0,0.2957,-2.9,0.4,56.53,2.740000000000002,,,landing,False,
0.3,FLT_002,0.11,0.12,8.0,-1.226,359.877,56.18,55.23,54.61,54.4,52.012,99.6,0.2896,1.1,0.3999999999999999,56.18,1.7800000000000011,,,landing,False,
0.4,FLT_002,0.7,0.16,8.0,2.672,359.817,55.02,54.61,55.12,54.35,51.946,100.0,0.2721,5.8999999999999995,0.4000000000000001,55.12,0.769999999999996,-1.4419419090949708,-0.3502744675567902,landing,False,
0.5,FLT_002,0.97,0.2,8.0,1.123,359.783,55.89,54.37,53.51,57.82,51.769,99.8,0.3302,2.7,0.4000000000000001,57.82,4.310000000000002,1.6886700446014333,1.7448595676529801,landing,False,
0.6,FLT_002,1.1,0.24,8.0,-6.024,359.741,56.0,54.33,54.12,55.69,51.813,99.6,0.3387,1.3000000000000012,0.3999999999999998,56.0,1.8800000000000026,-0.26831370385242903,1.4802321283627697,landing,False,
0.7,FLT_002,2.24,0.28,8.0,0.101,359.788,54.35,56.04,55.52,55.29,52.199,99.7,0.2544,11.400000000000002,0.40000000000000036,56.04,1.6899999999999977,-0.20818832331184983,-1.0907479861576326,landing,False,
0.8,FLT_002,1.62,0.32,8.0,-2.273,359.838,55.19,56.46,54.8,55.14,52.1,100.0,0.2677,-6.200000000000001,0.3999999999999998,56.46,1.6600000000000037,0.30752127547120367,-0.6172133573399011,landing,False,
0.9,FLT_002,2.28,0.36,8.0,-2.905,359.852,54.24,55.61,54.14,56.22,52.042,99.4,0.3762,6.599999999999997,0.3999999999999998,56.22,2.0799999999999983,-0.015751650782142402,2.009417837205944,landing,False,
1.0,FLT_002,3.12,0.4,8.0,-4.579,360.0,56.32,53.34,56.03,53.76,51.963,99.6,0.2795,8.400000000000002,0.40000000000000036,56.32,2.979999999999997,0.12202630339907165,-0.37428704392426204,landing,False,
1.1,FLT_002,1.96,0.44,8.0,1.753,0.107,54.57,54.98,54.55,54.64,51.906,99.7,0.352,-11.600000000000001,0.3999999999999998,54.98,0.4299999999999997,-1.5827240843389305,1.3203917917062111,landing,False,
1.2,FLT_002,2.47,0.48,8.0,2.026,0.238,55.81,56.07,54.89,55.0,52.01,100.0,0.264,5.100000000000002,0.3999999999999998,56.07,1.1799999999999997,-0.08480808711435678,-0.8057175426663051,landing,False,
1.3,FLT_002,3.01,0.52,8.0,-3.0,0.164,55.63,53.95,55.04,54.78,51.873,99.6,0.2616,5.399999999999996,0.40000000000000036,55.63,1.6799999999999997,-0.6775905686291149,-0.8137136612384797,landing,False,
1.4,FLT_002,2.86,0.56,8.0,2.238,0.048,55.28,53.83,55.36,55.28,52.066,99.5,0.2645,-1.4999999999999991,0.40000000000000036,55.36,1.5300000000000011,-0.9981587463243934,-0.7030391170860221,landing,False,
1.5,FLT_002,2.86,0.6,8.0,4.205,0.076,56.98,53.71,57.31,56.92,52.018,99.6,0.2734,0.0,0.39999999999999925,57.31,3.6000000000000014,1.6154791731333633,-0.45533342415899875,landing,False,
1.6,FLT_002,4.37,0.64,8.0,-0.413,0.118,56.28,54.49,55.98,53.27,51.969,100.0,0.3366,15.100000000000001,0.40000000000000036,56.28,3.009999999999998,0.20654492470773284,1.1384308302707271,landing,False,
1.7,FLT_002,4.0,0.68,8.0,-1.807,0.018,52.96,54.42,54.03,53.04,51.931,100.0,0.263,-3.700000000000001,0.40000000000000036,54.42,1.4600000000000009,-2.022023531581893,-0.7587446372697189,landing,False,
1.8,FLT_002,2.55,0.72,8.0,-0.146,0.051,56.62,54.28,55.47,57.81,51.927,99.7,0.2918,-14.500000000000002,0.39999999999999925,57.81,3.530000000000001,1.913503050682842,0.00633162292654766,landing,False,
1.9,FLT_002,4.48,0.76,8.0,2.337,359.879,54.89,53.71,56.87,54.85,51.985,98.9,0.2445,19.300000000000004,0.40000000000000036,56.87,3.1599999999999966,0.8070297558055574,-1.2045173681741779,landing,False,
2.0,FLT_002,4.8,0.8,8.0,2.632,359.845,55.85,52.28,55.3,54.94,51.83,99.9,0.2867,3.199999999999994,0.40000000000000036,55.85,3.5700000000000003,-0.35602344643304296,-0.06619062188059058,landing,False,
2.1,FLT_002,4.8,0.84,8.0,-0.07,359.715,54.63,55.97,54.33,54.72,52.185,99.3,0.2454,0.0,0.39999999999999925,55.97,1.6400000000000006,-0.21002239499570688,-1.1419953687202093,landing,False,
2.2,FLT_002,4.78,0.88,8.0,-1.838,359.756,55.1,55.87,54.75,54.84,51.904,99.7,0.2774,-0.19999999999999574,0.40000000000000036,55.87,1.1199999999999974,-0.32261989357605336,-0.25984273869709457,landing,False,
2.3,FLT_002,5.38,0.92,8.0,0.486,359.835,54.83,54.83,53.68,55.76,51.823,99.2,0.2565,5.9999999999999964,0.40000000000000036,55.76,2.0799999999999983,-0.4465099168871734,-0.8150423177292632,landing,False,
2.4,FLT_002,5.24,0.96,8.0,-0.195,359.627,55.83,53.37,54.55,56.32,52.021,99.2,0.3103,-1.3999999999999968,0.39999999999999925,56.32,2.950000000000003,0.24849029616784213,0.6802084766558858,landing,False,
2.5,FLT_002,5.29,1.0,8.0,0.238,359.317,55.11,54.68,53.89,56.26,51.891,99.5,0.2852,0.4999999999999982,0.40000000000000036,56.26,2.3699999999999974,0.16864921450965276,-0.03422016487057769,landing,False,
2.6,FLT_002,5.27,1.04,8.0,-0.773,359.475,54.3,55.69,56.92,55.12,51.887,99.7,0.3116,-0.20000000000000462,0.40000000000000036,56.92,2.6200000000000045,0.989043488188832,0.712861595245735,landing,False,
2.7,FLT_002,4.87,1.08,8.0,0.383,359.358,56.42,55.47,56.01,54.75,51.938,98.8,0.3797,-3.9999999999999947,0.40000000000000036,56.42,1.6700000000000017,0.3320939094417533,2.3618682938282918,landing,False,
2.8,FLT_002,4.91,1.12,8.0,-3.728,359.303,54.12,54.54,54.65,55.27,51.879,99.2,0.2828,0.40000000000000036,0.40000000000000036,55.27,1.1500000000000057,-1.1406077354499427,-0.20344414362685176,landing,False,
2.9,FLT_002,6.19,1.16,8.0,0.718,359.198,55.71,53.45,55.16,55.32,51.873,99.7,0.2894,12.800000000000002,0.39999999999999813,55.71,2.259999999999998,-0.5502543570354952,-0.024983353945393513,landing,False,
3.0,FLT_002,6.38,1.2,8.0,2.273,359.314,55.05,53.96,55.41,55.37,51.91,99.2,0.3167,1.899999999999995,0.40000000000000036,55.41,1.4499999999999957,-0.9206520455559541,0.7069664311659819,landing,False,
3.1,FLT_002,6.18,1.24,8.0,-0.38,359.408,55.83,54.78,55.3,55.56,52.062,99.1,0.3636,-2.0000000000000018,0.40000000000000036,55.83,1.0499999999999972,-0.3545373191702688,1.8577694988992333,landing,False,
3.2,FLT_002,5.97,1.28,8.0,0.251,359.374,55.05,53.66,52.73,54.19,51.901,99.3,0.2923,-2.0999999999999996,0.40000000000000036,55.05,2.3200000000000003,-1.34721895404417,-0.02934174247929703,landing,False,
3.3,FLT_002,6.04,1.32,8.0,-3.211,359.442,53.29,55.25,53.98,54.34,51.9,99.9,0.1594,0.7000000000000028,0.40000000000000036,55.25,1.9600000000000009,-1.0467075989057075,-3.0086102163958004,landing,False,
3.4,FLT_002,6.62,1.36,8.0,1.041,359.47,56.77,54.61,56.19,55.04,52.023,99.7,0.2396,5.800000000000001,0.40000000000000036,56.77,2.1600000000000037,0.948676438419485,-1.1155126812772287,landing,False,
3.5,FLT_002,7.35,1.4,8.0,1.854,359.501,53.56,54.96,52.68,55.22,51.715,99.5,0.1877,7.299999999999995,0.39999999999999813,55.22,2.539999999999999,-1.0814952650564083,-2.1232803839379493,landing,False,
3.6,FLT_002,8.32,1.44,8.0,3.282,359.564,54.07,54.98,54.34,56.18,51.973,99.3,0.3278,9.700000000000006,0.40000000000000036,56.18,2.1099999999999994,0.1906270574913457,0.9035234407991838,landing,False,
3.7,FLT_002,7.39,1.48,8.0,-4.749,359.563,55.04,54.69,54.51,55.21,51.975,99.6,0.2501,-9.300000000000006,0.40000000000000036,55.21,0.7000000000000028,-1.0826039738410036,-0.7750316177885226,landing,False,
3.8,FLT_002,7.75,1.52,8.0,1.057,359.511,54.62,52.69,54.46,55.0,51.916,99.6,0.2562,3.600000000000003,0.40000000000000036,55.0,2.3100000000000023,-1.3154677111940163,-0.629776592928308,landing,False,
3.9,FLT_002,8.36,1.56,8.0,-3.48,359.6,54.25,55.25,55.11,52.81,51.868,99.1,0.2422,6.099999999999994,0.40000000000000036,55.25,2.4399999999999977,-0.959566100395139,-0.9174698238216752,landing,False,
4.0,FLT_002,7.97,1.6,8.0,0.782,359.616,54.29,56.32,55.53,55.63,51.904,99.1,0.317,-3.899999999999997,0.40000000000000036,56.32,2.030000000000001,0.455755455629484,0.7254946517297592,landing,False,
4.1,FLT_002,8.39,1.64,8.0,-1.109,359.615,55.97,54.75,54.44,55.84,51.868,99.2,0.2996,4.200000000000008,0.39999999999999813,55.97,1.5300000000000011,-0.013914145414240752,0.33342154959714576,landing,False,
4.2,FLT_002,8.81,1.68,8.0,1.001,359.626,56.11,56.23,54.36,55.66,51.921,99.5,0.2371,4.199999999999999,0.40000000000000036,56.23,1.8699999999999974,0.3351057551150805,-1.047807303644963,landing,False,
4.3,FLT_002,9.15,1.72,8.0,0.862,359.564,54.89,55.71,54.91,54.97,51.869,99.5,0.2903,3.3999999999999986,0.40000000000000036,55.71,0.8200000000000003,-0.3743321980967301,0.1470028784173443,landing,False,
4.4,FLT_002,8.83,1.76,8.0,0.166,359.432,55.8,54.67,54.63,56.06,51.998,99.1,0.2445,-3.200000000000003,0.40000000000000036,56.06,1.4299999999999997,0.11009111100560103,-0.8772702920923965,landing,False,
4.5,FLT_002,8.76,1.8,8.0,-0.913,359.369,55.41,54.01,56.16,56.46,51.851,99.0,0.3305,-0.7000000000000028,0.40000000000000036,56.46,2.450000000000003,0.6609830194600123,1.058827221457725,landing,False,
4.6,FLT_002,9.3,1.84,8.0,0.324,359.391,55.3,54.68,56.61,56.55,51.866,99.4,0.3167,5.400000000000009,0.40000000000000036,56.61,1.9299999999999997,0.8566182912237003,0.7324163939000429,landing,False,
4.7,FLT_002,8.55,1.88,8.0,1.877,359.382,54.11,54.74,54.95,56.64,51.96,99.1,0.3285,-7.5,0.39999999999999813,56.64,2.530000000000001,0.8823302136512632,0.9817240221880027,landing,False,
4.8,FLT_002,9.75,1.92,8.0,0.535,359.273,55.89,54.68,55.0,54.89,51.949,99.5,0.294,11.999999999999993,0.40000000000000036,55.89,1.2100000000000009,-0.18025187284550162,0.19010835340737361,landing,False,
4.9,FLT_002,10.24,1.96,8.0,1.581,359.132,54.24,55.52,55.45,55.59,51.892,99.1,0.2882,4.900000000000002,0.40000000000000036,55.59,1.3500000000000014,-0.6021036845726122,0.055455437701719554,landing,False,
5.0,FLT_002,10.85,2.0,8.0,-2.778,359.01,55.22,53.91,54.37,55.06,51.844,99.3,0.3373,6.099999999999994,0.40000000000000036,55.22,1.3100000000000023,-1.0927088201074555,1.1554759798409648,landing,False,
5.1,FLT_002,10.66,2.04,8.0,0.128,358.993,55.9,55.28,53.77,52.98,51.853,98.9,0.2797,-1.899999999999995,0.40000000000000036,55.9,2.9200000000000017,-0.1300629697135366,-0.1826841856009131,landing,False,
5.2,FLT_002,9.12,2.08,8.0,-0.968,359.152,54.96,55.41,55.79,56.75,52.152,99.5,0.3122,-15.40000000000001,0.40000000000000036,56.75,1.7899999999999991,1.0747971253710402,0.5605399899688862,landing,False,
5.3,FLT_002,11.3,2.12,8.0,1.555,359.032,56.12,55.62,54.46,56.44,51.965,98.7,0.3108,21.800000000000015,0.40000000000000036,56.44,1.9799999999999969,0.6238761809468596,0.5169934754828425,landing,False,
5.4,FLT_002,11.54,2.16,8.0,1.062,359.103,53.92,56.1,56.88,56.4,51.911,99.2,0.3023,2.3999999999999844,0.40000000000000036,56.88,2.960000000000001,1.199928071031063,0.30754186007327794,landing,False,
5.5,FLT_002,10.54,2.2,8.0,-1.027,358.963,54.61,53.36,54.25,55.05,51.856,98.7,0.2632,-10.0,0.40000000000000036,55.05,1.6899999999999977,-1.3914339485565608,-0.5656657204129683,landing,False,
5.6,FLT_002,11.0,2.24,8.0,0.307,359.04,54.72,55.24,53.19,55.79,52.011,99.4,0.1639,4.6000000000000085,0.40000000000000036,55.79,2.6000000000000014,-0.27800550484569964,-2.617991194726091,landing,False,
5.7,FLT_002,12.12,2.28,8.0,-0.281,358.972,54.38,55.0,54.52,55.75,51.651,98.6,0.4065,11.199999999999992,0.3999999999999959,55.75,1.3699999999999974,-0.3287833176488432,2.4429349351744514,landing,False,
5.8,FLT_002,11.63,2.32,8.0,0.784,358.963,54.43,53.29,55.56,53.41,51.934,99.5,0.3167,-4.899999999999984,0.40000000000000036,55.56,2.270000000000003,-0.5867723218360454,0.583614380823461,landing,False,
5.9,FLT_002,11.51,2.36,8.0,0.697,359.033,54.83,56.09,55.58,55.03,51.868,99.5,0.2868,-1.20000000000001,0.40000000000000036,56.09,1.2600000000000051,0.21030817625116704,0.009604787813939492,landing,False,
6.0,FLT_002,11.63,2.4,8.0,0.137,359.042,55.07,53.95,55.41,55.49,51.875,99.2,0.2916,1.20000000000001,0.40000000000000036,55.49,1.5399999999999991,-0.6626656035253885,0.10604422084077918,landing,False,
6.1,FLT_002,13.52,2.44,8.0,-2.676,359.066,55.21,55.01,54.86,55.79,51.975,99.2,0.2488,18.899999999999988,0.40000000000000036,55.79,0.9299999999999997,-0.24319572798983838,-0.7666567886701099,landing,False,
6.2,FLT_002,12.8,2.48,8.0,2.97,359.076,54.39,53.66,55.9,53.68,52.005,99.1,0.2274,-7.199999999999989,0.40000000000000036,55.9,2.240000000000002,-0.06998585149749674,-1.1945032887050893,landing,False,
6.3,FLT_002,12.46,2.52,8.0,2.111,359.261,54.26,55.42,55.33,54.84,51.843,98.7,0.328,-3.3999999999999986,0.40000000000000036,55.42,1.1600000000000037,-0.7937253191141216,0.9026309329663327,landing,False,
6.4,FLT_002,13.52,2.56,8.0,0.179,359.133,56.41,55.98,54.89,54.44,51.837,98.7,0.3477,10.599999999999987,0.40000000000000036,56.41,1.9699999999999989,0.6830924095376513,1.2632841409003162,landing,False,
6.5,FLT_002,12.96,2.6,8.0,1.038,359.119,55.27,55.19,56.19,54.8,51.744,99.0,0.2552,-5.599999999999987,0.40000000000000036,56.19,1.3900000000000006,0.3987401781985356,-0.6451501937481197,landing,False,
6.6,FLT_002,13.81,2.64,8.0,1.202,359.12,56.03,53.67,55.35,54.29,51.824,99.2,0.3307,8.499999999999996,0.40000000000000036,56.03,2.3599999999999994,0.15175262387768057,0.9197079052082523,landing,False,
6.7,FLT_002,13.69,2.68,8.0,-1.381,359.031,55.01,54.78,53.89,54.26,51.987,99.0,0.3458,-1.20000000000001,0.40000000000000036,55.01,1.1199999999999974,-1.5600972385844978,1.1834723993105623,landing,False,
6.8,FLT_002,13.43,2.72,8.0,2.484,359.111,54.54,56.75,54.47,53.1,51.798,98.3,0.3055,-2.599999999999998,0.40000000000000036,56.75,3.6499999999999986,1.498314399465562,0.35287508047789834,landing,False,
6.9,FLT_002,14.05,2.76,8.0,-4.064,359.067,54.26,53.24,53.96,52.56,51.64,99.0,0.2114,6.20000000000001,0.3999999999999959,54.26,1.6999999999999957,-2.7744539431869395,-1.5308745371683483,landing,False,
7.0,FLT_002,14.27,2.8,8.0,-3.409,359.149,54.38,55.37,54.59,54.64,51.723,98.6,0.2547,2.1999999999999886,0.40000000000000036,55.37,0.9899999999999949,-0.8430972804987636,-0.6449530510877636,landing,False,
7.1,FLT_002,14.6,2.84,8.0,-1.429,359.157,57.55,54.4,55.22,55.11,51.778,99.0,0.2808,3.3000000000000007,0.40000000000000036,57.55,3.1499999999999986,2.6155629294276466,-0.13780243283954827,landing,False,
7.2,FLT_002,15.22,2.88,8.0,0.672,359.121,55.25,54.39,55.77,56.19,51.746,98.5,0.2637,6.20000000000001,0.40000000000000036,56.19,1.7999999999999972,0.45434844108489464,-0.47597223844445924,landing,False,
7.3,FLT_002,15.71,2.92,8.0,0.266,359.293,55.07,56.17,55.54,55.17,51.881,99.0,0.3424,4.900000000000002,0.40000000000000036,56.17,1.1000000000000014,0.40935835188495423,1.063987284532485,landing,False,
7.4,FLT_002,15.01,2.96,8.0,0.145,359.11,53.96,54.88,56.0,54.61,51.861,98.9,0.3701,-7.000000000000011,0.40000000000000036,56.0,2.039999999999999,0.1522048318259653,1.55516173905391,landing,False,
7.5,FLT_002,14.05,3.0,8.0,-0.143,359.172,55.08,53.92,55.37,55.46,51.916,98.6,0.3469,-9.59999999999999,0.40000000000000036,55.46,1.5399999999999991,-0.6758645135426558,1.0663720015515148,landing,False,
7.6,FLT_002,15.64,3.04,8.0,-0.642,359.312,57.34,55.23,55.3,54.85,51.78,98.3,0.3726,15.899999999999999,0.40000000000000036,57.34,2.490000000000002,2.2228880626152505,1.5033983027390543,landing,False,
7.7,FLT_002,15.27,3.08,8.0,-2.551,359.163,54.91,54.7,56.36,54.48,51.834,99.0,0.2612,-3.70000000000001,0.40000000000000036,56.36,1.8800000000000026,0.7169479423795313,-0.5630543599546736,landing,False,
7.8,FLT_002,14.76,3.12,8.0,-2.753,359.16,56.15,54.91,54.16,54.44,51.708,98.7,0.3408,-5.099999999999998,0.40000000000000036,56.15,1.990000000000002,0.3690955058633489,0.9428121506685019,landing,False,
7.9,FLT_002,16.15,3.16,8.0,-2.568,359.207,54.31,54.47,53.79,54.25,51.773,98.6,0.335,13.899999999999988,0.40000000000000036,54.47,0.6799999999999997,-2.1025692615853977,0.8088417886571379,landing,False,
8.0,FLT_002,16.22,3.2,8.0,-2.186,359.121,52.52,55.11,54.44,54.78,51.803,98.6,0.2924,0.7000000000000028,0.40000000000000036,55.11,2.5899999999999963,-1.1350549907847451,0.008608003808748845,landing,False,
8.1,FLT_002,15.8,3.24,8.0,-2.829,359.177,54.18,56.36,53.12,55.94,51.807,98.2,0.3674,-4.1999999999999815,0.40000000000000036,56.36,3.240000000000002,0.6843599671213153,1.4325208458809817,landing,False,
8.2,FLT_002,15.81,3.28,8.0,-2.872,359.319,53.43,54.26,55.37,56.95,51.887,98.8,0.2393,0.09999999999999787,0.3999999999999959,56.95,3.520000000000003,1.4813827655963703,-0.9721640231895539,landing,False,
8.3,FLT_002,17.3,3.32,8.0,-0.548,359.393,55.78,52.42,55.35,54.19,51.833,98.4,0.2242,14.900000000000002,0.40000000000000036,55.78,3.3599999999999994,-0.23619767644027054,-1.3450981085065474,landing,False,
8.4,FLT_002,17.06,3.36,8.0,2.112,359.581,57.4,55.31,55.95,54.13,51.781,98.5,0.2048,-2.40000000000002,0.40000000000000036,57.4,3.269999999999996,2.058157390542569,-1.6825241901470784,landing,False,
8.5,FLT_002,16.61,3.4,8.0,0.881,359.475,54.07,54.95,54.25,55.33,51.996,98.6,0.279,-4.499999999999993,0.40000000000000036,55.33,1.259999999999998,-0.8932472019773872,-0.2913832777893122,landing,False,
8.6,FLT_002,17.53,3.44,8.0,-1.852,359.452,54.55,54.97,55.97,55.03,51.687,98.0,0.331,9.200000000000017,0.40000000000000036,55.97,1.4200000000000017,0.026291441546293783,0.75953800379828,landing,False,
8.7,FLT_002,17.19,3.48,8.0,-1.38,359.3,54.73,54.29,54.47,55.71,51.872,97.9,0.2632,-3.3999999999999986,0.40000000000000036,55.71,1.4200000000000017,-0.3632850968421887,-0.6198342549360756,landing,False,
8.8,FLT_002,17.88,3.52,8.0,3.794,359.253,54.86,54.04,54.6,55.83,51.781,97.9,0.2637,6.899999999999977,0.40000000000000036,55.83,1.7899999999999991,-0.21830662813419507,-0.6140387642218343,landing,False,
8.9,FLT_002,17.96,3.56,8.0,-0.998,359.304,54.68,52.43,55.91,54.75,51.826,98.2,0.2804,0.8000000000000185,0.40000000000000036,55.91,3.479999999999997,-0.12135092386308868,-0.2927891861793526,landing,False,
9.0,FLT_002,16.72,3.6,8.0,-2.174,359.33,55.79,54.59,55.48,55.57,51.666,98.3,0.2247,-12.40000000000002,0.40000000000000036,55.79,1.1999999999999957,-0.2849164767249175,-1.37600448450284,landing,False,
9.1,FLT_002,18.26,3.64,8.0,-0.576,359.275,54.26,53.67,53.86,55.2,51.661,97.9,0.2904,15.400000000000027,0.40000000000000036,55.2,1.5300000000000011,-1.1277177941505918,-0.0444707396738171,landing,False,
9.2,FLT_002,18.32,3.68,8.0,-1.139,359.262,54.85,54.98,55.43,54.68,51.741,98.0,0.4167,0.5999999999999872,0.40000000000000036,55.43,0.75,-0.761836447624168,2.3253729437826407,landing,False,
9.3,FLT_002,18.23,3.72,8.0,-1.713,359.064,54.55,54.18,55.37,56.7,51.764,98.4,0.2389,-0.8999999999999986,0.40000000000000036,56.7,2.520000000000003,1.0606424075801362,-1.0727497702907849,landing,False,
9.4,FLT_002,18.17,3.76,8.0,0.069,359.068,54.5,55.45,56.32,54.32,51.656,98.0,0.3249,-0.5999999999999872,0.3999999999999959,56.32,2.0,0.5003657865757054,0.5399399759156301,landing,False,
9.5,FLT_002,18.9,3.8,8.0,2.533,359.224,56.76,54.07,55.55,53.89,51.71,98.1,0.3274,7.299999999999969,0.40000000000000036,56.76,2.8699999999999974,1.1196651118907452,0.5895625131118771,landing,False,
9.6,FLT_002,19.03,3.84,8.0,-2.641,359.069,55.53,54.34,52.69,56.39,51.792,98.6,0.2882,1.3000000000000256,0.40000000000000036,56.39,3.700000000000003,0.597483001512312,-0.15272701064955588,landing,False,
9.7,FLT_002,19.73,3.88,8.0,0.776,359.067,55.21,54.46,54.77,54.81,51.694,98.4,0.3151,6.999999999999993,0.40000000000000036,55.21,0.75,-1.0618463653657624,0.3708223509509749,landing,False,
9.8,FLT_002,19.53,3.92,8.0,1.976,359.203,54.64,54.61,54.86,56.99,51.917,97.8,0.3179,-1.999999999999993,0.40000000000000036,56.99,2.3800000000000026,1.4377718192852658,0.41486352468103704,landing,False,
9.9,FLT_002,19.85,3.96,8.0,0.901,359.101,52.72,52.99,55.45,52.42,51.694,98.3,0.28,3.200000000000003,0.40000000000000036,55.45,3.030000000000001,-0.7259193515019742,-0.3113651552755985,landing,False,
10.0,FLT_002,20.17,4.0,8.0,2.069,359.081,54.5,54.22,54.96,54.37,51.743,98.4,0.2998,3.200000000000003,0.40000000000000036,54.96,0.740000000000002,-1.3944426758926298,0.08449483736013813,landing,False,
10.1,FLT_002,19.97,4.04,8.0,1.075,359.198,54.85,54.22,53.74,54.73,51.722,98.5,0.3529,-2.0000000000000284,0.40000000000000036,54.85,1.1099999999999994,-1.4832953917460725,1.0722383905961617,landing,False,
10.2,FLT_002,19.91,4.08,8.0,-1.395,359.458,55.51,55.63,55.18,56.28,51.619,98.4,0.3308,-0.5999999999999872,0.40000000000000036,56.28,1.1000000000000014,0.47971061125919123,0.6397943645430663,landing,False,
10.3,FLT_002,21.71,4.12,8.0,3.592,359.484,55.09,55.82,54.74,55.46,51.738,98.3,0.2563,18.000000000000007,0.40000000000000036,55.82,1.0799999999999983,-0.13619832136829363,-0.7570144667046937,landing,False,
10.4,FLT_002,20.77,4.16,8.0,1.04,359.518,56.96,55.18,56.2,55.01,51.656,98.2,0.3169,-9.400000000000013,0.40000000000000036,56.96,1.9500000000000028,1.431842123515674,0.38716195289672267,landing,False,
10.5,FLT_002,20.9,4.2,8.0,4.569,359.401,53.75,55.16,55.53,55.85,51.854,98.3,0.2611,1.29999999999999,0.40000000000000036,55.85,2.1000000000000014,-0.12049782905440692,-0.6693423455950146,landing,False,
10.6,FLT_002,21.91,4.24,8.0,-3.723,359.438,54.32,58.77,56.08,56.26,51.746,98.4,0.2745,10.100000000000016,0.40000000000000036,58.77,4.450000000000003,3.3852520758757443,-0.4895108147618878,landing,False,
10.7,FLT_002,22.35,4.28,8.0,4.78,359.406,55.88,54.16,54.58,55.56,51.717,98.1,0.412,4.400000000000013,0.40000000000000036,55.88,1.720000000000006,-0.14458312258318015,2.2843985925612933,landing,False,
10.8,FLT_002,22.33,4.32,8.0,1.727,359.44,53.15,54.53,54.5,55.61,51.696,97.9,0.3769,-0.20000000000003126,0.40000000000000036,55.61,2.460000000000001,-0.4758121583355831,1.5165212555500747,landing,False,
10.9,FLT_002,21.61,4.36,8.0,0.941,359.488,54.01,57.01,58.23,55.43,51.837,98.0,0.3535,-7.199999999999989,0.40000000000000036,58.23,4.219999999999999,2.494415035388898,1.0185528610781862,landing,False,
11.0,FLT_002,22.18,4.4,8.0,-1.844,359.465,56.24,55.5,54.46,54.06,51.732,97.9,0.2578,5.700000000000003,0.40000000000000036,56.24,2.1799999999999997,0.20918917445615187,-0.8296203574784768,landing,False,
11.1,FLT_002,22.5,4.44,8.0,1.483,359.595,55.34,54.33,56.01,54.36,51.614,98.0,0.3071,3.200000000000003,0.40000000000000036,56.01,1.6799999999999997,-0.059104442821703546,0.10413088396632594,landing,False,
11.2,FLT_002,23.52,4.48,8.0,2.396,359.65,55.22,54.14,54.07,56.44,51.801,97.4,0.2784,10.199999999999996,0.40000000000000036,56.44,2.3699999999999974,0.4204362018415751,-0.487517472252731,landing,False,
11.3,FLT_002,22.81,4.52,8.0,-3.515,359.577,54.54,54.59,54.35,54.5,51.79,98.3,0.3581,-7.1000000000000085,0.3999999999999915,54.59,0.240000000000002,-1.6384734855866245,1.0822003197134948,landing,False,
11.4,FLT_002,23.04,4.56,8.0,1.14,359.454,54.89,52.98,55.81,55.39,51.625,98.0,0.2964,2.3000000000000043,0.40000000000000036,55.81,2.8300000000000054,-0.26158303937308197,-0.11921896690744083,landing,False,
11.5,FLT_002,22.5,4.6,8.0,-1.293,359.599,55.88,56.3,55.15,55.1,51.679,98.3,0.3,-5.3999999999999915,0.40000000000000036,56.3,1.1999999999999957,0.2840237919511164,-0.06590053785345244,landing,False,
11.6,FLT_002,22.58,4.64,8.0,1.155,359.711,55.6,53.68,54.64,55.98,51.922,97.6,0.3843,0.799999999999983,0.40000000000000036,55.98,2.299999999999997,-0.07267949830791999,1.572369751076617,landing,False,
11.7,FLT_002,24.08,4.68,8.0,-2.06,359.739,55.86,57.2,54.92,56.22,51.738,98.1,0.2853,15.0,0.40000000000000036,57.2,2.280000000000001,1.2398471770647241,-0.35275639375618806,landing,False,
11.8,FLT_002,23.78,4.72,8.0,2.542,359.609,54.94,53.9,55.18,54.78,52.082,97.8,0.2036,-2.9999999999999716,0.40000000000000036,55.18,1.2800000000000011,-0.9747851259764442,-1.857748604347691,landing,False,
11.9,FLT_002,24.03,4.76,8.0,-0.16,359.579,54.58,53.93,54.74,54.16,51.836,97.9,0.3205,2.5,0.40000000000000036,54.74,0.8100000000000023,-1.5029497611179883,0.3381699786835603,landing,False,
12.0,FLT_002,24.54,4.8,8.0,1.5,359.631,56.98,55.91,53.83,54.4,51.951,98.1,0.3352,5.09999999999998,0.40000000000000036,56.98,3.1499999999999986,0.993745398996776,0.5987095045329904,landing,False,
12.1,FLT_002,24.63,4.84,8.0,1.933,359.538,54.61,54.79,54.16,54.89,51.625,98.1,0.3386,0.8999999999999986,0.40000000000000036,54.89,0.730000000000004,-1.3177250729007424,0.6417860841404952,landing,False,
12.2,FLT_002,24.77,4.88,8.0,0.598,359.727,56.02,54.63,53.81,52.98,51.94,97.7,0.3191,1.4000000000000057,0.40000000000000036,56.02,3.0400000000000063,-0.02576880543775473,0.2370985106236049,landing,False,
12.3,FLT_002,24.92,4.92,8.0,-1.738,359.606,53.04,55.28,55.13,54.8,51.57,97.7,0.3629,1.5000000000000213,0.40000000000000036,55.28,2.240000000000002,-0.8431067083535184,1.090175253061006,landing,False,
12.4,FLT_002,24.87,4.96,8.0,1.266,359.488,54.42,54.58,55.26,54.41,51.672,97.9,0.3382,-0.5000000000000071,0.40000000000000036,55.26,0.8500000000000014,-0.8426989391409635,0.6235644224039931,landing,False,
12.5,FLT_002,25.11,5.0,8.0,-0.192,359.511,55.05,54.75,55.1,52.82,51.615,96.9,0.3277,2.3999999999999844,0.40000000000000036,55.1,2.280000000000001,-1.0076185914986344,0.42388722995740896,landing,False,
12.6,FLT_002,25.66,5.04,8.0,0.38,359.637,55.81,55.28,54.53,54.68,51.691,98.0,0.2789,5.500000000000007,0.40000000000000036,55.81,1.2800000000000011,-0.185316312627059,-0.5244180099530666,landing,False,
12.7,FLT_002,24.94,5.08,8.0,-0.73,359.384,55.53,54.87,55.61,55.11,51.744,97.8,0.173,-7.199999999999989,0.40000000000000036,55.61,0.740000000000002,-0.3968430088568531,-2.4878433435031537,landing,False,
12.8,FLT_002,25.08,5.12,8.0,-3.58,359.299,55.93,54.03,55.13,53.22,51.67,97.8,0.2875,1.3999999999999702,0.40000000000000036,55.93,2.710000000000001,-0.02607296955158558,-0.2758923686329391,landing,False,
12.9,FLT_002,25.85,5.16,8.0,0.117,359.026,54.03,53.65,54.84,54.66,51.708,97.8,0.4162,7.700000000000031,0.40000000000000036,54.84,1.1900000000000048,-1.2977936324751604,2.078277833651715,landing,False,
13.0,FLT_002,26.08,5.2,8.0,-1.197,359.157,54.39,53.66,53.33,53.86,51.646,97.2,0.2887,2.2999999999999687,0.40000000000000036,54.39,1.0600000000000023,-1.761151894998714,-0.2706777164972828,landing,False,
13.1,FLT_002,26.57,5.24,8.0,0.6,359.073,55.87,55.03,54.07,54.9,51.728,97.6,0.3184,4.90000000000002,0.40000000000000036,55.87,1.7999999999999972,-0.07487865417206623,0.29879565700413185,landing,False,
13.2,FLT_002,26.29,5.28,8.0,-0.072,359.239,55.26,55.1,54.46,54.46,51.716,97.7,0.2658,-2.8000000000000114,0.40000000000000036,55.26,0.7999999999999972,-0.7346803564216807,-0.7005501278859391,landing,False,
13.3,FLT_002,26.22,5.32,8.0,-1.053,359.068,54.53,56.21,55.59,56.29,51.64,97.7,0.3432,-0.7000000000000028,0.40000000000000036,56.29,1.759999999999998,0.4312270276078024,0.7275434918330334,landing,False,
13.4,FLT_002,27.11,5.36,8.0,4.267,358.961,55.12,54.01,56.29,54.67,51.642,98.3,0.2961,8.900000000000006,0.40000000000000036,56.29,2.280000000000001,0.46986821668777284,-0.22073696704824255,landing,False,
13.5,FLT_002,27.68,5.4,8.0,-0.625,358.924,53.89,54.03,55.69,55.14,51.54,97.5,0.3362,5.700000000000003,0.40000000000000036,55.69,1.7999999999999972,-0.24470346419048578,0.5579086877230945,landing,False,
13.6,FLT_002,27.39,5.44,8.0,0.16,358.969,54.27,54.27,57.7,55.45,51.674,97.7,0.3289,-2.8999999999999915,0.40000000000000036,57.7,3.4299999999999997,1.9975979748193164,0.41298819999253594,landing,False,
13.7,FLT_002,26.68,5.48,8.0,3.757,358.975,54.82,55.45,53.1,54.04,51.706,97.1,0.2875,-7.1000000000000085,0.40000000000000036,55.45,2.3500000000000014,-0.5374482261845127,-0.4273630807691874,landing,False,
13.8,FLT_002,27.74,5.52,8.0,-2.017,358.909,54.19,56.32,53.02,54.05,51.752,97.2,0.3292,10.599999999999987,0.3999999999999915,56.32,3.299999999999997,0.4313831679466866,0.38834763141705414,landing,False,
13.9,FLT_002,26.84,5.56,8.0,1.68,358.665,55.04,54.54,54.02,54.72,51.534,98.0,0.3431,-8.999999999999986,0.40000000000000036,55.04,1.019999999999996,-0.979314195982079,0.6443258091404261,landing,False,
14.0,FLT_002,27.99,5.6,8.0,-1.495,358.636,56.62,55.86,53.35,55.08,51.568,97.4,0.1986,11.499999999999986,0.40000000000000036,56.62,3.269999999999996,0.7577035315894225,-2.224738046985715,landing,False,
14.1,FLT_002,27.2,5.64,8.0,-0.462,358.616,53.23,55.27,55.92,53.63,51.705,97.5,0.2965,-7.8999999999999915,0.40000000000000036,55.92,2.690000000000005,-0.03367762979781462,-0.2857581003158784,landing,False,
14.2,FLT_002,28.19,5.68,8.0,0.793,358.567,55.38,56.52,52.82,55.1,51.703,97.6,0.3565,9.90000000000002,0.40000000000000036,56.52,3.700000000000003,0.6108691668374957,0.9654783602792668,landing,False,
14.3,FLT_002,28.86,5.72,8.0,2.293,358.701,55.14,54.89,53.94,55.29,51.727,97.9,0.2945,6.6999999999999815,0.40000000000000036,55.29,1.3500000000000014,-0.7297757934688645,-0.3435931004655134,landing,False,
14.4,FLT_002,28.66,5.76,8.0,-2.045,358.674,54.6,55.24,54.28,55.03,51.886,97.4,0.4408,-1.999999999999993,0.40000000000000036,55.24,0.9600000000000009,-0.758296707336215,2.5102607332884888,landing,False,
14.5,FLT_002,29.58,5.8,8.0,0.512,358.819,57.65,53.45,52.1,55.13,51.518,97.2,0.2607,9.199999999999982,0.40000000000000036,57.65,5.549999999999997,1.8486295641441033,-0.994846162377934,landing,False,
14.6,FLT_002,29.32,5.84,8.0,-1.486,358.869,54.68,54.8,53.96,55.38,51.564,97.2,0.3316,-2.59999999999998,0.40000000000000036,55.38,1.4200000000000017,-0.5829313663106813,0.369188090736844,landing,False,
14.7,FLT_002,28.84,5.88,8.0,1.29,358.925,56.42,54.28,55.97,55.28,51.653,97.4,0.2977,-4.800000000000004,0.40000000000000036,56.42,2.1400000000000006,0.5157728479735486,-0.28445319017327575,landing,False,
14.8,FLT_002,30.06,5.92,8.0,1.939,359.01,55.41,55.17,54.55,55.67,51.639,97.6,0.2172,12.199999999999989,0.40000000000000036,55.67,1.1200000000000045,-0.27174156120050375,-1.7539538137849602,climb,False,
14.9,FLT_002,30.15,5.96,8.0,1.336,359.046,54.44,55.98,56.14,54.8,51.665,97.2,0.3316,0.8999999999999986,0.40000000000000036,56.14,1.7000000000000028,0.22944350354028778,0.3826932303102243,climb,False,
15.0,FLT_002,30.64,6.0,8.0,-1.61,359.007,53.94,54.98,56.12,54.5,51.788,97.1,0.3204,4.90000000000002,0.40000000000000036,56.12,2.1799999999999997,0.18406383449372687,0.16353951181333282,climb,False,
15.1,FLT_002,30.56,6.04,8.0,-2.206,359.055,55.13,54.76,54.61,56.65,51.85,97.5,0.2921,-0.8000000000000185,0.40000000000000036,56.65,2.039999999999999,0.7413529511869488,-0.3495718384897791,descent,False,
15.2,FLT_002,30.64,6.08,8.0,-0.344,359.142,55.92,54.21,52.97,55.47,51.545,97.6,0.3597,0.8000000000000185,0.40000000000000036,55.92,2.950000000000003,-0.07135453160747446,0.9155508564815846,climb,False,
15.3,FLT_002,30.11,6.12,8.0,-2.455,359.193,54.15,55.25,54.77,56.28,51.69,97.7,0.2268,-5.300000000000011,0.40000000000000036,56.28,2.1300000000000026,0.3232206616964966,-1.5541412512096244,descent,False,
15.4,FLT_002,31.21,6.16,8.0,1.028,359.045,54.83,55.21,57.19,56.18,51.764,97.3,0.2719,11.000000000000014,0.40000000000000036,57.19,2.3599999999999994,1.3329467996281177,-0.6966704120766846,climb,False,
15.5,FLT_002,30.93,6.2,8.0,2.826,359.126,53.22,54.72,54.45,55.58,51.553,97.4,0.2756,-2.8000000000000114,0.40000000000000036,55.58,2.3599999999999994,-0.45930150100642614,-0.6363393366919603,descent,False,
15.6,FLT_002,31.61,6.24,8.0,-1.574,359.2,54.43,53.46,55.11,55.96,51.635,97.4,0.2961,6.799999999999997,0.40000000000000036,55.96,2.5,0.030425622553816343,-0.26503423415025495,climb,False,
15.7,FLT_002,32.52,6.28,8.0,1.046,359.285,54.85,54.78,54.91,54.24,51.575,96.6,0.3535,9.100000000000037,0.40000000000000036,54.91,0.6699999999999946,-1.2346688883327714,0.8518294606166774,climb,False,
15.8,FLT_002,32.21,6.32,8.0,-1.585,359.253,54.77,54.7,55.6,56.19,51.449,97.6,0.3127,-3.1000000000000227,0.40000000000000036,56.19,1.4899999999999949,0.3218616468895738,0.09431062458783876,descent,False,
15.9,FLT_002,31.95,6.36,8.0,2.513,359.179,55.74,54.57,53.13,54.77,51.529,97.4,0.3757,-2.6000000000000156,0.40000000000000036,55.74,2.6099999999999994,-0.18546401185553865,1.3050884199845665,descent,False,
16.0,FLT_002,32.04,6.4,8.0,2.024,359.175,55.64,55.97,54.76,54.42,51.584,97.3,0.2287,0.8999999999999986,0.40000000000000036,55.97,1.5499999999999972,0.1312002391409863,-1.5093459163728065,climb,False,
16.1,FLT_002,32.0,6.44,8.0,-0.16,359.269,53.79,55.81,53.47,55.89,51.741,97.2,0.2453,-0.3999999999999915,0.40000000000000036,55.89,2.4200000000000017,0.026680416103312607,-1.1524748473994058,cruise,False,
16.2,FLT_002,31.25,6.48,8.0,1.53,359.124,54.42,53.83,56.39,53.76,51.631,97.2,0.2097,-7.5,0.40000000000000036,56.39,2.6300000000000026,0.7024858973159721,-1.7441925367645976,descent,False,
16.3,FLT_002,32.63,6.52,8.0,1.675,359.128,53.56,56.98,55.59,55.4,51.626,97.7,0.35,13.800000000000026,0.3999999999999915,56.98,3.4199999999999946,1.4477935537496585,0.8252948009403409,climb,False,
16.4,FLT_002,32.55,6.56,8.0,-2.384,358.928,55.22,54.32,54.5,56.73,51.581,96.6,0.1887,-0.800000000000054,0.40000000000000036,56.73,2.4099999999999966,1.0695052409315746,-2.0026268937428964,descent,False,
16.5,FLT_002,33.17,6.6,8.0,0.99,358.787,54.91,54.34,56.34,54.25,51.613,96.9,0.2339,6.2000000000000455,0.40000000000000036,56.34,2.0900000000000034,0.5431928578682294,-1.1692185713920467,climb,False,
16.6,FLT_002,32.95,6.64,8.0,-1.244,358.896,55.47,56.38,54.82,52.82,51.618,97.1,0.2929,-2.1999999999999886,0.40000000000000036,56.38,3.5600000000000023,0.5841736605854849,-0.11956995746205402,descent,False,
16.7,FLT_002,33.52,6.68,8.0,0.248,358.922,55.88,56.28,55.02,54.78,51.408,97.4,0.1752,5.700000000000003,0.40000000000000036,56.28,1.5,0.48823654043331505,-2.0645144400759934,climb,False,
16.8,FLT_002,34.23,6.72,8.0,-0.688,358.81,54.98,55.09,54.65,56.76,51.645,97.1,0.3075,7.0999999999999375,0.40000000000000036,56.76,2.1099999999999994,1.1044003300273233,0.13804512265523017,climb,False,
16.9,FLT_002,33.89,6.76,8.0,0.058,358.874,55.2,55.02,55.78,54.58,51.575,96.8,0.3602,-3.399999999999963,0.40000000000000036,55.78,1.2000000000000028,-0.28083405062067335,1.0281416906106597,descent,False,
17.0,FLT_002,33.46,6.8,8.0,1.841,358.813,54.76,55.5,54.96,55.75,51.696,96.7,0.276,-4.299999999999997,0.40000000000000036,55.75,0.990000000000002,-0.2944689709914848,-0.3984118199600224,descent,False,
17.1,FLT_002,33.79,6.84,8.0,-2.287,358.854,54.69,55.42,55.81,56.02,51.482,97.0,0.3249,3.299999999999983,0.40000000000000036,56.02,1.3300000000000054,0.0649666034688543,0.44909255499464135,climb,False,
17.2,FLT_002,34.75,6.88,8.0,-3.498,358.898,53.02,55.3,55.84,54.04,51.738,96.8,0.3894,9.600000000000009,0.40000000000000036,55.84,2.8200000000000003,-0.1966091801801822,1.5031853888238502,climb,False,
17.3,FLT_002,34.98,6.92,8.0,-0.895,358.965,56.08,55.21,54.57,55.43,51.483,97.6,0.3195,2.2999999999999687,0.40000000000000036,56.08,1.509999999999998,0.13700726963158244,0.34238442198859975,climb,False,
17.4,FLT_002,34.37,6.96,8.0,2.211,359.056,55.82,52.85,56.62,53.05,51.682,97.0,0.3591,-6.099999999999994,0.40000000000000036,56.62,3.769999999999996,0.909220812850636,1.0041945137703776,descent,False,
17.5,FLT_002,34.99,7.0,8.0,-1.797,359.036,53.9,56.43,55.92,54.55,51.516,96.7,0.2764,6.2000000000000455,0.40000000000000036,56.43,2.530000000000001,0.5929790510365387,-0.3799431966164731,climb,False,
17.6,FLT_002,35.66,7.04,8.0,-1.031,359.013,56.03,55.34,55.23,52.11,51.623,97.4,0.2791,6.699999999999946,0.40000000000000036,56.03,3.9200000000000017,-0.025735597422993407,-0.3342343350096114,climb,False,
17.7,FLT_002,36.27,7.08,8.0,2.334,359.147,53.97,54.63,52.65,55.77,51.69,96.6,0.3203,6.100000000000065,0.40000000000000036,55.77,3.1200000000000045,-0.43010944483642666,0.33014050383708793,climb,False,
17.8,FLT_002,35.7,7.12,8.0,2.769,359.059,54.94,56.32,54.49,53.59,51.609,96.9,0.3221,-5.700000000000003,0.40000000000000036,56.32,2.729999999999997,0.4022300310665359,0.349655256288187,descent,False,
17.9,FLT_002,35.71,7.16,8.0,1.385,359.111,54.01,55.31,56.1,55.03,51.527,96.6,0.3329,0.0999999999999801,0.40000000000000036,56.1,2.0900000000000034,0.0270814905262075,0.5952987502434531,cruise,False,
18.0,FLT_002,35.82,7.2,8.0,0.816,359.044,55.99,54.99,55.63,56.72,51.5,96.6,0.351,1.0999999999999943,0.40000000000000036,56.72,1.7299999999999969,1.0101219441442206,0.9004576102612969,climb,False,
18.1,FLT_002,36.28,7.24,8.0,2.002,359.049,55.55,54.27,55.27,55.1,51.518,96.9,0.3544,4.6000000000000085,0.40000000000000036,55.55,1.279999999999994,-0.9729798073982837,0.941811761447014,climb,False,
18.2,FLT_002,37.1,7.28,8.0,-0.831,359.227,54.64,54.2,57.23,54.74,51.428,97.1,0.3804,8.200000000000003,0.40000000000000036,57.23,3.029999999999994,1.7908039764998795,1.3540257201340056,climb,False,
18.3,FLT_002,36.68,7.32,8.0,1.385,359.103,52.66,54.36,54.23,54.75,51.564,97.0,0.3911,-4.200000000000017,0.40000000000000036,54.75,2.0900000000000034,-2.199454581836544,1.500164692561773,descent,False,
18.4,FLT_002,37.06,7.36,8.0,-1.595,358.96,53.5,54.45,55.25,53.66,51.668,96.5,0.2881,3.8000000000000256,0.40000000000000036,55.25,1.75,-1.3452953165751242,-0.31246370464341905,climb,False,
18.5,FLT_002,36.3,7.4,8.0,3.237,359.101,56.17,55.04,55.17,54.6,51.649,97.1,0.3094,-7.600000000000051,0.40000000000000036,56.17,1.5700000000000003,0.0775317917269849,0.07240034165317535,descent,False,
18.6,FLT_002,38.0,7.44,8.0,2.086,359.125,55.22,55.77,55.24,56.13,51.663,96.8,0.3151,17.00000000000003,0.40000000000000036,56.13,0.9100000000000037,0.06856826389541201,0.17824375585107585,climb,False,
18.7,FLT_002,38.08,7.48,8.0,1.317,359.055,55.14,55.84,55.43,52.92,51.61,96.0,0.3513,0.799999999999983,0.40000000000000036,55.84,2.9200000000000017,-0.4363304737036488,0.791748867476908,climb,False,
18.8,FLT_002,37.46,7.52,8.0,-0.684,359.042,54.12,54.17,54.2,53.92,51.349,96.9,0.303,-6.199999999999974,0.3999999999999915,54.2,0.28000000000000114,-2.8702086408313985,-0.048961073337532524,descent,False,
18.9,FLT_002,37.76,7.56,8.0,1.387,359.022,56.13,56.51,53.36,55.79,51.492,97.0,0.2588,2.9999999999999716,0.40000000000000036,56.51,3.1499999999999986,0.673684387953933,-0.7965577424540398,climb,False,
19.0,FLT_002,38.6,7.6,8.0,-0.037,358.994,55.6,57.22,54.92,53.45,51.578,96.7,0.3205,8.400000000000034,0.40000000000000036,57.22,3.769999999999996,1.7339878675498654,0.2548297712814414,climb,False,
19.1,FLT_002,39.68,7.64,8.0,-1.112,359.129,53.45,56.12,54.15,55.72,51.478,96.8,0.4119,10.799999999999983,0.40000000000000036,56.12,2.6699999999999946,0.030877280768321975,1.8149793463368475,climb,False,
19.2,FLT_002,37.57,7.68,8.0,1.17,359.038,54.97,55.89,53.45,55.07,51.488,97.2,0.2366,-21.099999999999994,0.40000000000000036,55.89,2.4399999999999977,-0.3058035861294891,-1.2197000749920404,descent,False,
19.3,FLT_002,38.35,7.72,8.0,-3.805,359.016,55.79,55.69,55.96,53.32,51.541,95.8,0.3009,7.800000000000011,0.40000000000000036,55.96,2.6400000000000006,-0.2215585112749866,-0.09902184948570374,climb,False,
19.4,FLT_002,38.61,7.76,8.0,1.774,358.908,54.88,54.97,56.47,57.74,51.52,96.7,0.3285,2.59999999999998,0.40000000000000036,57.74,2.8599999999999994,2.3930340631971863,0.44794441398862916,climb,False,
19.5,FLT_002,39.53,7.8,8.0,-2.06,358.887,56.44,55.9,55.45,55.03,51.581,96.3,0.2555,9.200000000000017,0.40000000000000036,56.44,1.4099999999999966,0.4978613196352303,-0.9010813856249928,climb,False,
19.6,FLT_002,39.39,7.84,8.0,1.466,358.822,56.26,55.2,54.53,54.94,51.433,96.9,0.3652,-1.4000000000000057,0.40000000000000036,56.26,1.7299999999999969,0.18664502869306995,1.1041859952110877,descent,False,
19.7,FLT_002,39.15,7.88,8.0,-2.98,358.853,54.3,53.14,53.29,55.04,51.254,96.4,0.2562,-2.40000000000002,0.40000000000000036,55.04,1.8999999999999986,-1.686546615947468,-0.8694770360520266,descent,False,
19.8,FLT_002,38.9,7.92,8.0,-0.827,358.839,52.95,53.84,55.47,54.25,51.399,96.6,0.3207,-2.5,0.40000000000000036,55.47,2.519999999999996,-1.0012174718049975,0.2716275683215049,descent,False,
19.9,FLT_002,40.31,7.96,8.0,0.908,358.897,53.77,53.88,56.19,55.83,51.633,96.0,0.2697,14.100000000000037,0.40000000000000036,56.19,2.4199999999999946,0.11902144808553164,-0.654686367831011,climb,False,
20.0,FLT_002,39.91,8.0,8.0,1.741,359.031,54.17,55.49,55.11,55.82,51.511,96.7,0.3278,-4.000000000000057,0.40000000000000036,55.82,1.6499999999999986,-0.44711097036006314,0.4229876795812564,descent,False,
20.1,FLT_002,39.63,8.04,8.0,-1.382,358.914,56.28,53.27,55.42,55.04,51.467,96.1,0.2916,-2.7999999999999403,0.3999999999999915,56.28,3.009999999999998,0.2813825549764611,-0.24958086870286983,descent,False,
20.2,FLT_002,40.07,8.08,8.0,-1.85,358.929,56.1,53.28,53.72,55.1,51.628,96.3,0.273,4.399999999999977,0.40000000000000924,56.1,2.8200000000000003,-0.0059518345088914165,-0.5672561575843844,climb,False,
20.3,FLT_002,40.4,8.12,8.0,2.044,358.77,54.72,55.35,53.36,56.19,51.349,96.8,0.3526,3.299999999999983,0.3999999999999915,56.19,2.8299999999999983,0.13791407201459974,0.8880018471826707,climb,False,
20.4,FLT_002,40.66,8.16,8.0,3.803,358.775,55.18,55.18,54.85,53.85,51.595,96.6,0.3495,2.59999999999998,0.40000000000000924,55.18,1.3299999999999983,-1.3965444354234426,0.7978409439818903,climb,False,
20.5,FLT_002,40.49,8.2,8.0,-1.82,358.831,54.22,56.64,55.07,55.01,51.535,96.3,0.2819,-1.699999999999946,0.3999999999999915,56.64,2.4200000000000017,0.8803505196911786,-0.48518590171581216,descent,False,
20.6,FLT_002,40.69,8.24,8.0,-5.229,358.798,55.85,54.21,55.43,55.15,51.572,95.9,0.3907,1.9999999999999574,0.40000000000000924,55.85,1.6400000000000006,-0.3644230400842292,1.5056834870075675,climb,False,
20.7,FLT_002,42.59,8.28,8.0,3.041,358.837,54.72,54.51,55.66,55.55,51.531,96.3,0.3063,19.000000000000057,0.3999999999999915,55.66,1.1499999999999986,-0.7102243808534956,-0.039864498595838606,climb,False,
20.8,FLT_002,41.77,8.32,8.0,-0.295,358.869,54.24,55.47,53.88,54.31,51.569,96.2,0.3536,-8.200000000000003,0.40000000000000924,55.47,1.5899999999999963,-0.9864940742852449,0.8210544213058144,descent,False,
20.9,FLT_002,41.6,8.36,8.0,-1.811,358.927,55.38,55.26,53.92,55.35,51.53,96.1,0.2655,-1.700000000000017,0.3999999999999915,55.38,1.4600000000000009,-1.1091607208040575,-0.7768498433887625,descent,False,
21.0,FLT_002,42.2,8.4,8.0,0.116,358.807,54.82,56.06,55.42,53.87,51.513,96.1,0.2706,6.000000000000014,0.40000000000000924,56.06,2.190000000000005,-0.025571268561899833,-0.709538446562523,climb,False,
21.1,FLT_002,42.29,8.44,8.0,3.889,358.915,55.18,54.23,55.08,55.39,51.518,96.1,0.2646,0.899999999999963,0.3999999999999915,55.39,1.1600000000000037,-1.0684502906273663,-0.837417962791951,climb,False,
21.2,FLT_002,41.96,8.48,8.0,1.315,358.883,55.49,54.04,54.39,55.05,51.359,96.2,0.3203,-3.299999999999983,0.40000000000000924,55.49,1.4500000000000028,-0.877248769193176,0.195465724351081,descent,False,
21.3,FLT_002,41.65,8.52,8.0,1.561,358.718,54.56,54.58,53.93,55.37,51.39,96.8,0.2686,-3.1000000000000227,0.3999999999999915,55.37,1.4399999999999977,-1.027290248179308,-0.8018253601746187,descent,False,
21.4,FLT_002,42.54,8.56,8.0,0.324,358.626,54.35,54.68,55.04,52.49,51.73,95.9,0.3012,8.900000000000006,0.40000000000000924,55.04,2.549999999999997,-1.4837861252900946,-0.2102120006118025,climb,False,
21.5,FLT_002,42.92,8.6,8.0,0.954,358.5,53.4,56.59,53.44,55.92,51.391,96.5,0.2361,3.8000000000000256,0.3999999999999915,56.59,3.190000000000005,0.9440871297296242,-1.5945079556673805,climb,False,
21.6,FLT_002,43.15,8.64,8.0,3.395,358.447,55.89,54.98,56.49,55.82,51.353,96.5,0.301,2.2999999999999687,0.40000000000000924,56.49,1.5100000000000051,0.7821565345670823,-0.21939541892961817,climb,False,
21.7,FLT_002,42.49,8.68,8.0,-1.805,358.361,55.2,55.39,55.95,55.4,51.417,95.5,0.3319,-6.599999999999966,0.3999999999999915,55.95,0.75,-0.05102346833330628,0.40775984764987805,descent,False,
21.8,FLT_002,44.85,8.72,8.0,1.52,358.208,55.85,56.61,56.25,54.69,51.389,95.9,0.2313,23.599999999999994,0.40000000000000924,56.61,1.9200000000000017,0.9919121189665304,-1.83945825626431,climb,False,
21.9,FLT_002,45.01,8.76,8.0,-0.069,358.04,54.15,55.05,57.08,53.82,51.351,96.1,0.3962,1.599999999999966,0.3999999999999915,57.08,3.259999999999998,1.6439586105376351,1.8168860010875658,climb,False,
22.0,FLT_002,44.23,8.8,8.0,-0.126,358.038,54.79,54.86,54.15,55.12,51.52,96.1,0.2741,-7.800000000000011,0.40000000000000924,55.12,0.9699999999999989,-1.3136646310410365,-0.8688807147818708,descent,False,
22.1,FLT_002,44.22,8.84,8.0,-2.289,358.18,54.43,54.95,54.83,55.03,51.424,95.6,0.3261,-0.0999999999999801,0.3999999999999915,55.03,0.6000000000000014,-1.390458041483375,0.274164235231759,cruise,False,
22.2,FLT_002,44.13,8.88,8.0,0.842,358.194,54.04,54.49,54.84,54.97,51.321,96.0,0.1906,-0.899999999999963,0.40000000000000924,54.97,0.9299999999999997,-1.4228650410890227,-2.5134244833962835,descent,False,
22.3,FLT_002,44.9,8.92,8.0,1.164,358.134,55.01,55.59,53.9,54.73,51.375,96.2,0.3117,7.69999999999996,0.3999999999999915,55.59,1.6900000000000048,-0.5126002304033137,0.046464670804860275,climb,False,
22.4,FLT_002,44.75,8.96,8.0,-0.373,358.028,54.07,53.97,55.35,55.08,51.323,95.6,0.2929,-1.4999999999999858,0.40000000000000924,55.35,1.3800000000000026,-0.8238923455580266,-0.3260234032886245,descent,False,
22.5,FLT_002,45.64,9.0,8.0,2.894,357.9,54.46,54.41,53.69,56.05,51.396,96.0,0.3579,8.900000000000006,0.3999999999999915,56.05,2.3599999999999994,0.1988568993756086,1.0201450867522972,climb,False,
22.6,FLT_002,45.67,9.04,8.0,0.167,357.874,54.86,53.38,55.07,54.24,51.513,95.7,0.3175,0.30000000000001137,0.3999999999999915,55.07,1.6899999999999977,-1.1786836154656382,0.14753055169988338,cruise,False,
22.7,FLT_002,44.98,9.08,8.0,-4.247,357.854,54.4,55.99,54.76,56.66,51.43,95.9,0.2879,-6.900000000000048,0.40000000000000924,56.66,2.259999999999998,1.0585801852162386,-0.4683119604824826,descent,False,
22.8,FLT_002,45.27,9.12,8.0,1.1,357.909,58.0,56.37,53.94,56.4,51.478,95.7,0.3613,2.9000000000000625,0.3999999999999915,58.0,4.060000000000002,2.6881842032288286,1.0636294486252054,climb,False,
22.9,FLT_002,46.29,9.16,8.0,-2.325,357.874,54.43,55.5,56.38,53.88,51.458,95.8,0.3078,10.19999999999996,0.40000000000000924,56.38,2.5,0.5599025702498698,-0.05074076431583646,climb,False,
23.0,FLT_002,46.36,9.2,8.0,2.857,358.013,55.12,55.12,54.13,53.19,51.419,95.8,0.3228,0.7000000000000028,0.3999999999999915,55.12,1.9299999999999997,-1.0411994418584456,0.279150755541352,climb,False,
23.1,FLT_002,45.65,9.24,8.0,3.752,357.883,55.72,53.59,55.65,54.81,51.447,96.4,0.2942,-7.1000000000000085,0.40000000000000924,55.72,2.1299999999999955,-0.2640031548396395,-0.30473449735447355,descent,False,
23.2,FLT_002,46.18,9.28,8.0,2.014,357.771,56.34,53.87,54.92,57.1,51.471,96.5,0.312,5.300000000000011,0.3999999999999915,57.1,3.230000000000004,1.5499393164538502,0.10815012918173908,climb,False,
23.3,FLT_002,46.53,9.32,8.0,-0.001,357.812,54.29,56.64,54.22,55.16,51.311,96.5,0.3049,3.500000000000014,0.40000000000000924,56.64,2.4200000000000017,0.9111730287890614,-0.010199612427476936,climb,False,
23.4,FLT_002,46.79,9.36,8.0,1.202,357.763,54.15,55.52,53.74,54.46,51.532,95.2,0.3337,2.59999999999998,0.3999999999999915,55.52,1.7800000000000011,-0.5944404960910692,0.623196191020656,climb,False,
23.5,FLT_002,46.97,9.4,8.0,-1.496,357.707,54.49,54.29,56.47,54.23,51.549,96.0,0.2235,1.7999999999999972,0.40000000000000924,56.47,2.240000000000002,0.6702257833578117,-1.778971932362385,climb,False,
23.6,FLT_002,47.66,9.44,8.0,1.225,357.629,55.12,56.86,55.25,52.51,51.34,95.7,0.3225,6.899999999999977,0.3999999999999915,56.86,4.350000000000001,1.1563501970669876,0.3905485688979568,climb,False,
23.7,FLT_002,47.48,9.48,8.0,-1.59,357.49,57.03,56.12,56.29,56.34,51.47,95.5,0.2666,-1.7999999999999972,0.40000000000000924,57.03,0.9100000000000037,1.3248144943771316,-0.8015235175618523,descent,False,
23.8,FLT_002,47.65,9.52,8.0,3.759,357.28,54.91,53.53,55.99,53.3,51.405,96.2,0.3191,1.700000000000017,0.3999999999999915,55.99,2.690000000000005,-0.07293332268379324,0.34711956167726454,climb,False,
23.9,FLT_002,47.43,9.56,8.0,-1.972,357.213,53.57,54.99,56.04,54.32,51.37,95.7,0.189,-2.1999999999999886,0.40000000000000924,56.04,2.469999999999999,0.008845153082474296,-2.359002196368851,descent,False,
24.0,FLT_002,48.09,9.6,8.0,-3.277,357.099,54.39,57.55,55.93,55.45,51.595,96.0,0.2643,6.600000000000037,0.3999999999999915,57.55,3.1599999999999966,2.0513561403353764,-0.7590663665437597,climb,False,
24.1,FLT_002,48.2,9.64,8.0,-0.329,357.129,56.48,55.6,53.88,53.79,51.353,96.0,0.2964,1.0999999999999943,0.40000000000000924,56.48,2.6899999999999977,0.5857392061226079,-0.046060248157114424,climb,False,
24.2,FLT_002,48.17,9.68,8.0,1.185,357.123,54.85,54.72,57.11,54.89,51.345,95.9,0.2833,-0.30000000000001137,0.3999999999999915,57.11,2.3900000000000006,1.3782861454906223,-0.36225701082529205,cruise,False,
24.3,FLT_002,48.03,9.72,8.0,4.635,357.058,56.75,55.38,55.83,52.05,51.396,95.6,0.2125,-1.4000000000000057,0.40000000000000924,56.75,4.700000000000003,0.8725848200113431,-1.8443894808899128,descent,False,
24.4,FLT_002,49.45,9.76,8.0,-1.447,357.007,57.37,54.24,56.11,53.42,51.359,95.6,0.3029,14.200000000000017,0.3999999999999915,57.37,3.9499999999999957,1.7327939605813745,0.12527840806333793,climb,False,
24.5,FLT_002,49.9,9.8,8.0,0.125,357.116,56.66,53.44,54.01,54.54,51.254,95.7,0.2782,4.499999999999957,0.40000000000000924,56.66,3.219999999999999,0.7701139208649284,-0.4248573046916319,climb,False,
24.6,FLT_002,49.33,9.84,8.0,-0.002,357.034,54.61,54.67,55.38,53.93,51.327,96.1,0.2589,-5.700000000000003,0.3999999999999915,55.38,1.4500000000000028,-0.9120046364103394,-0.8143033765374749,descent,False,
24.7,FLT_002,50.13,9.88,8.0,-2.106,357.128,55.33,56.72,53.93,54.89,51.472,95.9,0.3329,8.000000000000043,0.40000000000000924,56.72,2.789999999999999,0.8325807413436478,0.8003440288096391,climb,False,
24.8,FLT_002,49.73,9.92,8.0,-2.002,357.264,55.85,53.29,53.7,55.54,51.4,95.5,0.1658,-4.000000000000057,0.3999999999999915,55.85,2.5600000000000023,-0.3492470049029314,-2.647328500992647,descent,False,
24.9,FLT_002,49.12,9.96,8.0,-3.772,357.293,54.66,55.22,55.41,53.33,51.398,95.6,0.2615,-6.099999999999994,0.40000000000000924,55.41,2.0799999999999983,-0.9153264450650744,-0.6649455679896003,descent,False,
25.0,FLT_002,50.16,10.0,8.0,3.055,357.255,56.74,54.89,54.93,54.81,51.479,96.1,0.361,10.399999999999991,0.3999999999999915,56.74,1.9299999999999997,0.8384229925312604,1.353910876458634,climb,False,
25.1,FLT_002,50.04,10.04,8.0,-1.589,357.235,55.55,55.76,52.08,55.8,51.41,95.2,0.2507,-1.1999999999999744,0.3999999999999915,55.8,3.719999999999999,-0.40128780579929385,-0.8651552760697125,descent,False,
25.2,FLT_002,50.65,10.08,8.0,-4.171,357.312,53.73,54.47,53.92,54.44,51.262,95.0,0.2609,6.099999999999994,0.40000000000000924,54.47,0.740000000000002,-2.0348227421255998,-0.6527776303449062,climb,False,
25.3,FLT_002,51.4,10.12,8.0,-0.773,357.278,54.64,54.77,53.33,55.01,51.421,95.3,0.3428,7.5,0.3999999999999915,55.01,1.6799999999999997,-1.2946415687982105,1.0033357717425322,climb,False,
25.4,FLT_002,50.56,10.16,8.0,2.437,357.517,55.46,54.9,54.42,54.05,51.367,96.1,0.2994,-8.399999999999963,0.40000000000000924,55.46,1.4100000000000037,-0.7437209832047159,0.14853524797442905,descent,False,
25.5,FLT_002,51.2,10.2,8.0,1.031,357.438,52.3,55.49,55.26,54.58,51.349,95.1,0.3139,6.400000000000006,0.3999999999999915,55.49,3.190000000000005,-0.6776506342092974,0.4317732606068807,climb,False,
25.6,FLT_002,51.64,10.24,8.0,1.022,357.508,53.31,54.79,54.42,56.33,51.408,95.2,0.3142,4.399999999999977,0.40000000000000924,56.33,3.019999999999996,0.36835960981173327,0.4888875894184634,climb,False,
25.7,FLT_002,52.09,10.28,8.0,3.238,357.602,56.12,54.2,55.73,53.88,51.23,95.5,0.3589,4.500000000000028,0.3999999999999915,56.12,2.239999999999995,0.09261431903091705,1.39159594078764,climb,False,
25.8,FLT_002,52.1,10.32,8.0,2.084,357.438,56.27,55.18,57.08,54.3,51.313,95.5,0.3064,0.0999999999999801,0.40000000000000924,57.08,2.780000000000001,1.2494893953639723,0.3193488967550163,cruise,False,
25.9,FLT_002,51.25,10.36,8.0,-5.234,357.458,56.25,56.46,54.53,53.63,51.321,95.8,0.3196,-8.500000000000014,0.3999999999999915,56.46,2.8299999999999983,0.45141371159707566,0.5765721015248457,descent,False,
26.0,FLT_002,51.45,10.4,8.0,-0.955,357.428,55.75,54.01,54.65,54.18,51.503,95.8,0.353,2.0000000000000284,0.40000000000000924,55.75,1.740000000000002,-0.43125576622674183,1.233613065828978,climb,False,
26.1,FLT_002,52.59,10.44,8.0,0.869,357.396,56.9,55.05,55.34,55.0,51.299,95.3,0.3691,11.400000000000006,0.3999999999999915,56.9,1.8999999999999986,0.9700924081916446,1.4969263337148695,climb,False,
26.2,FLT_002,52.22,10.48,8.0,0.379,357.496,54.23,55.59,55.92,54.37,51.406,95.5,0.3186,-3.7000000000000455,0.40000000000000924,55.92,1.6900000000000048,-0.26797600593704124,0.46101500450437566,descent,False,
26.3,FLT_002,52.12,10.52,8.0,1.112,357.474,55.09,56.05,53.82,54.83,51.294,95.4,0.2436,-1.0000000000000142,0.3999999999999915,56.05,2.229999999999997,-0.12269666468172614,-1.0599528637385451,descent,False,
26.4,FLT_002,53.41,10.56,8.0,5.367,357.618,55.82,53.98,55.13,54.46,51.31,95.1,0.3782,12.899999999999991,0.40000000000000924,55.82,1.8400000000000034,-0.4429646407944645,1.604953001107949,climb,False,
26.5,FLT_002,52.83,10.6,8.0,-1.939,357.492,54.29,54.3,53.66,52.77,51.385,95.5,0.2664,-5.799999999999983,0.3999999999999915,54.3,1.529999999999994,-2.232982922231687,-0.6291684440202416,descent,False,
26.6,FLT_002,54.03,10.64,8.0,-4.499,357.375,54.04,55.41,54.02,54.55,51.257,95.3,0.361,12.000000000000028,0.40000000000000924,55.41,1.3899999999999935,-0.8375259570516029,1.2229764784484483,climb,False,
26.7,FLT_002,53.19,10.68,8.0,-4.867,357.344,53.62,55.14,56.73,55.56,51.202,95.4,0.2614,-8.400000000000034,0.3999999999999915,56.73,3.1099999999999994,0.7535373958043746,-0.7131451239622203,descent,False,
26.8,FLT_002,53.24,10.72,8.0,1.843,357.282,54.74,55.41,56.18,56.0,51.264,95.1,0.4057,0.5000000000000426,0.40000000000000924,56.18,1.4399999999999977,0.09546294002063961,2.0092435018375205,climb,False,
26.9,FLT_002,53.78,10.76,8.0,-0.32,357.199,56.12,55.24,56.78,54.64,51.365,95.6,0.3247,5.3999999999999915,0.3999999999999915,56.78,2.1400000000000006,0.8416469653467223,0.497504922300747,climb,False,
27.0,FLT_002,54.39,10.8,8.0,-2.978,356.969,56.45,55.71,54.35,53.27,51.333,94.9,0.3638,6.099999999999994,0.40000000000000924,56.45,3.1799999999999997,0.40846069437068877,1.2221690007924337,climb,False,
27.1,FLT_002,54.36,10.84,8.0,-0.47,357.073,55.2,53.38,55.22,54.03,51.467,95.0,0.2814,-0.30000000000001137,0.3999999999999915,55.22,1.8399999999999963,-1.1367432979877683,-0.3755979171978405,cruise,False,
27.2,FLT_002,55.36,10.88,8.0,-0.96,357.11,55.8,53.67,56.91,55.27,51.443,95.8,0.3049,10.0,0.40000000000000924,56.91,3.239999999999995,0.946738132103656,0.04268888070462934,climb,False,
27.3,FLT_002,54.7,10.92,8.0,-0.707,357.161,53.28,55.77,53.39,55.59,51.356,95.0,0.3513,-6.599999999999966,0.3999999999999915,55.77,2.490000000000002,-0.5080058398900072,0.974711913612269,descent,False,
27.4,FLT_002,54.72,10.96,8.0,-3.826,357.084,54.18,57.26,54.93,52.84,51.33,95.2,0.384,0.1999999999999602,0.40000000000000924,57.26,4.419999999999995,1.332418288083038,1.565272925113446,cruise,False,
27.5,FLT_002,55.77,11.0,8.0,1.186,357.139,54.82,54.01,56.45,55.32,51.349,95.1,0.2819,10.500000000000043,0.3999999999999915,56.45,2.440000000000005,0.2974025824210599,-0.4430626119996542,climb,False,
27.6,FLT_002,55.51,11.04,8.0,1.435,357.356,54.57,55.42,55.86,55.79,51.262,94.8,0.3127,-2.600000000000051,0.3999999999999915,55.86,1.2899999999999991,-0.4780414328063592,0.17850334414002503,descent,False,
27.7,FLT_002,55.2,11.08,8.0,0.258,357.414,52.76,56.36,53.17,56.09,51.342,94.7,0.2529,-3.0999999999999517,0.40000000000000924,56.36,3.6000000000000014,0.1751587261550296,-1.0013114490966268,descent,False,
27.8,FLT_002,55.73,11.12,8.0,-0.153,357.415,54.4,54.66,54.71,55.1,51.14,94.9,0.3471,5.29999999999994,0.3999999999999915,55.1,0.7000000000000028,-1.4309369566994934,0.8874320548281495,climb,False,
27.9,FLT_002,55.92,11.16,8.0,0.358,357.425,56.26,56.3,55.19,55.83,51.314,95.0,0.3106,1.9000000000000483,0.40000000000000924,56.3,1.1099999999999994,0.18120706088010333,0.15434670558030816,climb,False,
28.0,FLT_002,55.91,11.2,8.0,0.098,357.548,54.77,54.65,55.86,56.04,51.361,94.8,0.3068,-0.10000000000005116,0.3999999999999915,56.04,1.3900000000000006,-0.1964718659254045,0.08470607481084519,cruise,False,
28.1,FLT_002,56.3,11.24,8.0,-3.551,357.433,54.41,56.63,56.32,53.23,51.358,95.2,0.2073,3.9000000000000057,0.40000000000000924,56.63,3.4000000000000057,0.5873078375304494,-1.81361084064331,climb,False,
28.2,FLT_002,55.77,11.28,8.0,-1.676,357.422,54.16,54.36,54.63,53.91,51.443,95.3,0.3342,-5.29999999999994,0.3999999999999915,54.63,0.720000000000006,-2.02777512218408,0.6357097275629432,descent,False,
28.3,FLT_002,56.43,11.32,8.0,0.428,357.426,54.84,55.21,56.73,56.08,51.21,95.1,0.2659,6.599999999999966,0.40000000000000924,56.73,1.8899999999999935,0.7659826343468799,-0.6654133875971362,climb,False,
28.4,FLT_002,57.03,11.36,8.0,-1.471,357.463,57.37,53.7,55.13,54.86,51.473,94.8,0.2424,6.000000000000014,0.3999999999999915,57.37,3.6699999999999946,1.5401000231010988,-1.0736382586223723,climb,False,
28.5,FLT_002,56.75,11.4,8.0,1.767,357.39,54.87,54.42,54.56,54.6,51.583,95.3,0.2961,-2.8000000000000114,0.40000000000000924,54.87,0.44999999999999574,-1.6383229831079271,-0.078650736614941,descent,False,
28.6,FLT_002,56.77,11.44,8.0,-2.703,357.191,55.73,55.33,54.32,55.94,51.375,95.1,0.3257,0.20000000000003126,0.3999999999999915,55.94,1.6199999999999974,-0.25692039071701656,0.4969163081652779,cruise,False,
28.7,FLT_002,57.39,11.48,8.0,4.697,357.197,53.45,55.81,55.5,53.99,51.458,95.4,0.2699,6.199999999999974,0.40000000000000924,55.81,2.3599999999999994,-0.3969241999336494,-0.5921386910551181,climb,False,
28.8,FLT_002,57.38,11.52,8.0,4.148,357.433,55.22,53.94,55.46,53.41,51.32,94.7,0.2977,-0.0999999999999801,0.3999999999999915,55.46,2.0500000000000043,-0.831076458203496,-0.04171275358354566,cruise,False,
28.9,FLT_002,57.15,11.56,8.0,-0.567,357.476,55.47,52.9,55.47,53.79,51.168,94.6,0.256,-2.30000000000004,0.40000000000000924,55.47,2.5700000000000003,-0.7982387742701179,-0.9204524697117425,descent,False,
29.0,FLT_002,57.36,11.6,8.0,-2.994,357.359,55.2,55.98,53.81,52.39,51.123,95.1,0.3142,2.1000000000000085,0.3999999999999915,55.98,3.5899999999999963,-0.10991380212771909,0.24632480855301947,climb,False,
29.1,FLT_002,58.42,11.64,8.0,-1.072,357.31,53.57,54.48,53.78,53.13,51.055,94.8,0.292,10.600000000000023,0.40000000000000924,54.48,1.3499999999999943,-1.9698221555231856,-0.2065267021008337,climb,False,
29.2,FLT_002,58.46,11.68,8.0,2.427,357.283,53.89,56.16,56.45,53.55,51.334,94.9,0.2687,0.3999999999999915,0.3999999999999915,56.45,2.9000000000000057,0.5719700292266063,-0.6754661591938494,cruise,False,
29.3,FLT_002,58.77,11.72,8.0,-0.678,357.441,55.51,55.43,54.02,57.29,51.344,95.5,0.2749,3.1000000000000227,0.40000000000000924,57.29,3.269999999999996,1.618927568077495,-0.5931683607217191,climb,False,
29.4,FLT_002,58.66,11.76,8.0,0.788,357.428,54.83,55.06,53.18,55.58,51.343,94.5,0.3974,-1.1000000000000654,0.3999999999999915,55.58,2.3999999999999986,-0.531044293685872,1.8762134031444249,descent,False,
29.5,FLT_002,58.26,11.8,8.0,0.103,357.538,53.15,55.17,54.44,54.31,51.313,94.9,0.2723,-3.999999999999986,0.40000000000000924,55.17,2.020000000000003,-1.0271242431108567,-0.6587556338871521,descent,False,
29.6,FLT_002,58.78,11.84,8.0,1.144,357.557,54.29,56.38,55.94,55.84,51.26,94.8,0.3523,5.200000000000031,0.3999999999999915,56.38,2.0900000000000034,0.5318934608467472,0.9243585900135486,climb,False,
29.7,FLT_002,59.25,11.88,8.0,1.002,357.566,54.93,54.06,54.41,54.31,51.115,95.1,0.368,4.699999999999989,0.40000000000000924,54.93,0.8699999999999974,-1.3136214410824905,1.2128727755657813,climb,False,
29.8,FLT_002,59.83,11.92,8.0,-0.593,357.465,55.33,55.32,55.01,55.94,51.084,94.1,0.336,5.799999999999983,0.3999999999999915,55.94,0.9299999999999997,-0.0010416690587194343,0.5510245515626137,climb,False,
